name,date,time,time_since_start,vicon_sequence,vicon_time_stamp,vicon_frame_id,vicon_child_frame_id,vicon_translation_x,vicon_translation_y,vicon_translation_z,vicon_rotation_x,vicon_rotation_y,vicon_rotation_z,vicon_rotation_w,int_imu_time_stamp,int_imu_acc_x,int_imu_acc_y,int_imu_acc_z,int_imu_gyro_x,int_imu_gyro_y,int_imu_gyro_z,int_imu_mag_x,int_imu_mag_y,int_imu_mag_z,ext_imu_time_stamp,ext_imu_acc_x,ext_imu_acc_y,ext_imu_acc_z,ext_imu_gyro_x,ext_imu_gyro_y,ext_imu_gyro_z,ext_imu_mag_x,ext_imu_mag_y,ext_imu_mag_z,dji_imu_sequence,dji_imu_time_stamp,dji_imu_frame_id,dji_imu_orientation_x,dji_imu_orientation_y,dji_imu_orientation_z,dji_imu_ang_vel_x,dji_imu_ang_vel_y,dji_imu_ang_vel_z,dji_imu_lin_acc_x,dji_imu_lin_acc_y,dji_imu_lin_acc_z,rc_sequence,rc_time_stamp,rc_frame_id,rc_roll,rc_pitch,rc_yaw,rc_throttle,rc_mode,rc_landing_gear
/home/wc18ny/Desktop/VibrationTest/data.csv,20201016,94358.89681,2.0742416381835938e-05,0.0,0.0,0.0,0.0,0.0,0.0,0.0,0.0,0.0,0.0,0.0,47614.0,-0.08,-0.02,-1.0,-1.4,-1.71,-0.12,2.4,52.66,-49.51,47624.0,-0.07,-0.01,-1.0,-1.46,-1.71,-0.18,3.3,52.21,-49.66,0.0,0.0,0.0,0.0,0.0,0.0,0.0,0.0,0.0,0.0,0.0,0.0,0.0,0.0,0.0,0.0,0.0,0.0,0.0,0.0,0.0
,,94358.898171,0.001375436782836914,0.0,0.0,0.0,0.0,0.0,0.0,0.0,0.0,0.0,0.0,0.0,47634.0,-0.07,-0.01,-1.01,-1.34,-1.59,-0.18,1.65,54.01,-49.21,47644.0,-0.07,-0.01,-1.01,-1.34,-1.65,-0.24,3.15,51.31,-50.26,0.0,0.0,0.0,0.0,0.0,0.0,0.0,0.0,0.0,0.0,0.0,0.0,0.0,0.0,0.0,0.0,0.0,0.0,0.0,0.0,0.0
,,94358.919039,0.022253036499023438,0.0,0.0,0.0,0.0,0.0,0.0,0.0,0.0,0.0,0.0,0.0,47654.0,-0.07,-0.02,-1.0,-1.4,-1.52,-0.24,3.9,51.46,-48.61,47664.0,-0.07,-0.02,-0.99,-1.34,-1.65,-0.18,3.75,52.66,-47.86,0.0,0.0,0.0,0.0,0.0,0.0,0.0,0.0,0.0,0.0,0.0,0.0,0.0,0.0,0.0,0.0,0.0,0.0,0.0,0.0,0.0
,,94358.943616,0.046861886978149414,0.0,0.0,0.0,0.0,0.0,0.0,0.0,0.0,0.0,0.0,0.0,47674.0,-0.07,-0.01,-1.0,-1.22,-1.59,-0.24,4.65,52.21,-49.66,47684.0,-0.07,-0.01,-1.0,-1.34,-1.59,-0.12,4.2,51.91,-49.81,0.0,0.0,0.0,0.0,0.0,0.0,0.0,0.0,0.0,0.0,0.0,0.0,0.0,0.0,0.0,0.0,0.0,0.0,0.0,0.0,0.0
,,94358.962366,0.0656130313873291,0.0,0.0,0.0,0.0,0.0,0.0,0.0,0.0,0.0,0.0,0.0,47693.0,-0.07,-0.02,-1.0,-1.34,-1.71,-0.24,3.9,52.81,-50.11,47703.0,-0.06,-0.01,-1.0,-1.4,-1.65,-0.24,2.7,51.91,-49.81,0.0,0.0,0.0,0.0,0.0,0.0,0.0,0.0,0.0,0.0,0.0,0.0,0.0,0.0,0.0,0.0,0.0,0.0,0.0,0.0,0.0
,,94358.982424,0.08567142486572266,0.0,0.0,0.0,0.0,0.0,0.0,0.0,0.0,0.0,0.0,0.0,47713.0,-0.07,-0.01,-1.0,-1.4,-1.71,-0.12,3.45,51.61,-49.81,47776.0,-0.06,-0.01,-1.02,-1.4,-1.65,-0.18,4.8,53.41,-48.46,0.0,0.0,0.0,0.0,0.0,0.0,0.0,0.0,0.0,0.0,0.0,0.0,0.0,0.0,0.0,0.0,0.0,0.0,0.0,0.0,0.0
,,94359.002477,0.10573625564575195,0.0,0.0,0.0,0.0,0.0,0.0,0.0,0.0,0.0,0.0,0.0,47786.0,-0.06,-0.01,-1.0,-1.52,-1.71,-0.18,4.8,53.41,-48.46,47796.0,-0.06,-0.01,-1.0,-1.34,-1.71,-0.3,3.3,53.26,-49.36,0.0,0.0,0.0,0.0,0.0,0.0,0.0,0.0,0.0,0.0,0.0,0.0,0.0,0.0,0.0,0.0,0.0,0.0,0.0,0.0,0.0
,,94359.02337,0.12662649154663086,0.0,0.0,0.0,0.0,0.0,0.0,0.0,0.0,0.0,0.0,0.0,47806.0,-0.07,-0.01,-1.0,-1.4,-1.52,-0.24,3.15,50.56,-48.91,47816.0,-0.07,-0.01,-1.0,-1.46,-1.52,-0.24,3.45,53.71,-49.21,0.0,0.0,0.0,0.0,0.0,0.0,0.0,0.0,0.0,0.0,0.0,0.0,0.0,0.0,0.0,0.0,0.0,0.0,0.0,0.0,0.0
,,94359.04179,0.1450331211090088,0.0,0.0,0.0,0.0,0.0,0.0,0.0,0.0,0.0,0.0,0.0,47826.0,-0.07,-0.01,-1.0,-1.59,-1.71,-0.12,3.15,53.41,-49.81,47836.0,-0.07,-0.01,-1.0,-1.46,-1.59,-0.24,4.5,52.66,-50.56,0.0,0.0,0.0,0.0,0.0,0.0,0.0,0.0,0.0,0.0,0.0,0.0,0.0,0.0,0.0,0.0,0.0,0.0,0.0,0.0,0.0
,,94359.059962,0.16318774223327637,0.0,0.0,0.0,0.0,0.0,0.0,0.0,0.0,0.0,0.0,0.0,47846.0,-0.07,-0.01,-0.99,-1.46,-1.77,-0.24,4.8,52.96,-48.91,47856.0,-0.07,-0.0,-1.01,-1.52,-1.59,-0.24,3.6,52.51,-49.66,0.0,0.0,0.0,0.0,0.0,0.0,0.0,0.0,0.0,0.0,0.0,0.0,0.0,0.0,0.0,0.0,0.0,0.0,0.0,0.0,0.0
,,94359.082179,0.18544435501098633,0.0,0.0,0.0,0.0,0.0,0.0,0.0,0.0,0.0,0.0,0.0,47866.0,-0.07,-0.01,-1.0,-1.22,-1.65,-0.24,3.15,52.96,-49.21,47876.0,-0.07,-0.01,-1.0,-1.46,-1.65,-0.24,2.1,52.96,-49.21,0.0,0.0,0.0,0.0,0.0,0.0,0.0,0.0,0.0,0.0,0.0,0.0,0.0,0.0,0.0,0.0,0.0,0.0,0.0,0.0,0.0
,,94359.102198,0.20544147491455078,0.0,0.0,0.0,0.0,0.0,0.0,0.0,0.0,0.0,0.0,0.0,47886.0,-0.06,-0.01,-1.0,-1.46,-1.71,-0.12,3.75,52.96,-49.51,47896.0,-0.06,-0.0,-0.99,-1.4,-1.65,-0.18,3.3,54.31,-49.66,0.0,0.0,0.0,0.0,0.0,0.0,0.0,0.0,0.0,0.0,0.0,0.0,0.0,0.0,0.0,0.0,0.0,0.0,0.0,0.0,0.0
,,94359.124612,0.2278599739074707,0.0,0.0,0.0,0.0,0.0,0.0,0.0,0.0,0.0,0.0,0.0,47906.0,-0.07,-0.02,-1.0,-1.28,-1.59,-0.3,3.15,53.41,-49.21,47969.0,-0.06,-0.02,-0.99,-100.49,-1720.85,-723.66,4.95,53.56,-48.01,0.0,0.0,0.0,0.0,0.0,0.0,0.0,0.0,0.0,0.0,0.0,0.0,0.0,0.0,0.0,0.0,0.0,0.0,0.0,0.0,0.0
,,94359.141679,0.24494528770446777,0.0,0.0,0.0,0.0,0.0,0.0,0.0,0.0,0.0,0.0,0.0,48043.0,-0.06,-0.01,-1.01,-1.34,-1.89,0.0,2.55,52.21,-50.41,48054.0,-0.06,-0.02,-1.01,-1.34,-1.52,-0.18,2.85,53.86,-49.06,0.0,0.0,0.0,0.0,0.0,0.0,0.0,0.0,0.0,0.0,0.0,0.0,0.0,0.0,0.0,0.0,0.0,0.0,0.0,0.0,0.0
,,94359.161555,0.26479125022888184,0.0,0.0,0.0,0.0,0.0,0.0,0.0,0.0,0.0,0.0,0.0,48063.0,-0.07,-0.02,-1.01,-1.4,-1.65,-0.3,3.15,52.96,-48.91,48073.0,-0.07,-0.01,-1.0,-1.4,-1.71,-0.24,2.55,52.81,-50.41,0.0,0.0,0.0,0.0,0.0,0.0,0.0,0.0,0.0,0.0,0.0,0.0,0.0,0.0,0.0,0.0,0.0,0.0,0.0,0.0,0.0
,,94359.182239,0.28548765182495117,0.0,0.0,0.0,0.0,0.0,0.0,0.0,0.0,0.0,0.0,0.0,48083.0,-0.07,-0.02,-1.01,-1.4,-1.65,-0.18,3.9,51.76,-49.06,48093.0,-0.08,-0.0,-1.0,-1.28,-1.83,-0.24,4.5,51.61,-49.81,0.0,0.0,0.0,0.0,0.0,0.0,0.0,0.0,0.0,0.0,0.0,0.0,0.0,0.0,0.0,0.0,0.0,0.0,0.0,0.0,0.0
,,94359.202406,0.3056666851043701,0.0,0.0,0.0,0.0,0.0,0.0,0.0,0.0,0.0,0.0,0.0,48103.0,-0.06,-0.01,-1.0,-1.34,-1.59,-0.18,3.3,53.26,-49.66,48113.0,-0.07,-0.01,-1.0,-1.34,-1.77,-0.12,2.55,53.86,-49.36,0.0,0.0,0.0,0.0,0.0,0.0,0.0,0.0,0.0,0.0,0.0,0.0,0.0,0.0,0.0,0.0,0.0,0.0,0.0,0.0,0.0
,,94359.222904,0.32617878913879395,0.0,0.0,0.0,0.0,0.0,0.0,0.0,0.0,0.0,0.0,0.0,48123.0,-0.06,-0.01,-1.0,-1.46,-1.59,-0.24,3.15,51.91,-49.21,48133.0,-0.07,-0.02,-1.0,-1.34,-1.71,-0.12,3.45,52.36,-49.81,0.0,0.0,0.0,0.0,0.0,0.0,0.0,0.0,0.0,0.0,0.0,0.0,0.0,0.0,0.0,0.0,0.0,0.0,0.0,0.0,0.0
,,94359.242124,0.3453688621520996,0.0,0.0,0.0,0.0,0.0,0.0,0.0,0.0,0.0,0.0,0.0,48144.0,-0.07,-0.01,-1.0,-1.34,-1.65,-0.18,3.6,52.81,-48.61,48153.0,-0.06,-0.01,-1.01,-1.28,-1.65,-0.3,3.15,52.96,-50.56,0.0,0.0,0.0,0.0,0.0,0.0,0.0,0.0,0.0,0.0,0.0,0.0,0.0,0.0,0.0,0.0,0.0,0.0,0.0,0.0,0.0
,,94359.261516,0.36475372314453125,0.0,0.0,0.0,0.0,0.0,0.0,0.0,0.0,0.0,0.0,0.0,48163.0,-0.07,-0.01,-1.01,-1.46,-1.71,-0.18,4.35,54.61,-48.61,48225.0,-0.06,-0.01,-1.01,-1.34,-1.52,-0.18,4.95,53.56,-49.36,0.0,0.0,0.0,0.0,0.0,0.0,0.0,0.0,0.0,0.0,0.0,0.0,0.0,0.0,0.0,0.0,0.0,0.0,0.0,0.0,0.0
,,94359.281953,0.3852112293243408,0.0,0.0,0.0,0.0,0.0,0.0,0.0,0.0,0.0,0.0,0.0,48235.0,-0.06,-0.01,-1.0,-1.4,-1.71,-0.18,3.15,51.61,-47.86,48244.0,-0.07,-0.01,-1.0,-1.34,-1.65,-0.18,4.2,52.96,-48.46,0.0,0.0,0.0,0.0,0.0,0.0,0.0,0.0,0.0,0.0,0.0,0.0,0.0,0.0,0.0,0.0,0.0,0.0,0.0,0.0,0.0
,,94359.302782,0.40604186058044434,0.0,0.0,0.0,0.0,0.0,0.0,0.0,0.0,0.0,0.0,0.0,48254.0,-0.06,-0.02,-1.0,-1.46,-1.65,-0.24,4.5,52.36,-49.21,48263.0,-0.06,-0.02,-1.0,-1.28,-1.71,-0.37,3.9,52.81,-49.06,0.0,0.0,0.0,0.0,0.0,0.0,0.0,0.0,0.0,0.0,0.0,0.0,0.0,0.0,0.0,0.0,0.0,0.0,0.0,0.0,0.0
,,94359.322705,0.42594480514526367,0.0,0.0,0.0,0.0,0.0,0.0,0.0,0.0,0.0,0.0,0.0,48272.0,-0.07,-0.01,-1.01,-1.4,-1.52,-0.18,3.45,51.91,-50.26,48282.0,-0.07,-0.01,-1.0,-1.46,-1.65,-0.18,3.45,51.91,-50.26,0.0,0.0,0.0,0.0,0.0,0.0,0.0,0.0,0.0,0.0,0.0,0.0,0.0,0.0,0.0,0.0,0.0,0.0,0.0,0.0,0.0
,,94359.342115,0.4453611373901367,0.0,0.0,0.0,0.0,0.0,0.0,0.0,0.0,0.0,0.0,0.0,48291.0,-0.08,-0.01,-1.0,-1.4,-1.71,-0.18,3.45,52.36,-49.81,48301.0,-0.07,-0.01,-1.01,-1.4,-1.71,-0.24,3.3,52.21,-49.06,0.0,0.0,0.0,0.0,0.0,0.0,0.0,0.0,0.0,0.0,0.0,0.0,0.0,0.0,0.0,0.0,0.0,0.0,0.0,0.0,0.0
,,94359.362261,0.46550703048706055,0.0,0.0,0.0,0.0,0.0,0.0,0.0,0.0,0.0,0.0,0.0,48310.0,-0.07,-0.01,-1.0,-1.28,-1.71,-0.12,2.7,51.91,-48.46,48319.0,-0.07,-0.01,-1.0,-1.46,-1.65,-0.18,2.7,52.36,-49.81,0.0,0.0,0.0,0.0,0.0,0.0,0.0,0.0,0.0,0.0,0.0,0.0,0.0,0.0,0.0,0.0,0.0,0.0,0.0,0.0,0.0
,,94359.383893,0.4871392250061035,0.0,0.0,0.0,0.0,0.0,0.0,0.0,0.0,0.0,0.0,0.0,48329.0,-0.07,-0.01,-1.0,-1.28,-1.77,-0.24,3.45,51.91,-50.26,48338.0,-0.06,-0.01,-1.0,-1.46,-1.71,-0.12,3.3,52.81,-48.61,0.0,0.0,0.0,0.0,0.0,0.0,0.0,0.0,0.0,0.0,0.0,0.0,0.0,0.0,0.0,0.0,0.0,0.0,0.0,0.0,0.0
,,94359.402789,0.506049394607544,0.0,0.0,0.0,0.0,0.0,0.0,0.0,0.0,0.0,0.0,0.0,48348.0,-0.07,-0.01,-0.99,-1.4,-1.52,-0.3,3.3,52.81,-48.61,48411.0,-0.06,-0.0,-0.99,-1.46,-1.77,-0.3,5.25,51.91,-47.11,0.0,0.0,0.0,0.0,0.0,0.0,0.0,0.0,0.0,0.0,0.0,0.0,0.0,0.0,0.0,0.0,0.0,0.0,0.0,0.0,0.0
,,94359.423239,0.5264878273010254,0.0,0.0,0.0,0.0,0.0,0.0,0.0,0.0,0.0,0.0,0.0,48420.0,-0.07,-0.01,-1.0,-1.4,-1.34,-0.18,5.55,52.96,-49.51,48430.0,-0.08,-0.01,-0.99,-1.46,-1.95,-0.18,4.2,51.91,-50.56,0.0,0.0,0.0,0.0,0.0,0.0,0.0,0.0,0.0,0.0,0.0,0.0,0.0,0.0,0.0,0.0,0.0,0.0,0.0,0.0,0.0
,,94359.442121,0.5453670024871826,0.0,0.0,0.0,0.0,0.0,0.0,0.0,0.0,0.0,0.0,0.0,48439.0,-0.07,-0.01,-1.0,-1.34,-1.52,-0.18,4.65,51.76,-50.11,48449.0,-0.07,-0.01,-1.0,-1.34,-1.83,-0.12,4.95,52.51,-50.41,0.0,0.0,0.0,0.0,0.0,0.0,0.0,0.0,0.0,0.0,0.0,0.0,0.0,0.0,0.0,0.0,0.0,0.0,0.0,0.0,0.0
,,94359.462103,0.5653495788574219,0.0,0.0,0.0,0.0,0.0,0.0,0.0,0.0,0.0,0.0,0.0,48458.0,-0.2,0.02,-1.2,-1.59,-1.83,-0.3,3.3,52.51,-48.61,48467.0,-0.05,-0.03,-1.01,-1.34,-0.79,-0.12,3.3,51.16,-49.36,0.0,0.0,0.0,0.0,0.0,0.0,0.0,0.0,0.0,0.0,0.0,0.0,0.0,0.0,0.0,0.0,0.0,0.0,0.0,0.0,0.0
,,94359.482191,0.5854377746582031,0.0,0.0,0.0,0.0,0.0,0.0,0.0,0.0,0.0,0.0,0.0,48477.0,-0.07,-0.0,-0.99,-1.46,-2.38,-0.24,3.15,52.36,-49.81,48486.0,-0.06,-0.01,-1.0,-1.59,-1.59,-0.24,4.2,52.36,-48.46,0.0,0.0,0.0,0.0,0.0,0.0,0.0,0.0,0.0,0.0,0.0,0.0,0.0,0.0,0.0,0.0,0.0,0.0,0.0,0.0,0.0
,,94359.502972,0.606231689453125,0.0,0.0,0.0,0.0,0.0,0.0,0.0,0.0,0.0,0.0,0.0,48496.0,-0.07,-0.02,-1.0,-1.28,-1.28,-0.12,3.15,52.96,-50.56,48505.0,-0.07,-0.01,-1.0,-1.28,-2.07,-0.24,3.3,51.76,-49.06,0.0,0.0,0.0,0.0,0.0,0.0,0.0,0.0,0.0,0.0,0.0,0.0,0.0,0.0,0.0,0.0,0.0,0.0,0.0,0.0,0.0
,,94359.523271,0.6265335083007812,0.0,0.0,0.0,0.0,0.0,0.0,0.0,0.0,0.0,0.0,0.0,48514.0,-0.05,-0.01,-1.01,-1.46,-1.1,-0.3,3.3,53.86,-49.66,79810.0,-0.06,-0.01,-1.01,116.59,-377.26,1149.02,5.4,53.26,-48.31,0.0,0.0,0.0,0.0,0.0,0.0,0.0,0.0,0.0,0.0,0.0,0.0,0.0,0.0,0.0,0.0,0.0,0.0,0.0,0.0,0.0
,,94359.600684,0.7039339542388916,0.0,0.0,0.0,0.0,0.0,0.0,0.0,0.0,0.0,0.0,0.0,79884.0,-0.06,-0.01,-1.01,-1.4,-1.71,-0.37,1.8,53.26,-50.71,79894.0,-0.07,-0.01,-1.0,-1.46,-1.71,-0.18,3.3,52.81,-49.66,0.0,0.0,0.0,0.0,0.0,0.0,0.0,0.0,0.0,0.0,0.0,0.0,0.0,0.0,0.0,0.0,0.0,0.0,0.0,0.0,0.0
,,94359.622092,0.7253396511077881,0.0,0.0,0.0,0.0,0.0,0.0,0.0,0.0,0.0,0.0,0.0,79904.0,-0.07,-0.0,-1.01,-1.46,-1.83,-0.18,2.1,53.41,-50.56,79915.0,-0.07,-0.01,-1.01,-1.46,-1.59,-0.18,2.55,54.61,-50.11,0.0,0.0,0.0,0.0,0.0,0.0,0.0,0.0,0.0,0.0,0.0,0.0,0.0,0.0,0.0,0.0,0.0,0.0,0.0,0.0,0.0
,,94359.641587,0.7448363304138184,0.0,0.0,0.0,0.0,0.0,0.0,0.0,0.0,0.0,0.0,0.0,79924.0,-0.06,-0.01,-1.0,-1.52,-1.65,-0.12,4.8,51.91,-50.56,79934.0,-0.06,-0.01,-1.01,-1.52,-1.59,0.0,4.35,52.81,-50.41,0.0,0.0,0.0,0.0,0.0,0.0,0.0,0.0,0.0,0.0,0.0,0.0,0.0,0.0,0.0,0.0,0.0,0.0,0.0,0.0,0.0
,,94359.661241,0.7644901275634766,0.0,0.0,0.0,0.0,0.0,0.0,0.0,0.0,0.0,0.0,0.0,79944.0,-0.06,-0.0,-1.0,-1.46,-1.65,-0.18,2.7,52.36,-48.46,79954.0,-0.07,-0.01,-1.0,-1.4,-1.65,-0.18,3.6,52.81,-48.31,0.0,0.0,0.0,0.0,0.0,0.0,0.0,0.0,0.0,0.0,0.0,0.0,0.0,0.0,0.0,0.0,0.0,0.0,0.0,0.0,0.0
,,94359.681268,0.7845237255096436,0.0,0.0,0.0,0.0,0.0,0.0,0.0,0.0,0.0,0.0,0.0,79964.0,-0.07,-0.02,-1.01,-1.4,-1.71,-0.24,3.6,53.56,-49.36,79974.0,-0.06,-0.01,-1.01,-1.46,-1.65,-0.3,4.35,52.21,-48.61,0.0,0.0,0.0,0.0,0.0,0.0,0.0,0.0,0.0,0.0,0.0,0.0,0.0,0.0,0.0,0.0,0.0,0.0,0.0,0.0,0.0
,,94359.701173,0.8044419288635254,0.0,0.0,0.0,0.0,0.0,0.0,0.0,0.0,0.0,0.0,0.0,79984.0,-0.06,-0.01,-1.02,-1.46,-1.65,-0.18,4.35,52.51,-49.66,79994.0,-0.07,-0.01,-0.99,-1.28,-1.71,-0.12,2.55,53.56,-49.06,0.0,0.0,0.0,0.0,0.0,0.0,0.0,0.0,0.0,0.0,0.0,0.0,0.0,0.0,0.0,0.0,0.0,0.0,0.0,0.0,0.0
,,94359.775258,0.878507137298584,0.0,0.0,0.0,0.0,0.0,0.0,0.0,0.0,0.0,0.0,0.0,80004.0,-0.07,-0.01,-1.01,-1.46,-1.71,-0.24,2.7,54.46,-50.56,80068.0,-0.06,-0.01,-1.0,-1.28,-1.65,-0.18,4.5,52.66,-48.46,0.0,0.0,0.0,0.0,0.0,0.0,0.0,0.0,0.0,0.0,0.0,0.0,0.0,0.0,0.0,0.0,0.0,0.0,0.0,0.0,0.0
,,94359.794225,0.8974745273590088,0.0,0.0,0.0,0.0,0.0,0.0,0.0,0.0,0.0,0.0,0.0,80077.0,-0.06,-0.01,-0.99,-1.52,-1.77,-0.18,3.75,53.41,-50.86,80087.0,-0.07,-0.01,-1.01,-1.34,-1.77,-0.24,2.4,51.61,-50.26,0.0,0.0,0.0,0.0,0.0,0.0,0.0,0.0,0.0,0.0,0.0,0.0,0.0,0.0,0.0,0.0,0.0,0.0,0.0,0.0,0.0
,,94359.812806,0.9160518646240234,0.0,0.0,0.0,0.0,0.0,0.0,0.0,0.0,0.0,0.0,0.0,80096.0,-0.06,-0.02,-1.01,-1.46,-1.65,-0.12,2.85,53.26,-49.36,80106.0,-0.06,-0.01,-1.0,-1.46,-1.59,-0.24,4.8,51.91,-49.51,0.0,0.0,0.0,0.0,0.0,0.0,0.0,0.0,0.0,0.0,0.0,0.0,0.0,0.0,0.0,0.0,0.0,0.0,0.0,0.0,0.0
,,94359.831783,0.9350311756134033,0.0,0.0,0.0,0.0,0.0,0.0,0.0,0.0,0.0,0.0,0.0,80115.0,-0.06,-0.02,-1.01,-1.4,-1.65,-0.24,3.15,52.96,-50.56,80124.0,-0.07,-0.01,-1.01,-1.46,-1.65,-0.3,3.9,51.76,-49.66,0.0,0.0,0.0,0.0,0.0,0.0,0.0,0.0,0.0,0.0,0.0,0.0,0.0,0.0,0.0,0.0,0.0,0.0,0.0,0.0,0.0
,,94359.850931,0.9541795253753662,0.0,0.0,0.0,0.0,0.0,0.0,0.0,0.0,0.0,0.0,0.0,80134.0,-0.07,-0.02,-1.0,-1.46,-1.77,-0.18,3.9,53.26,-49.66,80143.0,-0.06,-0.02,-1.01,-1.34,-1.59,-0.37,3.6,52.51,-49.36,0.0,0.0,0.0,0.0,0.0,0.0,0.0,0.0,0.0,0.0,0.0,0.0,0.0,0.0,0.0,0.0,0.0,0.0,0.0,0.0,0.0
,,94359.869593,0.9728422164916992,0.0,0.0,0.0,0.0,0.0,0.0,0.0,0.0,0.0,0.0,0.0,80153.0,-0.07,-0.01,-1.01,-1.4,-1.71,-0.18,4.2,52.66,-49.36,80162.0,-0.07,-0.01,-1.0,-1.52,-1.71,-0.12,4.2,52.66,-49.81,0.0,0.0,0.0,0.0,0.0,0.0,0.0,0.0,0.0,0.0,0.0,0.0,0.0,0.0,0.0,0.0,0.0,0.0,0.0,0.0,0.0
,,94359.888314,0.9915726184844971,0.0,0.0,0.0,0.0,0.0,0.0,0.0,0.0,0.0,0.0,0.0,80171.0,-0.06,-0.01,-1.0,-1.46,-1.71,-0.18,3.45,52.96,-49.81,80181.0,-0.06,-0.01,-1.01,-1.4,-1.77,-0.18,2.25,52.21,-50.11,0.0,0.0,0.0,0.0,0.0,0.0,0.0,0.0,0.0,0.0,0.0,0.0,0.0,0.0,0.0,0.0,0.0,0.0,0.0,0.0,0.0
,,94359.95762,1.0608689785003662,0.0,0.0,0.0,0.0,0.0,0.0,0.0,0.0,0.0,0.0,0.0,80190.0,-0.07,-0.01,-0.99,-1.4,-1.59,-0.24,2.7,52.36,-48.46,80250.0,-0.07,-0.02,-0.99,-1.34,-1.65,-0.3,3.3,52.21,-48.01,0.0,0.0,0.0,0.0,0.0,0.0,0.0,0.0,0.0,0.0,0.0,0.0,0.0,0.0,0.0,0.0,0.0,0.0,0.0,0.0,0.0
,,94359.976295,1.079543113708496,0.0,0.0,0.0,0.0,0.0,0.0,0.0,0.0,0.0,0.0,0.0,80260.0,-0.07,-0.01,-0.99,-1.34,-1.52,-0.12,4.65,53.26,-47.71,80269.0,-0.06,-0.0,-1.0,-1.4,-1.71,0.0,3.15,53.41,-49.81,0.0,0.0,0.0,0.0,0.0,0.0,0.0,0.0,0.0,0.0,0.0,0.0,0.0,0.0,0.0,0.0,0.0,0.0,0.0,0.0,0.0
,,94359.995296,1.0985450744628906,0.0,0.0,0.0,0.0,0.0,0.0,0.0,0.0,0.0,0.0,0.0,80278.0,-0.07,-0.01,-1.0,-1.34,-1.71,-0.12,3.9,53.56,-48.01,80288.0,-0.07,-0.02,-0.99,-1.4,-1.65,-0.24,3.75,53.41,-49.81,0.0,0.0,0.0,0.0,0.0,0.0,0.0,0.0,0.0,0.0,0.0,0.0,0.0,0.0,0.0,0.0,0.0,0.0,0.0,0.0,0.0
,,94400.013875,1.1171438694000244,0.0,0.0,0.0,0.0,0.0,0.0,0.0,0.0,0.0,0.0,0.0,80297.0,-0.07,-0.01,-1.0,-1.4,-1.52,-0.18,3.75,54.46,-48.91,80306.0,-0.06,-0.01,-1.0,-1.46,-1.71,-0.24,2.55,51.76,-50.11,0.0,0.0,0.0,0.0,0.0,0.0,0.0,0.0,0.0,0.0,0.0,0.0,0.0,0.0,0.0,0.0,0.0,0.0,0.0,0.0,0.0
,,94400.032684,1.1359310150146484,0.0,0.0,0.0,0.0,0.0,0.0,0.0,0.0,0.0,0.0,0.0,80316.0,-0.07,-0.01,-1.0,-1.4,-1.77,-0.24,2.25,52.21,-50.41,80325.0,-0.07,-0.01,-1.01,-1.46,-1.59,-0.24,2.55,51.46,-50.41,0.0,0.0,0.0,0.0,0.0,0.0,0.0,0.0,0.0,0.0,0.0,0.0,0.0,0.0,0.0,0.0,0.0,0.0,0.0,0.0,0.0
,,94400.051606,1.1548545360565186,0.0,0.0,0.0,0.0,0.0,0.0,0.0,0.0,0.0,0.0,0.0,80335.0,-0.06,-0.01,-0.99,-1.46,-1.52,-0.12,3.75,53.71,-49.51,80344.0,-0.06,-0.01,-1.01,-1.4,-1.59,-0.24,2.85,52.81,-50.11,0.0,0.0,0.0,0.0,0.0,0.0,0.0,0.0,0.0,0.0,0.0,0.0,0.0,0.0,0.0,0.0,0.0,0.0,0.0,0.0,0.0
,,94400.070256,1.1735024452209473,0.0,0.0,0.0,0.0,0.0,0.0,0.0,0.0,0.0,0.0,0.0,80354.0,-0.06,-0.01,-1.0,-1.4,-1.65,-0.3,1.2,53.56,-50.41,80363.0,-0.07,-0.02,-1.01,-1.46,-1.59,0.0,2.55,52.51,-50.11,0.0,0.0,0.0,0.0,0.0,0.0,0.0,0.0,0.0,0.0,0.0,0.0,0.0,0.0,0.0,0.0,0.0,0.0,0.0,0.0,0.0
,,94400.145,1.248253345489502,0.0,0.0,0.0,0.0,0.0,0.0,0.0,0.0,0.0,0.0,0.0,80372.0,-0.06,-0.01,-1.0,-1.4,-1.59,-0.24,2.55,52.51,-50.11,80437.0,-0.07,-0.02,-1.01,-1.22,-1.59,-0.12,3.9,53.26,-49.36,0.0,0.0,0.0,0.0,0.0,0.0,0.0,0.0,0.0,0.0,0.0,0.0,0.0,0.0,0.0,0.0,0.0,0.0,0.0,0.0,0.0
,,94400.16345,1.2666850090026855,0.0,0.0,0.0,0.0,0.0,0.0,0.0,0.0,0.0,0.0,0.0,80446.0,-0.06,-0.02,-1.0,-1.28,-1.59,-0.24,3.75,53.71,-48.91,80456.0,-0.07,-0.01,-1.0,-1.34,-1.65,-0.18,2.85,52.51,-47.71,0.0,0.0,0.0,0.0,0.0,0.0,0.0,0.0,0.0,0.0,0.0,0.0,0.0,0.0,0.0,0.0,0.0,0.0,0.0,0.0,0.0
,,94400.182598,1.2858471870422363,0.0,0.0,0.0,0.0,0.0,0.0,0.0,0.0,0.0,0.0,0.0,80465.0,-0.06,-0.02,-1.01,-1.46,-1.59,-0.12,2.55,52.21,-50.11,80475.0,-0.07,-0.02,-0.99,-1.4,-1.77,-0.18,3.45,51.61,-49.51,0.0,0.0,0.0,0.0,0.0,0.0,0.0,0.0,0.0,0.0,0.0,0.0,0.0,0.0,0.0,0.0,0.0,0.0,0.0,0.0,0.0
,,94400.201551,1.3047983646392822,0.0,0.0,0.0,0.0,0.0,0.0,0.0,0.0,0.0,0.0,0.0,80484.0,-0.06,-0.01,-1.01,-1.4,-1.65,-0.18,2.4,52.66,-50.26,80493.0,-0.06,-0.02,-1.0,-1.46,-1.71,-0.3,3.15,52.36,-48.91,0.0,0.0,0.0,0.0,0.0,0.0,0.0,0.0,0.0,0.0,0.0,0.0,0.0,0.0,0.0,0.0,0.0,0.0,0.0,0.0,0.0
,,94400.220123,1.3233718872070312,0.0,0.0,0.0,0.0,0.0,0.0,0.0,0.0,0.0,0.0,0.0,80503.0,-0.07,-0.01,-1.01,-1.4,-1.71,-0.12,3.45,51.31,-49.51,80512.0,-0.07,-0.01,-0.99,-1.4,-1.65,-0.24,2.85,51.31,-49.51,0.0,0.0,0.0,0.0,0.0,0.0,0.0,0.0,0.0,0.0,0.0,0.0,0.0,0.0,0.0,0.0,0.0,0.0,0.0,0.0,0.0
,,94400.239156,1.3424160480499268,0.0,0.0,0.0,0.0,0.0,0.0,0.0,0.0,0.0,0.0,0.0,80522.0,-0.06,-0.02,-1.0,-1.4,-1.71,-0.24,2.85,52.21,-49.36,80531.0,-0.07,-0.02,-1.01,-1.28,-1.65,-0.24,2.7,52.96,-50.86,0.0,0.0,0.0,0.0,0.0,0.0,0.0,0.0,0.0,0.0,0.0,0.0,0.0,0.0,0.0,0.0,0.0,0.0,0.0,0.0,0.0
,,94400.257593,1.360841989517212,0.0,0.0,0.0,0.0,0.0,0.0,0.0,0.0,0.0,0.0,0.0,80541.0,-0.08,-0.01,-1.01,-1.4,-1.71,-0.18,3.45,51.31,-49.21,80550.0,-0.07,-0.01,-1.0,-1.4,-1.65,-0.24,3.6,53.26,-50.11,0.0,0.0,0.0,0.0,0.0,0.0,0.0,0.0,0.0,0.0,0.0,0.0,0.0,0.0,0.0,0.0,0.0,0.0,0.0,0.0,0.0
,,94400.331533,1.4347832202911377,0.0,0.0,0.0,0.0,0.0,0.0,0.0,0.0,0.0,0.0,0.0,80559.0,-0.06,-0.02,-1.01,-1.46,-1.65,0.0,3.3,52.21,-50.11,80623.0,-0.07,-0.01,-1.01,-1.4,-1.65,-0.18,3.6,52.21,-48.61,0.0,0.0,0.0,0.0,0.0,0.0,0.0,0.0,0.0,0.0,0.0,0.0,0.0,0.0,0.0,0.0,0.0,0.0,0.0,0.0,0.0
,,94400.35152,1.4547693729400635,0.0,0.0,0.0,0.0,0.0,0.0,0.0,0.0,0.0,0.0,0.0,80633.0,-0.07,-0.01,-1.01,-1.34,-1.65,-0.24,2.85,53.56,-50.41,80643.0,-0.06,-0.01,-1.01,-1.4,-1.65,-0.18,2.85,52.21,-50.11,0.0,0.0,0.0,0.0,0.0,0.0,0.0,0.0,0.0,0.0,0.0,0.0,0.0,0.0,0.0,0.0,0.0,0.0,0.0,0.0,0.0
,,94400.371119,1.4743833541870117,0.0,0.0,0.0,0.0,0.0,0.0,0.0,0.0,0.0,0.0,0.0,80653.0,-0.07,-0.02,-0.99,-1.4,-1.59,-0.12,3.45,54.46,-50.26,80663.0,-0.07,-0.02,-1.0,-1.4,-1.77,-0.18,3.45,52.96,-50.26,0.0,0.0,0.0,0.0,0.0,0.0,0.0,0.0,0.0,0.0,0.0,0.0,0.0,0.0,0.0,0.0,0.0,0.0,0.0,0.0,0.0
,,94400.391078,1.4943256378173828,0.0,0.0,0.0,0.0,0.0,0.0,0.0,0.0,0.0,0.0,0.0,80673.0,-0.07,-0.01,-1.0,-1.34,-1.65,-0.24,3.45,52.66,-49.51,80683.0,-0.06,-0.01,-0.99,-1.34,-1.65,-0.24,2.85,52.81,-49.06,0.0,0.0,0.0,0.0,0.0,0.0,0.0,0.0,0.0,0.0,0.0,0.0,0.0,0.0,0.0,0.0,0.0,0.0,0.0,0.0,0.0
,,94400.410817,1.514064073562622,0.0,0.0,0.0,0.0,0.0,0.0,0.0,0.0,0.0,0.0,0.0,80693.0,-0.07,-0.01,-1.0,-1.46,-1.71,-0.18,3.3,53.26,-49.36,80703.0,-0.07,-0.01,-1.0,-1.46,-1.59,0.0,2.55,52.51,-48.61,0.0,0.0,0.0,0.0,0.0,0.0,0.0,0.0,0.0,0.0,0.0,0.0,0.0,0.0,0.0,0.0,0.0,0.0,0.0,0.0,0.0
,,94400.430422,1.5336601734161377,0.0,0.0,0.0,0.0,0.0,0.0,0.0,0.0,0.0,0.0,0.0,80713.0,-0.07,-0.01,-1.02,-1.4,-1.71,-0.3,3.75,52.66,-49.51,80723.0,-0.08,-0.01,-0.99,-1.46,-1.59,-0.18,3.3,52.51,-49.36,0.0,0.0,0.0,0.0,0.0,0.0,0.0,0.0,0.0,0.0,0.0,0.0,0.0,0.0,0.0,0.0,0.0,0.0,0.0,0.0,0.0
,,94400.45079,1.5540516376495361,0.0,0.0,0.0,0.0,0.0,0.0,0.0,0.0,0.0,0.0,0.0,80733.0,-0.07,-0.01,-0.99,-1.28,-1.59,-0.12,2.55,53.86,-48.61,80742.0,-0.06,-0.01,-1.0,-1.4,-1.65,-0.24,2.25,51.16,-50.11,0.0,0.0,0.0,0.0,0.0,0.0,0.0,0.0,0.0,0.0,0.0,0.0,0.0,0.0,0.0,0.0,0.0,0.0,0.0,0.0,0.0
,,94400.525687,1.6289355754852295,0.0,0.0,0.0,0.0,0.0,0.0,0.0,0.0,0.0,0.0,0.0,80752.0,-0.06,-0.01,-1.0,-1.4,-1.65,-0.24,4.2,51.91,-49.51,80818.0,-0.07,-0.0,-1.01,-1.4,-1.71,-0.18,5.25,53.41,-49.21,0.0,0.0,0.0,0.0,0.0,0.0,0.0,0.0,0.0,0.0,0.0,0.0,0.0,0.0,0.0,0.0,0.0,0.0,0.0,0.0,0.0
,,94400.545547,1.648796558380127,0.0,0.0,0.0,0.0,0.0,0.0,0.0,0.0,0.0,0.0,0.0,80827.0,-0.07,-0.01,-1.0,-1.34,-1.65,-0.24,4.65,52.51,-49.66,80837.0,-0.07,-0.01,-1.0,-1.46,-1.65,-0.18,4.95,53.86,-50.71,0.0,0.0,0.0,0.0,0.0,0.0,0.0,0.0,0.0,0.0,0.0,0.0,0.0,0.0,0.0,0.0,0.0,0.0,0.0,0.0,0.0
,,94400.565345,1.668593406677246,0.0,0.0,0.0,0.0,0.0,0.0,0.0,0.0,0.0,0.0,0.0,80847.0,-0.07,-0.02,-1.0,-1.46,-1.71,-0.12,2.85,52.81,-49.66,80857.0,-0.06,-0.02,-1.0,-1.34,-1.52,-0.12,2.55,53.56,-49.66,0.0,0.0,0.0,0.0,0.0,0.0,0.0,0.0,0.0,0.0,0.0,0.0,0.0,0.0,0.0,0.0,0.0,0.0,0.0,0.0,0.0
,,94400.585573,1.6888222694396973,0.0,0.0,0.0,0.0,0.0,0.0,0.0,0.0,0.0,0.0,0.0,80867.0,-0.06,-0.01,-1.0,-1.52,-1.65,-0.18,3.45,53.71,-48.16,80877.0,-0.07,-0.02,-1.0,-1.4,-1.71,-0.24,2.7,52.96,-49.51,0.0,0.0,0.0,0.0,0.0,0.0,0.0,0.0,0.0,0.0,0.0,0.0,0.0,0.0,0.0,0.0,0.0,0.0,0.0,0.0,0.0
,,94400.605248,1.70849609375,0.0,0.0,0.0,0.0,0.0,0.0,0.0,0.0,0.0,0.0,0.0,80887.0,-0.06,-0.01,-1.01,-1.22,-1.71,-0.18,3.75,51.61,-48.91,80897.0,-0.06,-0.01,-1.01,-1.4,-1.59,-0.24,3.6,52.21,-49.66,0.0,0.0,0.0,0.0,0.0,0.0,0.0,0.0,0.0,0.0,0.0,0.0,0.0,0.0,0.0,0.0,0.0,0.0,0.0,0.0,0.0
,,94400.625196,1.7284440994262695,0.0,0.0,0.0,0.0,0.0,0.0,0.0,0.0,0.0,0.0,0.0,80907.0,-0.07,-0.01,-1.01,-1.34,-1.52,-0.18,4.35,51.76,-50.41,80917.0,-0.06,-0.01,-1.0,-1.4,-1.65,-0.24,3.3,51.76,-48.31,0.0,0.0,0.0,0.0,0.0,0.0,0.0,0.0,0.0,0.0,0.0,0.0,0.0,0.0,0.0,0.0,0.0,0.0,0.0,0.0,0.0
,,94400.64517,1.7484190464019775,0.0,0.0,0.0,0.0,0.0,0.0,0.0,0.0,0.0,0.0,0.0,80927.0,-0.06,-0.02,-1.01,-1.4,-1.59,-0.18,2.7,52.36,-49.81,80937.0,-0.05,-0.01,-1.0,-1.46,-1.59,-0.18,2.4,52.96,-49.21,0.0,0.0,0.0,0.0,0.0,0.0,0.0,0.0,0.0,0.0,0.0,0.0,0.0,0.0,0.0,0.0,0.0,0.0,0.0,0.0,0.0
,,94400.717516,1.8207685947418213,0.0,0.0,0.0,0.0,0.0,0.0,0.0,0.0,0.0,0.0,0.0,80947.0,-0.06,-0.01,-1.0,-1.4,-1.71,-0.3,3.3,52.51,-49.06,81009.0,-0.06,-0.02,-1.01,-1.46,-1.83,-0.24,4.2,53.71,-50.26,0.0,0.0,0.0,0.0,0.0,0.0,0.0,0.0,0.0,0.0,0.0,0.0,0.0,0.0,0.0,0.0,0.0,0.0,0.0,0.0,0.0
,,94400.737345,1.8406093120574951,0.0,0.0,0.0,0.0,0.0,0.0,0.0,0.0,0.0,0.0,0.0,81019.0,-0.06,-0.01,-1.0,-1.4,-1.52,-0.18,6.3,54.01,-48.16,81029.0,-0.06,-0.02,-1.0,-1.46,-1.59,-0.18,4.5,52.96,-50.56,0.0,0.0,0.0,0.0,0.0,0.0,0.0,0.0,0.0,0.0,0.0,0.0,0.0,0.0,0.0,0.0,0.0,0.0,0.0,0.0,0.0
,,94400.757318,1.8605659008026123,0.0,0.0,0.0,0.0,0.0,0.0,0.0,0.0,0.0,0.0,0.0,81039.0,-0.07,-0.02,-1.0,-1.34,-1.71,-0.12,3.6,53.56,-49.36,81049.0,-0.07,-0.01,-1.01,-1.46,-1.71,-0.18,2.7,51.31,-49.51,0.0,0.0,0.0,0.0,0.0,0.0,0.0,0.0,0.0,0.0,0.0,0.0,0.0,0.0,0.0,0.0,0.0,0.0,0.0,0.0,0.0
,,94400.777362,1.8806102275848389,0.0,0.0,0.0,0.0,0.0,0.0,0.0,0.0,0.0,0.0,0.0,81059.0,-0.07,-0.01,-1.0,-1.46,-1.65,-0.12,2.25,53.56,-50.41,81069.0,-0.07,-0.02,-1.0,-1.4,-1.71,-0.12,4.2,52.66,-50.26,0.0,0.0,0.0,0.0,0.0,0.0,0.0,0.0,0.0,0.0,0.0,0.0,0.0,0.0,0.0,0.0,0.0,0.0,0.0,0.0,0.0
,,94400.797191,1.9004402160644531,0.0,0.0,0.0,0.0,0.0,0.0,0.0,0.0,0.0,0.0,0.0,81079.0,-0.07,-0.02,-1.0,-1.59,-1.59,-0.12,3.45,52.66,-49.51,81089.0,-0.07,-0.01,-0.99,-1.4,-1.71,-0.12,2.85,52.81,-48.61,0.0,0.0,0.0,0.0,0.0,0.0,0.0,0.0,0.0,0.0,0.0,0.0,0.0,0.0,0.0,0.0,0.0,0.0,0.0,0.0,0.0
,,94400.817009,1.9202570915222168,0.0,0.0,0.0,0.0,0.0,0.0,0.0,0.0,0.0,0.0,0.0,81099.0,-0.07,-0.01,-1.0,-1.46,-1.71,-0.12,0.45,52.21,-49.36,81109.0,-0.07,-0.01,-1.0,-1.52,-1.65,-0.24,1.8,53.56,-50.11,0.0,0.0,0.0,0.0,0.0,0.0,0.0,0.0,0.0,0.0,0.0,0.0,0.0,0.0,0.0,0.0,0.0,0.0,0.0,0.0,0.0
,,94400.836869,1.9401395320892334,0.0,0.0,0.0,0.0,0.0,0.0,0.0,0.0,0.0,0.0,0.0,81119.0,-0.07,-0.02,-1.0,-1.4,-1.59,-0.18,4.5,53.71,-48.91,81129.0,-0.07,-0.02,-1.01,-1.4,-1.65,0.0,3.6,53.26,-49.36,0.0,0.0,0.0,0.0,0.0,0.0,0.0,0.0,0.0,0.0,0.0,0.0,0.0,0.0,0.0,0.0,0.0,0.0,0.0,0.0,0.0
,,94400.910588,2.013834238052368,0.0,0.0,0.0,0.0,0.0,0.0,0.0,0.0,0.0,0.0,0.0,81138.0,-0.07,-0.01,-1.0,-1.34,-1.71,-0.24,3.15,53.41,-48.91,81202.0,-0.06,-0.01,-1.0,-1.52,-1.71,-0.12,3.6,52.81,-48.61,0.0,0.0,0.0,0.0,0.0,0.0,0.0,0.0,0.0,0.0,0.0,0.0,0.0,0.0,0.0,0.0,0.0,0.0,0.0,0.0,0.0
,,94400.930287,2.03356671333313,0.0,0.0,0.0,0.0,0.0,0.0,0.0,0.0,0.0,0.0,0.0,81212.0,-0.07,-0.01,-1.0,-1.34,-1.59,-0.12,2.55,53.26,-51.46,81222.0,-0.07,-0.02,-1.01,-1.59,-1.71,-0.18,1.5,53.86,-49.66,0.0,0.0,0.0,0.0,0.0,0.0,0.0,0.0,0.0,0.0,0.0,0.0,0.0,0.0,0.0,0.0,0.0,0.0,0.0,0.0,0.0
,,94400.949424,2.052661418914795,0.0,0.0,0.0,0.0,0.0,0.0,0.0,0.0,0.0,0.0,0.0,81232.0,-0.07,-0.01,-1.01,-1.46,-1.65,-0.18,2.55,52.81,-50.71,81242.0,-0.06,-0.01,-1.0,-1.34,-1.65,-0.24,4.2,52.66,-49.81,0.0,0.0,0.0,0.0,0.0,0.0,0.0,0.0,0.0,0.0,0.0,0.0,0.0,0.0,0.0,0.0,0.0,0.0,0.0,0.0,0.0
,,94400.969976,2.0732228755950928,0.0,0.0,0.0,0.0,0.0,0.0,0.0,0.0,0.0,0.0,0.0,81252.0,-0.07,-0.01,-1.01,-1.4,-1.65,-0.18,3.9,52.66,-49.81,81262.0,-0.06,-0.0,-1.0,-1.34,-1.71,-0.24,2.85,52.51,-49.66,0.0,0.0,0.0,0.0,0.0,0.0,0.0,0.0,0.0,0.0,0.0,0.0,0.0,0.0,0.0,0.0,0.0,0.0,0.0,0.0,0.0
,,94400.989518,2.092763900756836,0.0,0.0,0.0,0.0,0.0,0.0,0.0,0.0,0.0,0.0,0.0,81271.0,-0.06,-0.01,-1.01,-1.4,-1.59,0.0,2.85,53.26,-49.06,81281.0,-0.06,-0.01,-1.01,-1.34,-1.59,0.0,3.45,52.96,-49.51,0.0,0.0,0.0,0.0,0.0,0.0,0.0,0.0,0.0,0.0,0.0,0.0,0.0,0.0,0.0,0.0,0.0,0.0,0.0,0.0,0.0
,,94401.009418,2.1126556396484375,0.0,0.0,0.0,0.0,0.0,0.0,0.0,0.0,0.0,0.0,0.0,81291.0,-0.07,-0.02,-1.0,-1.4,-1.59,-0.24,2.85,52.21,-50.11,81301.0,-0.07,-0.01,-1.01,-1.52,-1.65,-0.3,2.85,53.26,-49.06,0.0,0.0,0.0,0.0,0.0,0.0,0.0,0.0,0.0,0.0,0.0,0.0,0.0,0.0,0.0,0.0,0.0,0.0,0.0,0.0,0.0
,,94401.029513,2.1327624320983887,0.0,0.0,0.0,0.0,0.0,0.0,0.0,0.0,0.0,0.0,0.0,81311.0,-0.07,-0.01,-1.02,-1.46,-1.71,-0.12,3.6,52.51,-50.11,81321.0,-0.07,-0.01,-1.01,-1.4,-1.71,-0.12,2.4,52.96,-49.51,0.0,0.0,0.0,0.0,0.0,0.0,0.0,0.0,0.0,0.0,0.0,0.0,0.0,0.0,0.0,0.0,0.0,0.0,0.0,0.0,0.0
,,94401.102005,2.2052536010742188,0.0,0.0,0.0,0.0,0.0,0.0,0.0,0.0,0.0,0.0,0.0,81331.0,-0.06,-0.0,-1.02,-1.34,-1.65,-0.18,3.3,52.51,-50.11,81393.0,-0.07,-0.01,-1.0,-1.46,-1.65,-0.18,3.6,52.81,-48.61,0.0,0.0,0.0,0.0,0.0,0.0,0.0,0.0,0.0,0.0,0.0,0.0,0.0,0.0,0.0,0.0,0.0,0.0,0.0,0.0,0.0
,,94401.121638,2.224886178970337,0.0,0.0,0.0,0.0,0.0,0.0,0.0,0.0,0.0,0.0,0.0,81403.0,-0.06,-0.01,-1.0,-1.34,-1.71,-0.18,2.1,52.66,-50.26,81413.0,-0.06,-0.0,-0.99,-1.52,-1.71,-0.12,4.5,52.36,-49.21,0.0,0.0,0.0,0.0,0.0,0.0,0.0,0.0,0.0,0.0,0.0,0.0,0.0,0.0,0.0,0.0,0.0,0.0,0.0,0.0,0.0
,,94401.141721,2.2449722290039062,0.0,0.0,0.0,0.0,0.0,0.0,0.0,0.0,0.0,0.0,0.0,81423.0,-0.06,-0.02,-1.0,-1.46,-1.52,-0.12,3.75,52.96,-49.51,81433.0,-0.06,-0.02,-1.0,-1.34,-1.65,-0.24,2.25,53.26,-49.36,0.0,0.0,0.0,0.0,0.0,0.0,0.0,0.0,0.0,0.0,0.0,0.0,0.0,0.0,0.0,0.0,0.0,0.0,0.0,0.0,0.0
,,94401.16144,2.264688014984131,0.0,0.0,0.0,0.0,0.0,0.0,0.0,0.0,0.0,0.0,0.0,81443.0,-0.07,-0.01,-1.01,-1.4,-1.65,-0.12,3.6,52.51,-50.41,81453.0,-0.06,-0.0,-1.01,-1.34,-1.71,-0.12,4.35,53.56,-49.36,0.0,0.0,0.0,0.0,0.0,0.0,0.0,0.0,0.0,0.0,0.0,0.0,0.0,0.0,0.0,0.0,0.0,0.0,0.0,0.0,0.0
,,94401.181308,2.284576892852783,0.0,0.0,0.0,0.0,0.0,0.0,0.0,0.0,0.0,0.0,0.0,81463.0,-0.06,-0.01,-1.0,-1.52,-1.65,-0.18,2.25,52.21,-50.71,81473.0,-0.07,-0.01,-1.01,-1.4,-1.52,-0.24,2.85,52.51,-48.61,0.0,0.0,0.0,0.0,0.0,0.0,0.0,0.0,0.0,0.0,0.0,0.0,0.0,0.0,0.0,0.0,0.0,0.0,0.0,0.0,0.0
,,94401.201559,2.3048086166381836,0.0,0.0,0.0,0.0,0.0,0.0,0.0,0.0,0.0,0.0,0.0,81483.0,-0.06,-0.02,-0.99,-1.34,-1.77,-0.18,3.45,52.96,-50.26,81493.0,-0.07,-0.01,-1.0,-1.46,-1.65,-0.18,3.75,53.41,-48.91,0.0,0.0,0.0,0.0,0.0,0.0,0.0,0.0,0.0,0.0,0.0,0.0,0.0,0.0,0.0,0.0,0.0,0.0,0.0,0.0,0.0
,,94401.221187,2.324435234069824,0.0,0.0,0.0,0.0,0.0,0.0,0.0,0.0,0.0,0.0,0.0,81503.0,-0.07,-0.01,-1.01,-1.46,-1.65,-0.18,3.3,53.56,-49.36,81512.0,-0.07,-0.01,-1.01,-1.59,-1.65,-0.3,3.45,51.61,-48.91,0.0,0.0,0.0,0.0,0.0,0.0,0.0,0.0,0.0,0.0,0.0,0.0,0.0,0.0,0.0,0.0,0.0,0.0,0.0,0.0,0.0
,,94401.295189,2.398442268371582,0.0,0.0,0.0,0.0,0.0,0.0,0.0,0.0,0.0,0.0,0.0,81522.0,-0.06,-0.01,-1.01,-1.4,-1.77,-0.24,2.55,52.51,-50.71,81586.0,-0.07,-0.0,-1.01,-1.34,-1.77,-0.12,6.0,55.36,-48.31,0.0,0.0,0.0,0.0,0.0,0.0,0.0,0.0,0.0,0.0,0.0,0.0,0.0,0.0,0.0,0.0,0.0,0.0,0.0,0.0,0.0
,,94401.314924,2.418191432952881,0.0,0.0,0.0,0.0,0.0,0.0,0.0,0.0,0.0,0.0,0.0,81596.0,-0.07,-0.01,-1.01,-1.34,-1.71,-0.18,4.95,51.76,-48.61,81606.0,-0.06,-0.01,-1.0,-1.46,-1.65,-0.18,2.1,52.66,-48.46,0.0,0.0,0.0,0.0,0.0,0.0,0.0,0.0,0.0,0.0,0.0,0.0,0.0,0.0,0.0,0.0,0.0,0.0,0.0,0.0,0.0
,,94401.334926,2.4381959438323975,0.0,0.0,0.0,0.0,0.0,0.0,0.0,0.0,0.0,0.0,0.0,81616.0,-0.07,-0.01,-1.0,-1.46,-1.71,-0.18,3.9,52.21,-50.71,81626.0,-0.08,-0.01,-1.01,-1.4,-1.71,-0.12,3.9,52.81,-50.41,0.0,0.0,0.0,0.0,0.0,0.0,0.0,0.0,0.0,0.0,0.0,0.0,0.0,0.0,0.0,0.0,0.0,0.0,0.0,0.0,0.0
,,94401.354628,2.457890510559082,0.0,0.0,0.0,0.0,0.0,0.0,0.0,0.0,0.0,0.0,0.0,81636.0,-0.07,-0.01,-1.0,-1.46,-1.71,-0.24,2.55,53.56,-49.66,81646.0,-0.07,-0.01,-1.0,-1.46,-1.59,-0.18,2.55,52.81,-50.71,0.0,0.0,0.0,0.0,0.0,0.0,0.0,0.0,0.0,0.0,0.0,0.0,0.0,0.0,0.0,0.0,0.0,0.0,0.0,0.0,0.0
,,94401.374536,2.477785348892212,0.0,0.0,0.0,0.0,0.0,0.0,0.0,0.0,0.0,0.0,0.0,81656.0,-0.07,-0.01,-1.0,-1.34,-1.59,-0.24,4.2,53.41,-50.26,81666.0,-0.07,-0.0,-1.01,-1.4,-1.71,-0.12,1.8,52.81,-50.11,0.0,0.0,0.0,0.0,0.0,0.0,0.0,0.0,0.0,0.0,0.0,0.0,0.0,0.0,0.0,0.0,0.0,0.0,0.0,0.0,0.0
,,94401.394416,2.4976658821105957,0.0,0.0,0.0,0.0,0.0,0.0,0.0,0.0,0.0,0.0,0.0,81675.0,-0.06,-0.01,-0.99,-1.4,-1.71,-0.24,2.85,52.81,-49.06,81685.0,-0.06,-0.01,-1.0,-1.28,-1.65,-0.24,2.25,52.81,-48.61,0.0,0.0,0.0,0.0,0.0,0.0,0.0,0.0,0.0,0.0,0.0,0.0,0.0,0.0,0.0,0.0,0.0,0.0,0.0,0.0,0.0
,,94401.414388,2.5176360607147217,0.0,0.0,0.0,0.0,0.0,0.0,0.0,0.0,0.0,0.0,0.0,81695.0,-0.07,-0.01,-1.0,-1.59,-1.65,-0.18,3.45,53.41,-49.81,81705.0,-0.07,-0.01,-0.99,-1.4,-1.71,-0.24,3.6,53.26,-49.36,0.0,0.0,0.0,0.0,0.0,0.0,0.0,0.0,0.0,0.0,0.0,0.0,0.0,0.0,0.0,0.0,0.0,0.0,0.0,0.0,0.0
,,94401.487324,2.5905728340148926,0.0,0.0,0.0,0.0,0.0,0.0,0.0,0.0,0.0,0.0,0.0,81715.0,-0.07,-0.01,-1.0,-1.22,-1.59,-0.24,2.55,53.86,-49.06,81778.0,-0.07,-0.01,-1.0,-203.72,34.82,-663.6,3.6,53.56,-49.66,0.0,0.0,0.0,0.0,0.0,0.0,0.0,0.0,0.0,0.0,0.0,0.0,0.0,0.0,0.0,0.0,0.0,0.0,0.0,0.0,0.0
,,94401.571626,2.6748738288879395,0.0,0.0,0.0,0.0,0.0,0.0,0.0,0.0,0.0,0.0,0.0,81852.0,-0.07,-0.02,-1.01,-1.46,-1.71,-0.24,4.2,51.91,-48.16,81863.0,-0.07,-0.01,-1.0,-1.34,-1.65,-0.12,3.45,51.31,-51.16,0.0,0.0,0.0,0.0,0.0,0.0,0.0,0.0,0.0,0.0,0.0,0.0,0.0,0.0,0.0,0.0,0.0,0.0,0.0,0.0,0.0
,,94401.5918,2.6950483322143555,0.0,0.0,0.0,0.0,0.0,0.0,0.0,0.0,0.0,0.0,0.0,81872.0,-0.07,-0.01,-1.01,-1.46,-1.59,-0.18,3.3,52.51,-49.36,81883.0,-0.06,-0.02,-1.0,-1.4,-1.71,-0.24,2.85,52.21,-49.06,0.0,0.0,0.0,0.0,0.0,0.0,0.0,0.0,0.0,0.0,0.0,0.0,0.0,0.0,0.0,0.0,0.0,0.0,0.0,0.0,0.0
,,94401.611594,2.7148427963256836,0.0,0.0,0.0,0.0,0.0,0.0,0.0,0.0,0.0,0.0,0.0,81892.0,-0.07,-0.02,-1.01,-1.52,-1.71,-0.18,3.15,52.36,-48.16,81902.0,-0.07,-0.01,-1.0,-1.46,-1.65,-0.18,2.55,51.76,-50.41,0.0,0.0,0.0,0.0,0.0,0.0,0.0,0.0,0.0,0.0,0.0,0.0,0.0,0.0,0.0,0.0,0.0,0.0,0.0,0.0,0.0
,,94401.631376,2.734626054763794,0.0,0.0,0.0,0.0,0.0,0.0,0.0,0.0,0.0,0.0,0.0,81912.0,-0.07,-0.01,-1.01,-1.28,-1.77,-0.12,3.75,52.36,-50.56,81922.0,-0.07,-0.01,-1.01,-1.4,-1.71,-0.24,2.55,51.76,-49.36,0.0,0.0,0.0,0.0,0.0,0.0,0.0,0.0,0.0,0.0,0.0,0.0,0.0,0.0,0.0,0.0,0.0,0.0,0.0,0.0,0.0
,,94401.651403,2.7546513080596924,0.0,0.0,0.0,0.0,0.0,0.0,0.0,0.0,0.0,0.0,0.0,81932.0,-0.07,-0.01,-1.01,-1.4,-1.59,-0.24,4.2,52.66,-48.91,81942.0,-0.07,-0.02,-1.0,-1.34,-1.71,-0.18,3.75,52.96,-49.81,0.0,0.0,0.0,0.0,0.0,0.0,0.0,0.0,0.0,0.0,0.0,0.0,0.0,0.0,0.0,0.0,0.0,0.0,0.0,0.0,0.0
,,94401.670975,2.774214744567871,0.0,0.0,0.0,0.0,0.0,0.0,0.0,0.0,0.0,0.0,0.0,81953.0,-0.07,-0.01,-1.0,-1.4,-1.59,-0.24,3.3,52.81,-49.66,81962.0,-0.07,-0.01,-1.01,-1.52,-1.59,-0.24,3.75,53.41,-49.21,0.0,0.0,0.0,0.0,0.0,0.0,0.0,0.0,0.0,0.0,0.0,0.0,0.0,0.0,0.0,0.0,0.0,0.0,0.0,0.0,0.0
,,94401.745229,2.8484790325164795,0.0,0.0,0.0,0.0,0.0,0.0,0.0,0.0,0.0,0.0,0.0,81972.0,-0.06,-0.01,-0.99,-1.59,-1.65,-0.24,4.95,52.81,-50.11,82036.0,-0.06,-0.01,-1.0,-1.46,-1.65,-0.24,3.75,52.96,-48.91,0.0,0.0,0.0,0.0,0.0,0.0,0.0,0.0,0.0,0.0,0.0,0.0,0.0,0.0,0.0,0.0,0.0,0.0,0.0,0.0,0.0
,,94401.763811,2.867060422897339,0.0,0.0,0.0,0.0,0.0,0.0,0.0,0.0,0.0,0.0,0.0,82045.0,-0.06,-0.01,-1.0,-1.34,-1.65,-0.18,4.2,53.71,-48.16,82055.0,-0.07,-0.01,-1.0,-1.46,-1.71,-0.18,3.6,53.26,-50.11,0.0,0.0,0.0,0.0,0.0,0.0,0.0,0.0,0.0,0.0,0.0,0.0,0.0,0.0,0.0,0.0,0.0,0.0,0.0,0.0,0.0
,,94401.782708,2.885957956314087,0.0,0.0,0.0,0.0,0.0,0.0,0.0,0.0,0.0,0.0,0.0,82064.0,-0.06,-0.01,-1.0,-1.4,-1.71,-0.18,2.7,51.91,-51.16,82074.0,-0.07,-0.02,-0.99,-1.46,-1.77,0.0,2.7,53.41,-50.26,0.0,0.0,0.0,0.0,0.0,0.0,0.0,0.0,0.0,0.0,0.0,0.0,0.0,0.0,0.0,0.0,0.0,0.0,0.0,0.0,0.0
,,94401.801353,2.904601573944092,0.0,0.0,0.0,0.0,0.0,0.0,0.0,0.0,0.0,0.0,0.0,82083.0,-0.06,-0.01,-1.01,-1.4,-1.71,-0.12,3.6,52.21,-50.11,82092.0,-0.07,-0.01,-1.0,-1.4,-1.65,-0.18,3.75,54.01,-48.46,0.0,0.0,0.0,0.0,0.0,0.0,0.0,0.0,0.0,0.0,0.0,0.0,0.0,0.0,0.0,0.0,0.0,0.0,0.0,0.0,0.0
,,94401.820089,2.9233264923095703,0.0,0.0,0.0,0.0,0.0,0.0,0.0,0.0,0.0,0.0,0.0,82102.0,-0.07,-0.02,-1.0,-1.4,-1.77,-0.18,3.6,53.56,-50.11,82111.0,-0.07,-0.0,-1.0,-1.52,-1.71,-0.18,3.3,51.76,-50.11,0.0,0.0,0.0,0.0,0.0,0.0,0.0,0.0,0.0,0.0,0.0,0.0,0.0,0.0,0.0,0.0,0.0,0.0,0.0,0.0,0.0
,,94401.839277,2.942535877227783,0.0,0.0,0.0,0.0,0.0,0.0,0.0,0.0,0.0,0.0,0.0,82120.0,-0.06,-0.01,-1.0,-1.52,-1.59,-0.24,3.3,51.76,-50.11,82130.0,-0.06,-0.02,-1.0,-1.4,-1.71,-0.12,3.15,53.71,-49.81,0.0,0.0,0.0,0.0,0.0,0.0,0.0,0.0,0.0,0.0,0.0,0.0,0.0,0.0,0.0,0.0,0.0,0.0,0.0,0.0,0.0
,,94401.857401,2.9606497287750244,0.0,0.0,0.0,0.0,0.0,0.0,0.0,0.0,0.0,0.0,0.0,82139.0,-0.06,-0.01,-0.99,-1.59,-1.59,0.0,3.75,51.61,-49.21,82148.0,-0.07,-0.01,-1.02,-1.46,-1.71,-0.18,3.75,53.71,-50.56,0.0,0.0,0.0,0.0,0.0,0.0,0.0,0.0,0.0,0.0,0.0,0.0,0.0,0.0,0.0,0.0,0.0,0.0,0.0,0.0,0.0
,,94401.93,3.0332725048065186,0.0,0.0,0.0,0.0,0.0,0.0,0.0,0.0,0.0,0.0,0.0,82158.0,-0.06,-0.02,-1.0,-1.52,-1.65,-0.12,2.1,51.91,-50.56,82220.0,-0.06,-0.02,-1.0,-1.4,-1.59,-0.18,4.5,53.41,-47.11,0.0,0.0,0.0,0.0,0.0,0.0,0.0,0.0,0.0,0.0,0.0,0.0,0.0,0.0,0.0,0.0,0.0,0.0,0.0,0.0,0.0
,,94401.948397,3.051645517349243,0.0,0.0,0.0,0.0,0.0,0.0,0.0,0.0,0.0,0.0,0.0,82230.0,-0.06,-0.01,-1.01,-1.59,-1.71,-0.18,5.25,52.96,-48.46,82239.0,-0.07,-0.02,-1.01,-1.52,-1.59,-0.24,2.7,52.36,-48.91,0.0,0.0,0.0,0.0,0.0,0.0,0.0,0.0,0.0,0.0,0.0,0.0,0.0,0.0,0.0,0.0,0.0,0.0,0.0,0.0,0.0
,,94401.967586,3.0708351135253906,0.0,0.0,0.0,0.0,0.0,0.0,0.0,0.0,0.0,0.0,0.0,82248.0,-0.07,-0.01,-0.99,-1.46,-1.65,-0.12,4.2,52.96,-50.26,82258.0,-0.07,-0.01,-1.01,-1.4,-1.52,-0.12,2.85,53.26,-50.11,0.0,0.0,0.0,0.0,0.0,0.0,0.0,0.0,0.0,0.0,0.0,0.0,0.0,0.0,0.0,0.0,0.0,0.0,0.0,0.0,0.0
,,94401.985846,3.0890941619873047,0.0,0.0,0.0,0.0,0.0,0.0,0.0,0.0,0.0,0.0,0.0,82267.0,-0.07,-0.02,-1.0,-1.34,-1.71,0.0,3.15,53.41,-49.81,82276.0,-0.06,-0.01,-1.01,-1.34,-1.71,-0.18,2.85,51.76,-49.36,0.0,0.0,0.0,0.0,0.0,0.0,0.0,0.0,0.0,0.0,0.0,0.0,0.0,0.0,0.0,0.0,0.0,0.0,0.0,0.0,0.0
,,94402.004777,3.1080262660980225,0.0,0.0,0.0,0.0,0.0,0.0,0.0,0.0,0.0,0.0,0.0,82286.0,-0.07,-0.01,-1.01,-1.34,-1.65,-0.12,2.1,51.61,-50.26,82295.0,-0.06,-0.01,-0.99,-1.4,-1.65,-0.18,3.75,52.36,-49.81,0.0,0.0,0.0,0.0,0.0,0.0,0.0,0.0,0.0,0.0,0.0,0.0,0.0,0.0,0.0,0.0,0.0,0.0,0.0,0.0,0.0
,,94402.023979,3.127222776412964,0.0,0.0,0.0,0.0,0.0,0.0,0.0,0.0,0.0,0.0,0.0,82305.0,-0.06,-0.01,-1.0,-1.4,-1.59,-0.18,3.75,52.66,-48.91,82314.0,-0.07,-0.0,-1.01,-1.46,-1.65,-0.12,3.3,53.56,-49.06,0.0,0.0,0.0,0.0,0.0,0.0,0.0,0.0,0.0,0.0,0.0,0.0,0.0,0.0,0.0,0.0,0.0,0.0,0.0,0.0,0.0
,,94402.042592,3.1458404064178467,0.0,0.0,0.0,0.0,0.0,0.0,0.0,0.0,0.0,0.0,0.0,82324.0,-0.07,-0.02,-1.0,-1.59,-1.71,-0.37,2.55,52.51,-50.41,82333.0,-0.07,-0.01,-1.01,-1.34,-1.65,-0.18,3.6,51.76,-49.36,0.0,0.0,0.0,0.0,0.0,0.0,0.0,0.0,0.0,0.0,0.0,0.0,0.0,0.0,0.0,0.0,0.0,0.0,0.0,0.0,0.0
,,94402.111634,3.2148823738098145,0.0,0.0,0.0,0.0,0.0,0.0,0.0,0.0,0.0,0.0,0.0,82342.0,-0.07,-0.01,-1.0,-1.46,-1.59,-0.18,3.6,53.26,-50.41,82402.0,-0.07,-0.01,-1.01,-1.46,-1.71,-0.24,4.35,53.56,-48.61,0.0,0.0,0.0,0.0,0.0,0.0,0.0,0.0,0.0,0.0,0.0,0.0,0.0,0.0,0.0,0.0,0.0,0.0,0.0,0.0,0.0
,,94402.130397,3.2336461544036865,0.0,0.0,0.0,0.0,0.0,0.0,0.0,0.0,0.0,0.0,0.0,82411.0,-0.07,-0.01,-1.0,-1.28,-1.65,-0.24,2.25,52.81,-50.11,82421.0,-0.07,-0.02,-1.0,-1.46,-1.65,-0.18,4.2,52.36,-51.16,0.0,0.0,0.0,0.0,0.0,0.0,0.0,0.0,0.0,0.0,0.0,0.0,0.0,0.0,0.0,0.0,0.0,0.0,0.0,0.0,0.0
,,94402.149148,3.252397060394287,0.0,0.0,0.0,0.0,0.0,0.0,0.0,0.0,0.0,0.0,0.0,82430.0,-0.07,-0.02,-1.01,-1.4,-1.59,-0.12,4.2,52.36,-51.16,82440.0,-0.07,-0.01,-1.0,-1.22,-1.65,-0.18,3.15,54.01,-50.26,0.0,0.0,0.0,0.0,0.0,0.0,0.0,0.0,0.0,0.0,0.0,0.0,0.0,0.0,0.0,0.0,0.0,0.0,0.0,0.0,0.0
,,94402.167935,3.2711822986602783,0.0,0.0,0.0,0.0,0.0,0.0,0.0,0.0,0.0,0.0,0.0,82449.0,-0.07,-0.02,-1.0,-1.4,-1.71,-0.18,2.85,53.26,-49.06,82458.0,-0.06,-0.01,-1.01,-1.4,-1.59,-0.18,3.9,52.81,-49.66,0.0,0.0,0.0,0.0,0.0,0.0,0.0,0.0,0.0,0.0,0.0,0.0,0.0,0.0,0.0,0.0,0.0,0.0,0.0,0.0,0.0
,,94402.18671,3.2899487018585205,0.0,0.0,0.0,0.0,0.0,0.0,0.0,0.0,0.0,0.0,0.0,82468.0,-0.06,-0.01,-1.0,-1.4,-1.65,-0.18,3.9,52.81,-49.36,82477.0,-0.06,-0.01,-1.01,-1.46,-1.59,-0.18,2.85,53.56,-49.66,0.0,0.0,0.0,0.0,0.0,0.0,0.0,0.0,0.0,0.0,0.0,0.0,0.0,0.0,0.0,0.0,0.0,0.0,0.0,0.0,0.0
,,94402.205964,3.309223175048828,0.0,0.0,0.0,0.0,0.0,0.0,0.0,0.0,0.0,0.0,0.0,82487.0,-0.06,-0.01,-1.0,-1.34,-1.71,-0.12,3.45,52.66,-49.51,82496.0,-0.07,-0.01,-1.01,-1.34,-1.65,-0.18,3.45,52.36,-49.21,0.0,0.0,0.0,0.0,0.0,0.0,0.0,0.0,0.0,0.0,0.0,0.0,0.0,0.0,0.0,0.0,0.0,0.0,0.0,0.0,0.0
,,94402.224389,3.3276398181915283,0.0,0.0,0.0,0.0,0.0,0.0,0.0,0.0,0.0,0.0,0.0,82505.0,-0.07,-0.01,-1.01,-1.34,-1.59,-0.24,3.6,53.26,-50.71,82515.0,-0.07,-0.01,-1.01,-1.46,-1.65,-0.12,4.5,52.96,-49.21,0.0,0.0,0.0,0.0,0.0,0.0,0.0,0.0,0.0,0.0,0.0,0.0,0.0,0.0,0.0,0.0,0.0,0.0,0.0,0.0,0.0
,,94402.297352,3.4006011486053467,0.0,0.0,0.0,0.0,0.0,0.0,0.0,0.0,0.0,0.0,0.0,82524.0,-0.06,-0.01,-1.0,-1.52,-1.59,-0.18,4.2,53.41,-49.81,82587.0,-0.06,-0.01,-1.01,-1.4,-1.77,-0.3,3.15,52.96,-50.56,0.0,0.0,0.0,0.0,0.0,0.0,0.0,0.0,0.0,0.0,0.0,0.0,0.0,0.0,0.0,0.0,0.0,0.0,0.0,0.0,0.0
,,94402.317276,3.4205245971679688,0.0,0.0,0.0,0.0,0.0,0.0,0.0,0.0,0.0,0.0,0.0,82597.0,-0.08,-0.01,-0.99,-1.46,-1.65,-0.12,3.3,52.81,-49.06,82607.0,-0.07,-0.01,-1.0,-1.52,-1.52,-0.12,2.4,52.66,-48.91,0.0,0.0,0.0,0.0,0.0,0.0,0.0,0.0,0.0,0.0,0.0,0.0,0.0,0.0,0.0,0.0,0.0,0.0,0.0,0.0,0.0
,,94402.336986,3.440234899520874,0.0,0.0,0.0,0.0,0.0,0.0,0.0,0.0,0.0,0.0,0.0,82617.0,-0.07,-0.01,-1.01,-1.28,-1.59,-0.12,3.9,52.51,-48.61,82627.0,-0.07,-0.02,-1.0,-1.4,-1.71,-0.18,3.45,52.36,-50.56,0.0,0.0,0.0,0.0,0.0,0.0,0.0,0.0,0.0,0.0,0.0,0.0,0.0,0.0,0.0,0.0,0.0,0.0,0.0,0.0,0.0
,,94402.356939,3.460188865661621,0.0,0.0,0.0,0.0,0.0,0.0,0.0,0.0,0.0,0.0,0.0,82637.0,-0.06,-0.01,-1.0,-1.46,-1.71,-0.18,4.2,54.01,-48.91,82647.0,-0.08,-0.01,-1.0,-1.46,-1.59,-0.24,4.2,52.96,-49.51,0.0,0.0,0.0,0.0,0.0,0.0,0.0,0.0,0.0,0.0,0.0,0.0,0.0,0.0,0.0,0.0,0.0,0.0,0.0,0.0,0.0
,,94402.376871,3.480118751525879,0.0,0.0,0.0,0.0,0.0,0.0,0.0,0.0,0.0,0.0,0.0,82657.0,-0.07,0.0,-1.0,-1.28,-1.65,-0.24,3.6,53.86,-50.41,82667.0,-0.07,-0.02,-0.99,-1.34,-1.77,-0.3,3.45,52.36,-50.26,0.0,0.0,0.0,0.0,0.0,0.0,0.0,0.0,0.0,0.0,0.0,0.0,0.0,0.0,0.0,0.0,0.0,0.0,0.0,0.0,0.0
,,94402.396655,3.499903917312622,0.0,0.0,0.0,0.0,0.0,0.0,0.0,0.0,0.0,0.0,0.0,82677.0,-0.07,-0.01,-1.0,-1.34,-1.65,0.0,3.3,53.86,-51.01,82687.0,-0.07,-0.02,-1.01,-1.46,-1.65,-0.12,3.6,52.21,-49.66,0.0,0.0,0.0,0.0,0.0,0.0,0.0,0.0,0.0,0.0,0.0,0.0,0.0,0.0,0.0,0.0,0.0,0.0,0.0,0.0,0.0
,,94402.416758,3.5200045108795166,0.0,0.0,0.0,0.0,0.0,0.0,0.0,0.0,0.0,0.0,0.0,82697.0,-0.07,-0.02,-1.0,-1.46,-1.65,-0.18,3.9,53.86,-48.61,82707.0,-0.06,-0.01,-1.01,-1.34,-1.59,-0.18,3.3,52.81,-50.71,0.0,0.0,0.0,0.0,0.0,0.0,0.0,0.0,0.0,0.0,0.0,0.0,0.0,0.0,0.0,0.0,0.0,0.0,0.0,0.0,0.0
,,94402.49154,3.59479022026062,0.0,0.0,0.0,0.0,0.0,0.0,0.0,0.0,0.0,0.0,0.0,82717.0,-0.06,-0.01,-1.01,-1.4,-1.59,-0.18,3.3,52.21,-50.41,82782.0,-0.07,-0.02,-1.01,-1.34,-1.71,-0.24,3.9,51.76,-48.61,0.0,0.0,0.0,0.0,0.0,0.0,0.0,0.0,0.0,0.0,0.0,0.0,0.0,0.0,0.0,0.0,0.0,0.0,0.0,0.0,0.0
,,94402.511494,3.6147420406341553,0.0,0.0,0.0,0.0,0.0,0.0,0.0,0.0,0.0,0.0,0.0,82791.0,-0.07,-0.01,-1.01,-1.34,-1.71,-0.18,3.15,52.36,-50.56,82801.0,-0.07,-0.01,-1.01,-1.65,-1.59,-0.18,4.8,52.96,-47.56,0.0,0.0,0.0,0.0,0.0,0.0,0.0,0.0,0.0,0.0,0.0,0.0,0.0,0.0,0.0,0.0,0.0,0.0,0.0,0.0,0.0
,,94402.53125,3.6345131397247314,0.0,0.0,0.0,0.0,0.0,0.0,0.0,0.0,0.0,0.0,0.0,82811.0,-0.06,-0.01,-1.0,-1.34,-1.77,-0.12,4.8,52.36,-49.81,82821.0,-0.07,-0.02,-1.01,-1.46,-1.59,0.06,2.1,52.36,-50.26,0.0,0.0,0.0,0.0,0.0,0.0,0.0,0.0,0.0,0.0,0.0,0.0,0.0,0.0,0.0,0.0,0.0,0.0,0.0,0.0,0.0
,,94402.551292,3.654541492462158,0.0,0.0,0.0,0.0,0.0,0.0,0.0,0.0,0.0,0.0,0.0,82831.0,-0.06,-0.01,-1.02,-1.28,-1.65,-0.3,3.75,53.41,-50.26,82841.0,-0.06,-0.02,-1.01,-1.4,-1.65,-0.18,3.15,53.41,-49.81,0.0,0.0,0.0,0.0,0.0,0.0,0.0,0.0,0.0,0.0,0.0,0.0,0.0,0.0,0.0,0.0,0.0,0.0,0.0,0.0,0.0
,,94402.570773,3.6740219593048096,0.0,0.0,0.0,0.0,0.0,0.0,0.0,0.0,0.0,0.0,0.0,82851.0,-0.07,-0.02,-1.01,-1.4,-1.59,-0.24,2.85,52.51,-49.36,82861.0,-0.06,-0.01,-1.01,-1.4,-1.65,0.0,3.3,51.16,-50.41,0.0,0.0,0.0,0.0,0.0,0.0,0.0,0.0,0.0,0.0,0.0,0.0,0.0,0.0,0.0,0.0,0.0,0.0,0.0,0.0,0.0
,,94402.590762,3.6940114498138428,0.0,0.0,0.0,0.0,0.0,0.0,0.0,0.0,0.0,0.0,0.0,82871.0,-0.07,-0.01,-1.01,-1.34,-1.71,-0.12,3.9,52.81,-49.06,82881.0,-0.07,-0.01,-1.01,-1.4,-1.59,-0.24,2.7,52.96,-49.81,0.0,0.0,0.0,0.0,0.0,0.0,0.0,0.0,0.0,0.0,0.0,0.0,0.0,0.0,0.0,0.0,0.0,0.0,0.0,0.0,0.0
,,94402.610843,3.7140915393829346,0.0,0.0,0.0,0.0,0.0,0.0,0.0,0.0,0.0,0.0,0.0,82891.0,-0.06,-0.01,-1.01,-1.52,-1.77,-0.18,3.45,54.01,-49.51,82901.0,-0.07,-0.01,-1.02,-1.4,-1.77,-0.3,3.45,51.91,-49.81,0.0,0.0,0.0,0.0,0.0,0.0,0.0,0.0,0.0,0.0,0.0,0.0,0.0,0.0,0.0,0.0,0.0,0.0,0.0,0.0,0.0
,,94402.684732,3.7879843711853027,0.0,0.0,0.0,0.0,0.0,0.0,0.0,0.0,0.0,0.0,0.0,82911.0,-0.06,-0.02,-1.0,-1.46,-1.71,-0.24,2.85,52.21,-50.11,82974.0,-0.07,-0.01,-1.0,-1.28,-1.77,-0.3,5.25,54.46,-47.86,0.0,0.0,0.0,0.0,0.0,0.0,0.0,0.0,0.0,0.0,0.0,0.0,0.0,0.0,0.0,0.0,0.0,0.0,0.0,0.0,0.0
,,94402.704115,3.807363510131836,0.0,0.0,0.0,0.0,0.0,0.0,0.0,0.0,0.0,0.0,0.0,82984.0,-0.06,-0.02,-1.01,-1.4,-1.59,0.0,3.15,54.46,-50.56,82994.0,-0.06,-0.01,-1.01,-1.46,-1.71,-0.18,3.15,51.31,-48.91,0.0,0.0,0.0,0.0,0.0,0.0,0.0,0.0,0.0,0.0,0.0,0.0,0.0,0.0,0.0,0.0,0.0,0.0,0.0,0.0,0.0
,,94402.723893,3.8271420001983643,0.0,0.0,0.0,0.0,0.0,0.0,0.0,0.0,0.0,0.0,0.0,83004.0,-0.06,-0.01,-1.0,-1.4,-1.65,-0.24,3.3,52.81,-48.31,83014.0,-0.06,-0.01,-1.0,-1.34,-1.71,-0.18,3.15,52.36,-50.56,0.0,0.0,0.0,0.0,0.0,0.0,0.0,0.0,0.0,0.0,0.0,0.0,0.0,0.0,0.0,0.0,0.0,0.0,0.0,0.0,0.0
,,94402.743967,3.8472156524658203,0.0,0.0,0.0,0.0,0.0,0.0,0.0,0.0,0.0,0.0,0.0,83024.0,-0.07,-0.01,-1.0,-1.52,-1.52,-0.24,2.25,52.21,-49.06,83034.0,-0.06,-0.01,-1.0,-1.52,-1.65,-0.18,3.9,52.81,-50.41,0.0,0.0,0.0,0.0,0.0,0.0,0.0,0.0,0.0,0.0,0.0,0.0,0.0,0.0,0.0,0.0,0.0,0.0,0.0,0.0,0.0
,,94402.763864,3.8671135902404785,0.0,0.0,0.0,0.0,0.0,0.0,0.0,0.0,0.0,0.0,0.0,83044.0,-0.07,-0.01,-1.02,-1.34,-1.59,-0.12,3.15,52.66,-49.81,83054.0,-0.07,-0.01,-0.99,-1.28,-1.65,-0.18,3.3,52.51,-50.71,0.0,0.0,0.0,0.0,0.0,0.0,0.0,0.0,0.0,0.0,0.0,0.0,0.0,0.0,0.0,0.0,0.0,0.0,0.0,0.0,0.0
,,94402.783738,3.8870060443878174,0.0,0.0,0.0,0.0,0.0,0.0,0.0,0.0,0.0,0.0,0.0,83064.0,-0.06,-0.01,-0.99,-1.34,-1.71,0.0,3.75,52.36,-49.81,83073.0,-0.06,-0.01,-1.0,-1.4,-1.65,-0.12,3.75,54.01,-49.81,0.0,0.0,0.0,0.0,0.0,0.0,0.0,0.0,0.0,0.0,0.0,0.0,0.0,0.0,0.0,0.0,0.0,0.0,0.0,0.0,0.0
,,94402.803479,3.906730890274048,0.0,0.0,0.0,0.0,0.0,0.0,0.0,0.0,0.0,0.0,0.0,83083.0,-0.07,-0.01,-1.0,-1.4,-1.59,-0.18,2.85,54.31,-49.66,83093.0,-0.06,-0.01,-1.0,-1.4,-1.77,-0.3,4.35,51.46,-49.36,0.0,0.0,0.0,0.0,0.0,0.0,0.0,0.0,0.0,0.0,0.0,0.0,0.0,0.0,0.0,0.0,0.0,0.0,0.0,0.0,0.0
,,94402.941504,4.044758558273315,0.0,0.0,0.0,0.0,0.0,0.0,0.0,0.0,0.0,0.0,0.0,83103.0,-0.07,-0.01,-1.0,-1.4,-1.71,-0.3,3.45,52.36,-48.46,83231.0,-0.06,-0.01,-1.01,-1.46,-1.71,-0.12,3.15,51.91,-49.21,0.0,0.0,0.0,0.0,0.0,0.0,0.0,0.0,0.0,0.0,0.0,0.0,0.0,0.0,0.0,0.0,0.0,0.0,0.0,0.0,0.0
,,94402.961382,4.06463098526001,0.0,0.0,0.0,0.0,0.0,0.0,0.0,0.0,0.0,0.0,0.0,83241.0,-0.07,-0.01,-1.0,-1.4,-1.65,-0.18,4.2,52.36,-48.46,83251.0,-0.07,-0.02,-1.0,-1.46,-1.59,-0.24,3.75,51.61,-50.26,0.0,0.0,0.0,0.0,0.0,0.0,0.0,0.0,0.0,0.0,0.0,0.0,0.0,0.0,0.0,0.0,0.0,0.0,0.0,0.0,0.0
,,94402.981352,4.084600925445557,0.0,0.0,0.0,0.0,0.0,0.0,0.0,0.0,0.0,0.0,0.0,83260.0,-0.07,-0.02,-1.01,-1.59,-1.59,-0.12,4.95,52.51,-49.66,83271.0,-0.06,-0.02,-1.01,-1.46,-1.65,-0.24,3.15,53.71,-49.21,0.0,0.0,0.0,0.0,0.0,0.0,0.0,0.0,0.0,0.0,0.0,0.0,0.0,0.0,0.0,0.0,0.0,0.0,0.0,0.0,0.0
,,94403.001113,4.104360818862915,0.0,0.0,0.0,0.0,0.0,0.0,0.0,0.0,0.0,0.0,0.0,83281.0,-0.07,-0.02,-1.0,-1.46,-1.65,-0.18,3.6,53.56,-50.11,83291.0,-0.07,-0.01,-1.0,-1.4,-1.77,-0.18,4.65,52.81,-48.31,0.0,0.0,0.0,0.0,0.0,0.0,0.0,0.0,0.0,0.0,0.0,0.0,0.0,0.0,0.0,0.0,0.0,0.0,0.0,0.0,0.0
,,94403.020865,4.124109506607056,0.0,0.0,0.0,0.0,0.0,0.0,0.0,0.0,0.0,0.0,0.0,83301.0,-0.07,-0.01,-0.99,-1.52,-1.65,-0.24,3.15,51.61,-49.21,83311.0,-0.07,-0.01,-0.99,-1.4,-1.65,-0.12,2.7,52.36,-48.91,0.0,0.0,0.0,0.0,0.0,0.0,0.0,0.0,0.0,0.0,0.0,0.0,0.0,0.0,0.0,0.0,0.0,0.0,0.0,0.0,0.0
,,94403.040721,4.143970489501953,0.0,0.0,0.0,0.0,0.0,0.0,0.0,0.0,0.0,0.0,0.0,83321.0,-0.07,-0.01,-1.01,-1.4,-1.71,-0.24,3.15,51.91,-49.21,83330.0,-0.07,-0.02,-1.0,-1.52,-1.77,-0.24,4.35,52.81,-49.06,0.0,0.0,0.0,0.0,0.0,0.0,0.0,0.0,0.0,0.0,0.0,0.0,0.0,0.0,0.0,0.0,0.0,0.0,0.0,0.0,0.0
,,94403.060763,4.164011716842651,0.0,0.0,0.0,0.0,0.0,0.0,0.0,0.0,0.0,0.0,0.0,83341.0,-0.06,-0.01,-0.99,-1.52,-1.65,-0.18,2.25,52.51,-50.41,83350.0,-0.06,-0.01,-1.01,-1.4,-1.52,-0.24,3.6,53.26,-49.66,0.0,0.0,0.0,0.0,0.0,0.0,0.0,0.0,0.0,0.0,0.0,0.0,0.0,0.0,0.0,0.0,0.0,0.0,0.0,0.0,0.0
,,94403.141498,4.244750738143921,0.0,0.0,0.0,0.0,0.0,0.0,0.0,0.0,0.0,0.0,0.0,83361.0,-0.06,-0.01,-1.01,-1.4,-1.65,-0.18,3.3,51.46,-50.11,83431.0,-0.06,-0.02,-1.0,-1.46,-1.77,0.0,3.75,54.01,-48.91,0.0,0.0,0.0,0.0,0.0,0.0,0.0,0.0,0.0,0.0,0.0,0.0,0.0,0.0,0.0,0.0,0.0,0.0,0.0,0.0,0.0
,,94403.159957,4.263205528259277,0.0,0.0,0.0,0.0,0.0,0.0,0.0,0.0,0.0,0.0,0.0,83440.0,-0.05,-0.01,-1.0,-1.4,-1.71,-0.24,3.15,52.96,-48.91,83450.0,-0.07,-0.02,-1.01,-1.4,-1.65,-0.12,3.6,53.26,-50.11,0.0,0.0,0.0,0.0,0.0,0.0,0.0,0.0,0.0,0.0,0.0,0.0,0.0,0.0,0.0,0.0,0.0,0.0,0.0,0.0,0.0
,,94403.179138,4.2823874950408936,0.0,0.0,0.0,0.0,0.0,0.0,0.0,0.0,0.0,0.0,0.0,83459.0,-0.07,-0.01,-1.01,-1.46,-1.59,-0.3,3.6,53.26,-50.11,83468.0,-0.07,-0.01,-1.01,-1.46,-1.65,-0.24,2.85,52.81,-49.36,0.0,0.0,0.0,0.0,0.0,0.0,0.0,0.0,0.0,0.0,0.0,0.0,0.0,0.0,0.0,0.0,0.0,0.0,0.0,0.0,0.0
,,94403.197944,4.301192283630371,0.0,0.0,0.0,0.0,0.0,0.0,0.0,0.0,0.0,0.0,0.0,83478.0,-0.06,-0.01,-1.0,-1.4,-1.77,-0.3,2.55,52.51,-49.66,83487.0,-0.06,-0.01,-0.99,-1.4,-1.71,-0.3,2.7,54.01,-50.86,0.0,0.0,0.0,0.0,0.0,0.0,0.0,0.0,0.0,0.0,0.0,0.0,0.0,0.0,0.0,0.0,0.0,0.0,0.0,0.0,0.0
,,94403.216703,4.31995153427124,0.0,0.0,0.0,0.0,0.0,0.0,0.0,0.0,0.0,0.0,0.0,83497.0,-0.07,-0.01,-1.01,-1.4,-1.71,-0.18,3.45,53.41,-49.81,83506.0,-0.07,-0.01,-1.0,-1.52,-1.59,-0.12,2.7,52.36,-50.26,0.0,0.0,0.0,0.0,0.0,0.0,0.0,0.0,0.0,0.0,0.0,0.0,0.0,0.0,0.0,0.0,0.0,0.0,0.0,0.0,0.0
,,94403.235011,4.338257551193237,0.0,0.0,0.0,0.0,0.0,0.0,0.0,0.0,0.0,0.0,0.0,83515.0,-0.07,-0.01,-1.01,-1.46,-1.71,-0.24,3.9,52.21,-51.76,83525.0,-0.07,-0.02,-1.0,-1.34,-1.71,-0.3,4.2,51.91,-50.26,0.0,0.0,0.0,0.0,0.0,0.0,0.0,0.0,0.0,0.0,0.0,0.0,0.0,0.0,0.0,0.0,0.0,0.0,0.0,0.0,0.0
,,94403.254148,4.357396364212036,0.0,0.0,0.0,0.0,0.0,0.0,0.0,0.0,0.0,0.0,0.0,83534.0,-0.06,-0.02,-1.01,-1.4,-1.65,-0.12,3.6,53.86,-50.71,83544.0,-0.07,-0.01,-1.01,-1.4,-1.77,-0.12,1.8,51.76,-51.01,0.0,0.0,0.0,0.0,0.0,0.0,0.0,0.0,0.0,0.0,0.0,0.0,0.0,0.0,0.0,0.0,0.0,0.0,0.0,0.0,0.0
,,94403.328818,4.4320714473724365,0.0,0.0,0.0,0.0,0.0,0.0,0.0,0.0,0.0,0.0,0.0,83553.0,-0.06,-0.01,-1.0,-1.59,-1.65,-0.12,3.15,52.66,-50.56,83618.0,-0.07,-0.01,-1.0,-1.4,-1.77,-0.18,5.25,52.66,-48.91,0.0,0.0,0.0,0.0,0.0,0.0,0.0,0.0,0.0,0.0,0.0,0.0,0.0,0.0,0.0,0.0,0.0,0.0,0.0,0.0,0.0
,,94403.347604,4.450854063034058,0.0,0.0,0.0,0.0,0.0,0.0,0.0,0.0,0.0,0.0,0.0,83627.0,-0.06,-0.02,-1.0,-1.34,-1.71,-0.12,3.15,51.61,-48.91,83637.0,-0.06,-0.01,-1.0,-1.34,-1.65,-0.18,3.45,53.41,-49.81,0.0,0.0,0.0,0.0,0.0,0.0,0.0,0.0,0.0,0.0,0.0,0.0,0.0,0.0,0.0,0.0,0.0,0.0,0.0,0.0,0.0
,,94403.366561,4.4698100090026855,0.0,0.0,0.0,0.0,0.0,0.0,0.0,0.0,0.0,0.0,0.0,83646.0,-0.07,-0.02,-1.0,-1.46,-1.71,-0.12,3.6,54.31,-48.61,83656.0,-0.06,-0.01,-1.0,-1.4,-1.59,-0.12,3.6,52.21,-49.06,0.0,0.0,0.0,0.0,0.0,0.0,0.0,0.0,0.0,0.0,0.0,0.0,0.0,0.0,0.0,0.0,0.0,0.0,0.0,0.0,0.0
,,94403.385021,4.488268852233887,0.0,0.0,0.0,0.0,0.0,0.0,0.0,0.0,0.0,0.0,0.0,83665.0,-0.07,-0.01,-1.0,-1.4,-1.71,-0.18,2.4,52.96,-48.46,83675.0,-0.06,-0.01,-1.02,-1.4,-1.71,-0.18,4.2,51.31,-49.51,0.0,0.0,0.0,0.0,0.0,0.0,0.0,0.0,0.0,0.0,0.0,0.0,0.0,0.0,0.0,0.0,0.0,0.0,0.0,0.0,0.0
,,94403.403878,4.507126092910767,0.0,0.0,0.0,0.0,0.0,0.0,0.0,0.0,0.0,0.0,0.0,83684.0,-0.06,-0.02,-1.0,-1.4,-1.59,-0.18,3.6,53.56,-48.61,83693.0,-0.06,-0.01,-1.0,-1.4,-1.65,-0.24,3.3,53.56,-50.11,0.0,0.0,0.0,0.0,0.0,0.0,0.0,0.0,0.0,0.0,0.0,0.0,0.0,0.0,0.0,0.0,0.0,0.0,0.0,0.0,0.0
,,94403.42261,4.5258543491363525,0.0,0.0,0.0,0.0,0.0,0.0,0.0,0.0,0.0,0.0,0.0,83703.0,-0.06,-0.0,-1.01,-1.46,-1.77,-0.18,3.6,52.81,-50.41,83712.0,-0.06,-0.01,-1.0,-1.34,-1.59,-0.24,3.9,51.76,-49.06,0.0,0.0,0.0,0.0,0.0,0.0,0.0,0.0,0.0,0.0,0.0,0.0,0.0,0.0,0.0,0.0,0.0,0.0,0.0,0.0,0.0
,,94403.441597,4.544846534729004,0.0,0.0,0.0,0.0,0.0,0.0,0.0,0.0,0.0,0.0,0.0,83722.0,-0.07,-0.02,-1.0,-1.46,-1.65,-0.24,2.55,52.21,-49.36,83731.0,-0.07,-0.01,-1.0,-1.34,-1.59,0.0,2.7,53.41,-49.21,0.0,0.0,0.0,0.0,0.0,0.0,0.0,0.0,0.0,0.0,0.0,0.0,0.0,0.0,0.0,0.0,0.0,0.0,0.0,0.0,0.0
,,94403.514901,4.618150234222412,0.0,0.0,0.0,0.0,0.0,0.0,0.0,0.0,0.0,0.0,0.0,83740.0,-0.07,-0.01,-1.01,-1.34,-1.71,-0.18,2.85,53.26,-50.11,83804.0,-0.06,-0.02,-1.0,-1.4,-1.65,-0.18,6.0,53.26,-48.31,0.0,0.0,0.0,0.0,0.0,0.0,0.0,0.0,0.0,0.0,0.0,0.0,0.0,0.0,0.0,0.0,0.0,0.0,0.0,0.0,0.0
,,94403.533529,4.6367762088775635,0.0,0.0,0.0,0.0,0.0,0.0,0.0,0.0,0.0,0.0,0.0,83813.0,-0.06,-0.01,-1.01,-1.52,-1.77,-0.18,4.2,54.46,-49.21,83823.0,-0.07,-0.02,-1.0,-1.46,-1.65,-0.24,2.25,53.86,-48.31,0.0,0.0,0.0,0.0,0.0,0.0,0.0,0.0,0.0,0.0,0.0,0.0,0.0,0.0,0.0,0.0,0.0,0.0,0.0,0.0,0.0
,,94403.552379,4.6556267738342285,0.0,0.0,0.0,0.0,0.0,0.0,0.0,0.0,0.0,0.0,0.0,83832.0,-0.05,-0.01,-1.0,-1.46,-1.71,-0.18,3.9,51.76,-48.61,83842.0,-0.06,-0.02,-1.0,-1.46,-1.71,-0.12,2.85,52.21,-51.46,0.0,0.0,0.0,0.0,0.0,0.0,0.0,0.0,0.0,0.0,0.0,0.0,0.0,0.0,0.0,0.0,0.0,0.0,0.0,0.0,0.0
,,94403.571169,4.674417972564697,0.0,0.0,0.0,0.0,0.0,0.0,0.0,0.0,0.0,0.0,0.0,83851.0,-0.07,-0.01,-1.0,-1.46,-1.77,-0.24,3.45,51.91,-48.91,83860.0,-0.07,-0.01,-1.01,-1.28,-1.65,-0.3,2.85,53.86,-49.06,0.0,0.0,0.0,0.0,0.0,0.0,0.0,0.0,0.0,0.0,0.0,0.0,0.0,0.0,0.0,0.0,0.0,0.0,0.0,0.0,0.0
,,94403.590145,4.693403959274292,0.0,0.0,0.0,0.0,0.0,0.0,0.0,0.0,0.0,0.0,0.0,83870.0,-0.06,-0.01,-1.01,-1.46,-1.65,0.0,3.45,52.66,-48.46,83879.0,-0.07,-0.01,-1.01,-1.4,-1.52,-0.24,3.45,52.66,-48.46,0.0,0.0,0.0,0.0,0.0,0.0,0.0,0.0,0.0,0.0,0.0,0.0,0.0,0.0,0.0,0.0,0.0,0.0,0.0,0.0,0.0
,,94403.608626,4.711871385574341,0.0,0.0,0.0,0.0,0.0,0.0,0.0,0.0,0.0,0.0,0.0,83889.0,-0.07,-0.02,-1.01,-1.34,-1.65,-0.24,3.9,52.81,-50.11,83898.0,-0.07,-0.01,-1.01,-1.46,-1.65,-0.18,3.15,52.96,-49.51,0.0,0.0,0.0,0.0,0.0,0.0,0.0,0.0,0.0,0.0,0.0,0.0,0.0,0.0,0.0,0.0,0.0,0.0,0.0,0.0,0.0
,,94403.627554,4.730802297592163,0.0,0.0,0.0,0.0,0.0,0.0,0.0,0.0,0.0,0.0,0.0,83907.0,-0.07,-0.01,-1.01,-1.46,-1.65,-0.24,3.15,54.01,-48.91,83917.0,-0.06,-0.01,-1.0,-1.34,-1.59,-0.3,3.45,54.76,-48.91,0.0,0.0,0.0,0.0,0.0,0.0,0.0,0.0,0.0,0.0,0.0,0.0,0.0,0.0,0.0,0.0,0.0,0.0,0.0,0.0,0.0
,,94403.703206,4.80645489692688,0.0,0.0,0.0,0.0,0.0,0.0,0.0,0.0,0.0,0.0,0.0,83926.0,-0.07,-0.01,-1.0,-1.4,-1.65,-0.37,3.9,53.56,-48.61,83992.0,-0.07,-0.01,-1.0,-1.34,-1.77,-0.12,3.75,51.91,-49.21,0.0,0.0,0.0,0.0,0.0,0.0,0.0,0.0,0.0,0.0,0.0,0.0,0.0,0.0,0.0,0.0,0.0,0.0,0.0,0.0,0.0
,,94403.722838,4.8260862827301025,0.0,0.0,0.0,0.0,0.0,0.0,0.0,0.0,0.0,0.0,0.0,84002.0,-0.07,-0.01,-1.0,-1.52,-1.71,-0.18,4.5,53.71,-49.21,84012.0,-0.07,-0.01,-1.02,-1.4,-1.59,-0.12,2.85,52.81,-49.06,0.0,0.0,0.0,0.0,0.0,0.0,0.0,0.0,0.0,0.0,0.0,0.0,0.0,0.0,0.0,0.0,0.0,0.0,0.0,0.0,0.0
,,94403.742675,4.84594202041626,0.0,0.0,0.0,0.0,0.0,0.0,0.0,0.0,0.0,0.0,0.0,84022.0,-0.07,-0.01,-1.0,-1.28,-1.77,-0.24,2.7,51.91,-48.91,84032.0,-0.07,-0.01,-1.0,-1.46,-1.59,-0.24,3.6,52.51,-49.36,0.0,0.0,0.0,0.0,0.0,0.0,0.0,0.0,0.0,0.0,0.0,0.0,0.0,0.0,0.0,0.0,0.0,0.0,0.0,0.0,0.0
,,94403.762508,4.865756273269653,0.0,0.0,0.0,0.0,0.0,0.0,0.0,0.0,0.0,0.0,0.0,84042.0,-0.07,-0.01,-1.01,-1.4,-1.77,-0.12,3.15,52.66,-50.26,84052.0,-0.07,0.0,-1.0,-1.46,-1.65,-0.12,3.3,53.26,-50.11,0.0,0.0,0.0,0.0,0.0,0.0,0.0,0.0,0.0,0.0,0.0,0.0,0.0,0.0,0.0,0.0,0.0,0.0,0.0,0.0,0.0
,,94403.782451,4.885701417922974,0.0,0.0,0.0,0.0,0.0,0.0,0.0,0.0,0.0,0.0,0.0,84061.0,-0.08,-0.01,-1.0,-1.46,-1.59,-0.18,3.3,52.81,-50.41,84071.0,-0.06,-0.02,-1.02,-1.34,-1.71,0.0,2.85,53.56,-50.11,0.0,0.0,0.0,0.0,0.0,0.0,0.0,0.0,0.0,0.0,0.0,0.0,0.0,0.0,0.0,0.0,0.0,0.0,0.0,0.0,0.0
,,94403.801976,4.905223608016968,0.0,0.0,0.0,0.0,0.0,0.0,0.0,0.0,0.0,0.0,0.0,84081.0,-0.07,-0.02,-1.0,-1.52,-1.65,-0.18,2.85,53.56,-49.66,84091.0,-0.07,-0.01,-1.0,-1.46,-1.65,-0.24,4.8,52.36,-50.26,0.0,0.0,0.0,0.0,0.0,0.0,0.0,0.0,0.0,0.0,0.0,0.0,0.0,0.0,0.0,0.0,0.0,0.0,0.0,0.0,0.0
,,94403.821822,4.9250874519348145,0.0,0.0,0.0,0.0,0.0,0.0,0.0,0.0,0.0,0.0,0.0,84101.0,-0.06,-0.01,-1.01,-1.34,-1.65,-0.3,3.45,51.61,-50.26,84111.0,-0.07,-0.0,-1.01,-1.34,-1.65,-0.18,3.75,53.71,-50.26,0.0,0.0,0.0,0.0,0.0,0.0,0.0,0.0,0.0,0.0,0.0,0.0,0.0,0.0,0.0,0.0,0.0,0.0,0.0,0.0,0.0
,,94403.906062,5.009313583374023,0.0,0.0,0.0,0.0,0.0,0.0,0.0,0.0,0.0,0.0,0.0,84121.0,-0.07,-0.01,-1.0,-1.4,-1.59,-0.24,4.5,51.31,-50.56,84195.0,-0.06,-0.01,-1.0,-1.46,-1.59,-0.18,3.6,52.81,-48.61,0.0,0.0,0.0,0.0,0.0,0.0,0.0,0.0,0.0,0.0,0.0,0.0,0.0,0.0,0.0,0.0,0.0,0.0,0.0,0.0,0.0
,,94403.925571,5.028820276260376,0.0,0.0,0.0,0.0,0.0,0.0,0.0,0.0,0.0,0.0,0.0,84205.0,-0.06,-0.01,-1.01,-1.4,-1.65,-0.24,1.65,53.41,-49.81,84215.0,-0.06,-0.02,-1.0,-1.28,-1.71,-0.18,2.55,52.51,-50.11,0.0,0.0,0.0,0.0,0.0,0.0,0.0,0.0,0.0,0.0,0.0,0.0,0.0,0.0,0.0,0.0,0.0,0.0,0.0,0.0,0.0
,,94403.945637,5.048886299133301,0.0,0.0,0.0,0.0,0.0,0.0,0.0,0.0,0.0,0.0,0.0,84224.0,-0.07,-0.0,-1.0,-1.4,-1.59,-0.18,3.45,51.91,-49.51,84234.0,-0.07,-0.01,-1.0,-1.52,-1.71,-0.12,4.2,52.66,-49.21,0.0,0.0,0.0,0.0,0.0,0.0,0.0,0.0,0.0,0.0,0.0,0.0,0.0,0.0,0.0,0.0,0.0,0.0,0.0,0.0,0.0
,,94403.965363,5.0686118602752686,0.0,0.0,0.0,0.0,0.0,0.0,0.0,0.0,0.0,0.0,0.0,84244.0,-0.07,-0.02,-0.99,-1.59,-1.65,-0.3,5.4,51.46,-49.66,84254.0,-0.07,-0.01,-1.01,-1.52,-1.71,-0.18,4.65,52.81,-50.11,0.0,0.0,0.0,0.0,0.0,0.0,0.0,0.0,0.0,0.0,0.0,0.0,0.0,0.0,0.0,0.0,0.0,0.0,0.0,0.0,0.0
,,94403.985188,5.088436126708984,0.0,0.0,0.0,0.0,0.0,0.0,0.0,0.0,0.0,0.0,0.0,84264.0,-0.06,-0.01,-1.0,-1.46,-1.65,-0.18,3.45,52.66,-50.86,84274.0,-0.07,-0.02,-1.0,-1.46,-1.71,-0.18,2.85,53.26,-50.11,0.0,0.0,0.0,0.0,0.0,0.0,0.0,0.0,0.0,0.0,0.0,0.0,0.0,0.0,0.0,0.0,0.0,0.0,0.0,0.0,0.0
,,94404.005202,5.1084513664245605,0.0,0.0,0.0,0.0,0.0,0.0,0.0,0.0,0.0,0.0,0.0,84284.0,-0.07,-0.01,-1.0,-1.34,-1.83,-0.3,4.65,54.31,-50.11,84294.0,-0.07,-0.01,-1.0,-1.34,-1.59,-0.24,3.9,52.21,-50.11,0.0,0.0,0.0,0.0,0.0,0.0,0.0,0.0,0.0,0.0,0.0,0.0,0.0,0.0,0.0,0.0,0.0,0.0,0.0,0.0,0.0
,,94404.024981,5.128227710723877,0.0,0.0,0.0,0.0,0.0,0.0,0.0,0.0,0.0,0.0,0.0,84304.0,-0.06,-0.01,-1.01,-1.52,-1.65,-0.3,2.7,52.36,-49.51,84314.0,-0.07,-0.02,-1.0,-1.4,-1.71,-0.18,3.9,53.56,-50.11,0.0,0.0,0.0,0.0,0.0,0.0,0.0,0.0,0.0,0.0,0.0,0.0,0.0,0.0,0.0,0.0,0.0,0.0,0.0,0.0,0.0
,,94404.161821,5.2650957107543945,0.0,0.0,0.0,0.0,0.0,0.0,0.0,0.0,0.0,0.0,0.0,84324.0,-0.06,-0.01,-1.0,-1.4,-1.65,-0.24,2.85,53.56,-51.46,84450.0,-0.07,-0.01,-1.0,-1.4,-1.71,-0.24,4.2,52.96,-49.21,0.0,0.0,0.0,0.0,0.0,0.0,0.0,0.0,0.0,0.0,0.0,0.0,0.0,0.0,0.0,0.0,0.0,0.0,0.0,0.0,0.0
,,94404.181568,5.284821033477783,0.0,0.0,0.0,0.0,0.0,0.0,0.0,0.0,0.0,0.0,0.0,84460.0,-0.07,-0.0,-1.0,-1.34,-1.71,-0.18,3.75,52.66,-50.56,84470.0,-0.06,-0.01,-1.0,-1.46,-1.52,-0.18,3.15,52.66,-50.26,0.0,0.0,0.0,0.0,0.0,0.0,0.0,0.0,0.0,0.0,0.0,0.0,0.0,0.0,0.0,0.0,0.0,0.0,0.0,0.0,0.0
,,94404.201141,5.304389953613281,0.0,0.0,0.0,0.0,0.0,0.0,0.0,0.0,0.0,0.0,0.0,84479.0,-0.07,-0.01,-1.01,-1.46,-1.46,-0.18,2.7,52.96,-49.21,84490.0,-0.08,-0.0,-1.01,-1.28,-1.71,-0.3,4.8,53.71,-49.21,0.0,0.0,0.0,0.0,0.0,0.0,0.0,0.0,0.0,0.0,0.0,0.0,0.0,0.0,0.0,0.0,0.0,0.0,0.0,0.0,0.0
,,94404.221103,5.324351787567139,0.0,0.0,0.0,0.0,0.0,0.0,0.0,0.0,0.0,0.0,0.0,84499.0,-0.07,-0.01,-1.01,-1.4,-1.71,-0.12,2.55,53.26,-50.11,84510.0,-0.07,-0.01,-1.01,-1.4,-1.52,-0.18,3.75,52.66,-48.46,0.0,0.0,0.0,0.0,0.0,0.0,0.0,0.0,0.0,0.0,0.0,0.0,0.0,0.0,0.0,0.0,0.0,0.0,0.0,0.0,0.0
,,94404.241133,5.344383001327515,0.0,0.0,0.0,0.0,0.0,0.0,0.0,0.0,0.0,0.0,0.0,84520.0,-0.06,-0.01,-1.0,-1.46,-1.52,-0.12,3.75,54.01,-48.46,84530.0,-0.07,-0.01,-1.0,-1.4,-1.71,-0.18,3.6,52.81,-48.61,0.0,0.0,0.0,0.0,0.0,0.0,0.0,0.0,0.0,0.0,0.0,0.0,0.0,0.0,0.0,0.0,0.0,0.0,0.0,0.0,0.0
,,94404.260862,5.364111661911011,0.0,0.0,0.0,0.0,0.0,0.0,0.0,0.0,0.0,0.0,0.0,84540.0,-0.06,-0.01,-1.01,-1.52,-1.65,-0.24,4.35,54.31,-48.61,84550.0,-0.07,-0.01,-1.01,-1.34,-1.65,-0.24,3.9,52.21,-49.36,0.0,0.0,0.0,0.0,0.0,0.0,0.0,0.0,0.0,0.0,0.0,0.0,0.0,0.0,0.0,0.0,0.0,0.0,0.0,0.0,0.0
,,94404.280778,5.384027004241943,0.0,0.0,0.0,0.0,0.0,0.0,0.0,0.0,0.0,0.0,0.0,84560.0,-0.07,-0.01,-1.02,-1.4,-1.59,-0.3,3.3,51.76,-49.06,84569.0,-0.06,-0.01,-1.01,-1.34,-1.52,-0.12,4.2,52.36,-48.91,0.0,0.0,0.0,0.0,0.0,0.0,0.0,0.0,0.0,0.0,0.0,0.0,0.0,0.0,0.0,0.0,0.0,0.0,0.0,0.0,0.0
,,94404.353345,5.456594467163086,0.0,0.0,0.0,0.0,0.0,0.0,0.0,0.0,0.0,0.0,0.0,84580.0,-0.07,-0.02,-0.99,-1.4,-1.77,-0.18,3.15,51.91,-50.86,84642.0,-0.07,-0.01,-1.0,-1.34,-1.65,-0.24,4.8,52.36,-47.56,0.0,0.0,0.0,0.0,0.0,0.0,0.0,0.0,0.0,0.0,0.0,0.0,0.0,0.0,0.0,0.0,0.0,0.0,0.0,0.0,0.0
,,94404.371898,5.475147008895874,0.0,0.0,0.0,0.0,0.0,0.0,0.0,0.0,0.0,0.0,0.0,84651.0,-0.06,-0.02,-1.0,-1.46,-1.52,-0.18,3.75,52.66,-49.21,84661.0,-0.07,-0.01,-1.0,-1.59,-1.59,-0.24,3.15,52.36,-49.51,0.0,0.0,0.0,0.0,0.0,0.0,0.0,0.0,0.0,0.0,0.0,0.0,0.0,0.0,0.0,0.0,0.0,0.0,0.0,0.0,0.0
,,94404.391008,5.494257926940918,0.0,0.0,0.0,0.0,0.0,0.0,0.0,0.0,0.0,0.0,0.0,84670.0,-0.07,-0.01,-1.0,-1.46,-1.71,-0.24,2.85,52.51,-50.11,84679.0,-0.06,-0.01,-1.0,-1.34,-1.71,-0.12,3.15,52.66,-49.21,0.0,0.0,0.0,0.0,0.0,0.0,0.0,0.0,0.0,0.0,0.0,0.0,0.0,0.0,0.0,0.0,0.0,0.0,0.0,0.0,0.0
,,94404.409985,5.5132341384887695,0.0,0.0,0.0,0.0,0.0,0.0,0.0,0.0,0.0,0.0,0.0,84689.0,-0.07,-0.01,-1.01,-1.46,-1.59,-0.24,5.55,53.71,-49.51,84698.0,-0.07,-0.02,-1.0,-1.46,-1.59,-0.18,5.55,53.71,-49.51,0.0,0.0,0.0,0.0,0.0,0.0,0.0,0.0,0.0,0.0,0.0,0.0,0.0,0.0,0.0,0.0,0.0,0.0,0.0,0.0,0.0
,,94404.428582,5.531830072402954,0.0,0.0,0.0,0.0,0.0,0.0,0.0,0.0,0.0,0.0,0.0,84708.0,-0.06,-0.01,-1.01,-1.46,-1.77,-0.12,3.6,51.46,-50.11,84717.0,-0.06,-0.02,-0.99,-1.4,-1.59,-0.18,2.7,53.71,-50.26,0.0,0.0,0.0,0.0,0.0,0.0,0.0,0.0,0.0,0.0,0.0,0.0,0.0,0.0,0.0,0.0,0.0,0.0,0.0,0.0,0.0
,,94404.446935,5.550180673599243,0.0,0.0,0.0,0.0,0.0,0.0,0.0,0.0,0.0,0.0,0.0,84726.0,-0.08,-0.01,-1.0,-1.34,-1.83,0.0,3.45,52.36,-47.86,84736.0,-0.07,-0.02,-1.0,-1.4,-1.71,-0.24,3.15,53.71,-48.91,0.0,0.0,0.0,0.0,0.0,0.0,0.0,0.0,0.0,0.0,0.0,0.0,0.0,0.0,0.0,0.0,0.0,0.0,0.0,0.0,0.0
,,94404.466403,5.569674015045166,0.0,0.0,0.0,0.0,0.0,0.0,0.0,0.0,0.0,0.0,0.0,84745.0,-0.07,-0.02,-1.0,-1.52,-1.83,-0.24,2.85,52.81,-50.41,84754.0,-0.07,-0.0,-1.0,-1.4,-1.65,-0.12,3.15,52.96,-49.51,0.0,0.0,0.0,0.0,0.0,0.0,0.0,0.0,0.0,0.0,0.0,0.0,0.0,0.0,0.0,0.0,0.0,0.0,0.0,0.0,0.0
,,94404.534811,5.638063669204712,0.0,0.0,0.0,0.0,0.0,0.0,0.0,0.0,0.0,0.0,0.0,84764.0,-0.06,-0.0,-1.0,-1.4,-1.59,-0.18,2.85,52.81,-49.36,84823.0,-0.07,-0.01,-1.01,-1.52,-1.65,-0.3,3.6,53.26,-48.01,0.0,0.0,0.0,0.0,0.0,0.0,0.0,0.0,0.0,0.0,0.0,0.0,0.0,0.0,0.0,0.0,0.0,0.0,0.0,0.0,0.0
