name,date,time,time_since_start,vicon_sequence,vicon_time_stamp,vicon_frame_id,vicon_child_frame_id,vicon_translation_x,vicon_translation_y,vicon_translation_z,vicon_rotation_x,vicon_rotation_y,vicon_rotation_z,vicon_rotation_w,int_imu_time_stamp,int_imu_acc_x,int_imu_acc_y,int_imu_acc_z,int_imu_gyro_x,int_imu_gyro_y,int_imu_gyro_z,int_imu_mag_x,int_imu_mag_y,int_imu_mag_z,ext_imu_time_stamp,ext_imu_acc_x,ext_imu_acc_y,ext_imu_acc_z,ext_imu_gyro_x,ext_imu_gyro_y,ext_imu_gyro_z,ext_imu_mag_x,ext_imu_mag_y,ext_imu_mag_z,dji_imu_sequence,dji_imu_time_stamp,dji_imu_frame_id,dji_imu_orientation_x,dji_imu_orientation_y,dji_imu_orientation_z,dji_imu_ang_vel_x,dji_imu_ang_vel_y,dji_imu_ang_vel_z,dji_imu_lin_acc_x,dji_imu_lin_acc_y,dji_imu_lin_acc_z,rc_sequence,rc_time_stamp,rc_frame_id,rc_roll,rc_pitch,rc_yaw,rc_throttle,rc_mode,rc_landing_gear
/home/wc18ny/Desktop/VibrationTest/data_formatlab.csv,20201019,124036.740877,4.9114227294921875e-05,0.0,0.0,0.0,0.0,0.0,0.0,0.0,0.0,0.0,0.0,0.0,51765.0,-0.03,-0.01,-1.0,0.06,-0.06,-0.06,3.9,44.41,-43.66,51774.0,-0.03,0.0,-1.0,0.06,0.0,0.0,3.45,45.01,-44.86,0.0,0.0,0.0,0.0,0.0,0.0,0.0,0.0,0.0,0.0,0.0,0.0,0.0,0.0,0.0,0.0,0.0,0.0,0.0,0.0,0.0
,,124036.744259,0.003412961959838867,0.0,0.0,0.0,0.0,0.0,0.0,0.0,0.0,0.0,0.0,0.0,51783.0,-0.02,0.0,-1.0,0.0,0.06,0.0,2.85,45.46,-45.61,51792.0,-0.03,0.0,-1.01,0.06,0.06,0.0,2.4,44.56,-45.46,0.0,0.0,0.0,0.0,0.0,0.0,0.0,0.0,0.0,0.0,0.0,0.0,0.0,0.0,0.0,0.0,0.0,0.0,0.0,0.0,0.0
,,124036.765073,0.024229764938354492,0.0,0.0,0.0,0.0,0.0,0.0,0.0,0.0,0.0,0.0,0.0,51801.0,-0.02,0.01,-0.99,0.12,0.0,0.06,3.6,44.41,-43.21,51810.0,-0.03,0.0,-1.01,0.12,0.06,-0.06,2.1,45.01,-43.81,0.0,0.0,0.0,0.0,0.0,0.0,0.0,0.0,0.0,0.0,0.0,0.0,0.0,0.0,0.0,0.0,0.0,0.0,0.0,0.0,0.0
,,124036.784268,0.04342532157897949,0.0,0.0,0.0,0.0,0.0,0.0,0.0,0.0,0.0,0.0,0.0,51819.0,-0.02,0.0,-1.0,-0.06,-0.06,0.0,2.7,44.26,-45.46,51828.0,-0.04,-0.0,-1.0,0.06,0.0,0.0,2.7,45.31,-44.86,0.0,0.0,0.0,0.0,0.0,0.0,0.0,0.0,0.0,0.0,0.0,0.0,0.0,0.0,0.0,0.0,0.0,0.0,0.0,0.0,0.0
,,124036.804965,0.06411433219909668,0.0,0.0,0.0,0.0,0.0,0.0,0.0,0.0,0.0,0.0,0.0,51836.0,-0.03,0.0,-1.01,-0.06,-0.06,0.0,3.3,44.41,-44.56,51845.0,-0.02,0.01,-1.0,-0.12,-0.12,0.0,2.25,44.71,-43.96,0.0,0.0,0.0,0.0,0.0,0.0,0.0,0.0,0.0,0.0,0.0,0.0,0.0,0.0,0.0,0.0,0.0,0.0,0.0,0.0,0.0
,,124036.826133,0.08531308174133301,0.0,0.0,0.0,0.0,0.0,0.0,0.0,0.0,0.0,0.0,0.0,51912.0,-0.03,0.0,-1.0,0.0,0.06,0.06,5.4,45.76,-43.96,51921.0,-0.03,0.01,-1.01,0.06,0.0,0.0,4.95,45.76,-45.31,0.0,0.0,0.0,0.0,0.0,0.0,0.0,0.0,0.0,0.0,0.0,0.0,0.0,0.0,0.0,0.0,0.0,0.0,0.0,0.0,0.0
,,124036.846921,0.10610342025756836,0.0,0.0,0.0,0.0,0.0,0.0,0.0,0.0,0.0,0.0,0.0,51929.0,-0.02,0.0,-1.0,-0.06,-0.06,0.0,4.2,44.26,-44.11,51938.0,-0.03,0.01,-1.0,0.0,0.0,0.0,2.55,45.16,-43.96,0.0,0.0,0.0,0.0,0.0,0.0,0.0,0.0,0.0,0.0,0.0,0.0,0.0,0.0,0.0,0.0,0.0,0.0,0.0,0.0,0.0
,,124036.866957,0.12614679336547852,0.0,0.0,0.0,0.0,0.0,0.0,0.0,0.0,0.0,0.0,0.0,51947.0,-0.03,0.0,-1.0,-0.12,-0.12,0.0,3.3,45.16,-42.91,51956.0,-0.03,-0.0,-1.0,0.0,0.0,0.06,2.7,43.81,-45.16,0.0,0.0,0.0,0.0,0.0,0.0,0.0,0.0,0.0,0.0,0.0,0.0,0.0,0.0,0.0,0.0,0.0,0.0,0.0,0.0,0.0
,,124036.886949,0.1461505889892578,0.0,0.0,0.0,0.0,0.0,0.0,0.0,0.0,0.0,0.0,0.0,51965.0,-0.03,-0.01,-1.0,0.0,0.0,0.0,2.7,43.81,-45.16,51974.0,-0.02,0.0,-1.0,0.06,-0.12,-0.06,2.55,44.41,-44.56,0.0,0.0,0.0,0.0,0.0,0.0,0.0,0.0,0.0,0.0,0.0,0.0,0.0,0.0,0.0,0.0,0.0,0.0,0.0,0.0,0.0
,,124036.908705,0.16790270805358887,0.0,0.0,0.0,0.0,0.0,0.0,0.0,0.0,0.0,0.0,0.0,51983.0,-0.04,0.0,-1.0,0.0,0.0,0.0,2.25,45.76,-44.56,51991.0,-0.03,0.01,-1.0,-0.06,-0.06,0.0,4.65,44.41,-43.21,0.0,0.0,0.0,0.0,0.0,0.0,0.0,0.0,0.0,0.0,0.0,0.0,0.0,0.0,0.0,0.0,0.0,0.0,0.0,0.0,0.0
,,124036.923859,0.1830136775970459,0.0,0.0,0.0,0.0,0.0,0.0,0.0,0.0,0.0,0.0,0.0,52000.0,-0.03,0.0,-0.99,-0.06,-0.06,0.06,1.65,45.01,-44.86,52009.0,-0.02,0.0,-1.0,-0.06,-0.12,0.0,2.4,44.26,-46.21,0.0,0.0,0.0,0.0,0.0,0.0,0.0,0.0,0.0,0.0,0.0,0.0,0.0,0.0,0.0,0.0,0.0,0.0,0.0,0.0,0.0
,,124036.944077,0.20324110984802246,0.0,0.0,0.0,0.0,0.0,0.0,0.0,0.0,0.0,0.0,0.0,52018.0,-0.03,0.0,-1.01,0.0,-0.06,0.0,1.5,45.16,-45.31,52027.0,-0.03,0.01,-1.0,0.0,0.0,0.06,3.75,45.61,-44.86,0.0,0.0,0.0,0.0,0.0,0.0,0.0,0.0,0.0,0.0,0.0,0.0,0.0,0.0,0.0,0.0,0.0,0.0,0.0,0.0,0.0
,,124036.966899,0.2260758876800537,0.0,0.0,0.0,0.0,0.0,0.0,0.0,0.0,0.0,0.0,0.0,52036.0,-0.03,0.01,-1.0,0.0,0.0,0.0,3.75,44.56,-46.51,52075.0,-0.03,0.0,-1.0,-0.06,-0.06,0.0,4.65,45.16,-44.56,0.0,0.0,0.0,0.0,0.0,0.0,0.0,0.0,0.0,0.0,0.0,0.0,0.0,0.0,0.0,0.0,0.0,0.0,0.0,0.0,0.0
,,124036.986909,0.24610137939453125,0.0,0.0,0.0,0.0,0.0,0.0,0.0,0.0,0.0,0.0,0.0,52084.0,-0.02,0.0,-1.01,0.0,-0.06,0.06,4.95,45.16,-44.26,52093.0,-0.02,-0.0,-1.01,0.0,0.0,0.06,2.4,44.56,-45.46,0.0,0.0,0.0,0.0,0.0,0.0,0.0,0.0,0.0,0.0,0.0,0.0,0.0,0.0,0.0,0.0,0.0,0.0,0.0,0.0,0.0
,,124037.006987,0.266193151473999,0.0,0.0,0.0,0.0,0.0,0.0,0.0,0.0,0.0,0.0,0.0,52101.0,-0.03,0.0,-1.01,-0.12,-0.12,-0.12,4.35,46.51,-45.01,52110.0,-0.02,0.0,-1.0,0.0,0.0,-0.12,4.5,46.06,-45.16,0.0,0.0,0.0,0.0,0.0,0.0,0.0,0.0,0.0,0.0,0.0,0.0,0.0,0.0,0.0,0.0,0.0,0.0,0.0,0.0,0.0
,,124037.026554,0.2857370376586914,0.0,0.0,0.0,0.0,0.0,0.0,0.0,0.0,0.0,0.0,0.0,52119.0,-0.03,0.01,-1.01,-0.06,-0.06,0.12,2.85,45.76,-45.31,52128.0,-0.02,0.0,-1.0,-0.06,-0.12,-0.12,3.15,42.76,-44.86,0.0,0.0,0.0,0.0,0.0,0.0,0.0,0.0,0.0,0.0,0.0,0.0,0.0,0.0,0.0,0.0,0.0,0.0,0.0,0.0,0.0
,,124037.047243,0.3064262866973877,0.0,0.0,0.0,0.0,0.0,0.0,0.0,0.0,0.0,0.0,0.0,52137.0,-0.03,0.01,-1.01,-0.06,-0.18,0.0,3.45,44.56,-44.11,52146.0,-0.03,0.0,-1.0,-0.12,-0.18,-0.12,2.85,44.11,-45.01,0.0,0.0,0.0,0.0,0.0,0.0,0.0,0.0,0.0,0.0,0.0,0.0,0.0,0.0,0.0,0.0,0.0,0.0,0.0,0.0,0.0
,,124037.066791,0.32598018646240234,0.0,0.0,0.0,0.0,0.0,0.0,0.0,0.0,0.0,0.0,0.0,52156.0,-0.03,0.0,-0.99,-0.06,-0.06,-0.12,3.15,43.51,-46.21,52165.0,-0.03,0.0,-1.0,-0.12,-0.06,0.0,3.15,43.51,-46.21,0.0,0.0,0.0,0.0,0.0,0.0,0.0,0.0,0.0,0.0,0.0,0.0,0.0,0.0,0.0,0.0,0.0,0.0,0.0,0.0,0.0
,,124037.08713,0.3463118076324463,0.0,0.0,0.0,0.0,0.0,0.0,0.0,0.0,0.0,0.0,0.0,52174.0,-0.03,-0.0,-1.0,-0.12,0.0,0.0,2.55,45.46,-45.31,52182.0,-0.02,0.0,-1.02,0.0,0.0,-0.06,3.6,44.71,-45.91,0.0,0.0,0.0,0.0,0.0,0.0,0.0,0.0,0.0,0.0,0.0,0.0,0.0,0.0,0.0,0.0,0.0,0.0,0.0,0.0,0.0
,,124037.106688,0.36586999893188477,0.0,0.0,0.0,0.0,0.0,0.0,0.0,0.0,0.0,0.0,0.0,52191.0,-0.03,0.0,-1.0,0.06,0.06,0.0,2.85,45.16,-44.56,52200.0,-0.03,0.0,-1.0,-0.06,-0.06,0.06,3.15,45.61,-44.11,0.0,0.0,0.0,0.0,0.0,0.0,0.0,0.0,0.0,0.0,0.0,0.0,0.0,0.0,0.0,0.0,0.0,0.0,0.0,0.0,0.0
,,124037.126688,0.3858771324157715,0.0,0.0,0.0,0.0,0.0,0.0,0.0,0.0,0.0,0.0,0.0,52240.0,-0.02,0.0,-1.0,0.0,0.06,0.0,6.0,46.21,-43.21,52249.0,-0.03,0.0,-1.0,-0.06,-0.12,-0.06,3.3,44.41,-43.96,0.0,0.0,0.0,0.0,0.0,0.0,0.0,0.0,0.0,0.0,0.0,0.0,0.0,0.0,0.0,0.0,0.0,0.0,0.0,0.0,0.0
,,124037.148325,0.40753746032714844,0.0,0.0,0.0,0.0,0.0,0.0,0.0,0.0,0.0,0.0,0.0,52258.0,-0.03,-0.0,-1.01,-0.06,-0.12,0.06,4.5,43.81,-44.86,52267.0,-0.03,-0.0,-1.02,0.06,0.0,-0.06,2.85,43.36,-44.56,0.0,0.0,0.0,0.0,0.0,0.0,0.0,0.0,0.0,0.0,0.0,0.0,0.0,0.0,0.0,0.0,0.0,0.0,0.0,0.0,0.0
,,124037.166514,0.42569637298583984,0.0,0.0,0.0,0.0,0.0,0.0,0.0,0.0,0.0,0.0,0.0,52276.0,-0.03,0.0,-1.01,0.06,-0.06,0.0,3.75,44.56,-44.86,52285.0,-0.04,0.0,-1.0,0.0,-0.06,0.0,3.3,44.41,-45.01,0.0,0.0,0.0,0.0,0.0,0.0,0.0,0.0,0.0,0.0,0.0,0.0,0.0,0.0,0.0,0.0,0.0,0.0,0.0,0.0,0.0
,,124037.186721,0.44590210914611816,0.0,0.0,0.0,0.0,0.0,0.0,0.0,0.0,0.0,0.0,0.0,52294.0,-0.03,0.01,-1.0,0.0,-0.12,-0.06,3.3,44.41,-45.01,52303.0,-0.03,0.0,-1.0,-0.06,-0.12,0.0,2.1,43.81,-46.51,0.0,0.0,0.0,0.0,0.0,0.0,0.0,0.0,0.0,0.0,0.0,0.0,0.0,0.0,0.0,0.0,0.0,0.0,0.0,0.0,0.0
,,124037.207029,0.46620774269104004,0.0,0.0,0.0,0.0,0.0,0.0,0.0,0.0,0.0,0.0,0.0,52312.0,-0.03,-0.0,-1.01,-0.06,-0.18,-0.06,2.25,46.21,-44.56,52321.0,-0.03,0.0,-1.01,0.0,0.0,0.06,2.55,45.16,-44.56,0.0,0.0,0.0,0.0,0.0,0.0,0.0,0.0,0.0,0.0,0.0,0.0,0.0,0.0,0.0,0.0,0.0,0.0,0.0,0.0,0.0
,,124037.227186,0.4863777160644531,0.0,0.0,0.0,0.0,0.0,0.0,0.0,0.0,0.0,0.0,0.0,52330.0,-0.03,0.01,-1.0,-0.06,-0.12,0.06,3.3,44.41,-44.26,52339.0,-0.03,0.0,-1.02,0.0,-0.18,0.0,3.75,44.56,-44.86,0.0,0.0,0.0,0.0,0.0,0.0,0.0,0.0,0.0,0.0,0.0,0.0,0.0,0.0,0.0,0.0,0.0,0.0,0.0,0.0,0.0
,,124037.247224,0.506399393081665,0.0,0.0,0.0,0.0,0.0,0.0,0.0,0.0,0.0,0.0,0.0,52348.0,-0.02,0.0,-0.99,0.0,0.0,0.06,3.75,43.51,-45.46,52357.0,-0.03,0.0,-1.0,0.12,0.06,0.0,3.75,45.01,-44.41,0.0,0.0,0.0,0.0,0.0,0.0,0.0,0.0,0.0,0.0,0.0,0.0,0.0,0.0,0.0,0.0,0.0,0.0,0.0,0.0,0.0
,,124037.266917,0.5260984897613525,0.0,0.0,0.0,0.0,0.0,0.0,0.0,0.0,0.0,0.0,0.0,52366.0,-0.03,0.0,-1.0,0.06,0.06,-0.12,2.7,45.61,-44.41,52405.0,-0.03,0.0,-0.99,0.0,0.0,0.06,3.15,45.31,-44.11,0.0,0.0,0.0,0.0,0.0,0.0,0.0,0.0,0.0,0.0,0.0,0.0,0.0,0.0,0.0,0.0,0.0,0.0,0.0,0.0,0.0
,,124037.286565,0.5457479953765869,0.0,0.0,0.0,0.0,0.0,0.0,0.0,0.0,0.0,0.0,0.0,52414.0,-0.03,-0.0,-1.01,0.0,-0.06,-0.06,3.15,45.31,-44.11,52423.0,-0.03,0.0,-0.99,0.12,0.0,0.0,2.55,44.11,-43.96,0.0,0.0,0.0,0.0,0.0,0.0,0.0,0.0,0.0,0.0,0.0,0.0,0.0,0.0,0.0,0.0,0.0,0.0,0.0,0.0,0.0
,,124037.307067,0.5662577152252197,0.0,0.0,0.0,0.0,0.0,0.0,0.0,0.0,0.0,0.0,0.0,52432.0,-0.03,0.01,-0.99,-0.12,-0.18,-0.06,3.75,45.31,-44.86,52441.0,-0.03,0.0,-0.99,0.06,0.0,0.0,3.15,45.01,-44.41,0.0,0.0,0.0,0.0,0.0,0.0,0.0,0.0,0.0,0.0,0.0,0.0,0.0,0.0,0.0,0.0,0.0,0.0,0.0,0.0,0.0
,,124037.326832,0.5860340595245361,0.0,0.0,0.0,0.0,0.0,0.0,0.0,0.0,0.0,0.0,0.0,52450.0,-0.03,0.0,-1.02,0.0,-0.12,-0.06,4.8,44.26,-44.86,52459.0,-0.04,0.01,-1.0,0.0,0.0,-0.06,4.35,44.41,-46.96,0.0,0.0,0.0,0.0,0.0,0.0,0.0,0.0,0.0,0.0,0.0,0.0,0.0,0.0,0.0,0.0,0.0,0.0,0.0,0.0,0.0
,,124037.347213,0.6064169406890869,0.0,0.0,0.0,0.0,0.0,0.0,0.0,0.0,0.0,0.0,0.0,52467.0,-0.04,-0.0,-1.01,0.06,0.06,-0.12,3.15,45.31,-43.06,52477.0,-0.02,0.01,-1.01,-0.06,-0.06,-0.06,2.4,45.61,-43.81,0.0,0.0,0.0,0.0,0.0,0.0,0.0,0.0,0.0,0.0,0.0,0.0,0.0,0.0,0.0,0.0,0.0,0.0,0.0,0.0,0.0
,,124037.366727,0.6259124279022217,0.0,0.0,0.0,0.0,0.0,0.0,0.0,0.0,0.0,0.0,0.0,52486.0,-0.04,0.01,-1.01,-0.06,-0.06,-0.06,3.9,44.11,-44.56,52495.0,-0.03,0.01,-1.01,0.0,-0.06,-0.12,3.9,44.11,-44.56,0.0,0.0,0.0,0.0,0.0,0.0,0.0,0.0,0.0,0.0,0.0,0.0,0.0,0.0,0.0,0.0,0.0,0.0,0.0,0.0,0.0
,,124037.386564,0.6457533836364746,0.0,0.0,0.0,0.0,0.0,0.0,0.0,0.0,0.0,0.0,0.0,52504.0,-0.04,0.01,-0.99,-0.06,-0.12,0.06,3.9,45.16,-44.56,58431.0,-0.03,0.0,-1.0,0.0,0.49,0.12,3.6,44.71,-42.61,0.0,0.0,0.0,0.0,0.0,0.0,0.0,0.0,0.0,0.0,0.0,0.0,0.0,0.0,0.0,0.0,0.0,0.0,0.0,0.0,0.0
,,124037.406992,0.6661734580993652,0.0,0.0,0.0,0.0,0.0,0.0,0.0,0.0,0.0,0.0,0.0,58439.0,-0.04,-0.0,-1.0,-0.06,0.37,0.0,2.85,45.16,-42.91,58448.0,-0.03,-0.0,-0.98,-0.06,0.37,0.0,3.3,44.71,-44.26,0.0,0.0,0.0,0.0,0.0,0.0,0.0,0.0,0.0,0.0,0.0,0.0,0.0,0.0,0.0,0.0,0.0,0.0,0.0,0.0,0.0
,,124037.427374,0.6865675449371338,0.0,0.0,0.0,0.0,0.0,0.0,0.0,0.0,0.0,0.0,0.0,58456.0,-0.02,0.0,-1.0,0.0,0.18,-0.06,3.3,44.71,-44.26,58465.0,-0.03,0.01,-1.01,0.0,0.12,0.0,2.1,45.01,-44.11,0.0,0.0,0.0,0.0,0.0,0.0,0.0,0.0,0.0,0.0,0.0,0.0,0.0,0.0,0.0,0.0,0.0,0.0,0.0,0.0,0.0
,,124037.447112,0.7062945365905762,0.0,0.0,0.0,0.0,0.0,0.0,0.0,0.0,0.0,0.0,0.0,58473.0,-0.03,0.0,-1.01,-0.06,0.06,-0.06,2.1,44.56,-45.46,58482.0,-0.02,0.01,-1.01,0.0,0.18,0.06,2.7,46.06,-43.36,0.0,0.0,0.0,0.0,0.0,0.0,0.0,0.0,0.0,0.0,0.0,0.0,0.0,0.0,0.0,0.0,0.0,0.0,0.0,0.0,0.0
,,124037.467926,0.7271137237548828,0.0,0.0,0.0,0.0,0.0,0.0,0.0,0.0,0.0,0.0,0.0,58490.0,-0.03,0.01,-1.02,0.06,0.18,-0.06,3.6,44.11,-45.31,58499.0,-0.03,0.0,-0.99,0.06,0.18,0.0,3.15,44.56,-45.76,0.0,0.0,0.0,0.0,0.0,0.0,0.0,0.0,0.0,0.0,0.0,0.0,0.0,0.0,0.0,0.0,0.0,0.0,0.0,0.0,0.0
,,124037.486736,0.7459242343902588,0.0,0.0,0.0,0.0,0.0,0.0,0.0,0.0,0.0,0.0,0.0,58508.0,-0.03,0.01,-1.01,0.0,0.12,0.06,3.3,44.11,-43.21,58516.0,-0.03,0.0,-1.0,0.0,0.06,0.12,3.3,44.11,-43.21,0.0,0.0,0.0,0.0,0.0,0.0,0.0,0.0,0.0,0.0,0.0,0.0,0.0,0.0,0.0,0.0,0.0,0.0,0.0,0.0,0.0
,,124037.507144,0.7663426399230957,0.0,0.0,0.0,0.0,0.0,0.0,0.0,0.0,0.0,0.0,0.0,58525.0,-0.03,0.0,-0.99,0.06,0.06,0.06,3.9,43.66,-45.31,58533.0,-0.03,0.0,-1.0,0.0,0.0,-0.06,3.45,44.56,-45.76,0.0,0.0,0.0,0.0,0.0,0.0,0.0,0.0,0.0,0.0,0.0,0.0,0.0,0.0,0.0,0.0,0.0,0.0,0.0,0.0,0.0
,,124037.527429,0.7866294384002686,0.0,0.0,0.0,0.0,0.0,0.0,0.0,0.0,0.0,0.0,0.0,58542.0,-0.02,0.0,-1.0,0.0,0.12,-0.12,3.45,43.81,-44.11,58550.0,-0.03,0.0,-1.01,0.0,0.06,0.0,2.1,43.21,-45.16,0.0,0.0,0.0,0.0,0.0,0.0,0.0,0.0,0.0,0.0,0.0,0.0,0.0,0.0,0.0,0.0,0.0,0.0,0.0,0.0,0.0
,,124037.548031,0.8072247505187988,0.0,0.0,0.0,0.0,0.0,0.0,0.0,0.0,0.0,0.0,0.0,58590.0,-0.03,0.0,-1.01,0.0,0.0,0.0,4.95,44.41,-42.91,58598.0,-0.02,0.01,-1.01,0.06,0.06,-0.06,4.5,45.61,-44.11,0.0,0.0,0.0,0.0,0.0,0.0,0.0,0.0,0.0,0.0,0.0,0.0,0.0,0.0,0.0,0.0,0.0,0.0,0.0,0.0,0.0
,,124037.56713,0.8263123035430908,0.0,0.0,0.0,0.0,0.0,0.0,0.0,0.0,0.0,0.0,0.0,58607.0,-0.03,-0.01,-0.99,0.0,0.06,0.0,4.5,45.61,-44.11,58615.0,-0.03,-0.01,-1.01,0.0,0.0,-0.06,3.75,45.31,-45.16,0.0,0.0,0.0,0.0,0.0,0.0,0.0,0.0,0.0,0.0,0.0,0.0,0.0,0.0,0.0,0.0,0.0,0.0,0.0,0.0,0.0
,,124037.586306,0.8454887866973877,0.0,0.0,0.0,0.0,0.0,0.0,0.0,0.0,0.0,0.0,0.0,58623.0,-0.03,0.01,-1.0,0.0,0.0,0.0,2.85,44.71,-45.61,58632.0,-0.03,0.01,-1.0,0.06,-0.06,-0.06,3.3,44.71,-45.01,0.0,0.0,0.0,0.0,0.0,0.0,0.0,0.0,0.0,0.0,0.0,0.0,0.0,0.0,0.0,0.0,0.0,0.0,0.0,0.0,0.0
,,124037.60675,0.8659327030181885,0.0,0.0,0.0,0.0,0.0,0.0,0.0,0.0,0.0,0.0,0.0,58640.0,-0.02,0.0,-1.01,0.0,0.0,0.0,2.25,44.41,-43.96,58649.0,-0.02,-0.0,-1.01,0.06,0.06,0.0,3.3,45.16,-45.01,0.0,0.0,0.0,0.0,0.0,0.0,0.0,0.0,0.0,0.0,0.0,0.0,0.0,0.0,0.0,0.0,0.0,0.0,0.0,0.0,0.0
,,124037.626727,0.885906457901001,0.0,0.0,0.0,0.0,0.0,0.0,0.0,0.0,0.0,0.0,0.0,58657.0,-0.03,0.01,-1.01,-0.06,0.0,0.0,3.3,45.16,-45.01,58665.0,-0.03,-0.0,-1.0,-0.06,-0.06,0.06,3.75,44.26,-45.16,0.0,0.0,0.0,0.0,0.0,0.0,0.0,0.0,0.0,0.0,0.0,0.0,0.0,0.0,0.0,0.0,0.0,0.0,0.0,0.0,0.0
,,124037.646893,0.90608811378479,0.0,0.0,0.0,0.0,0.0,0.0,0.0,0.0,0.0,0.0,0.0,58674.0,-0.03,-0.0,-1.0,0.12,0.12,0.06,4.95,46.21,-44.56,58683.0,-0.03,0.0,-1.0,0.06,0.06,0.0,3.15,44.26,-43.81,0.0,0.0,0.0,0.0,0.0,0.0,0.0,0.0,0.0,0.0,0.0,0.0,0.0,0.0,0.0,0.0,0.0,0.0,0.0,0.0,0.0
,,124037.666891,0.9260938167572021,0.0,0.0,0.0,0.0,0.0,0.0,0.0,0.0,0.0,0.0,0.0,58691.0,-0.03,-0.0,-0.99,-0.06,-0.06,-0.06,3.15,44.56,-45.46,58700.0,-0.03,-0.0,-0.99,-0.06,-0.12,0.06,3.15,44.26,-46.21,0.0,0.0,0.0,0.0,0.0,0.0,0.0,0.0,0.0,0.0,0.0,0.0,0.0,0.0,0.0,0.0,0.0,0.0,0.0,0.0,0.0
,,124037.686751,0.945934534072876,0.0,0.0,0.0,0.0,0.0,0.0,0.0,0.0,0.0,0.0,0.0,58709.0,-0.04,-0.0,-1.01,-0.06,-0.06,0.12,2.4,45.61,-45.46,58750.0,-0.02,-0.0,-1.01,0.12,0.0,0.0,4.95,43.66,-43.21,0.0,0.0,0.0,0.0,0.0,0.0,0.0,0.0,0.0,0.0,0.0,0.0,0.0,0.0,0.0,0.0,0.0,0.0,0.0,0.0,0.0
,,124037.707444,0.966637134552002,0.0,0.0,0.0,0.0,0.0,0.0,0.0,0.0,0.0,0.0,0.0,58758.0,-0.02,0.0,-1.0,0.0,-0.12,-0.12,3.9,46.21,-43.66,58767.0,-0.03,0.01,-0.99,0.06,0.0,0.0,3.9,46.21,-43.66,0.0,0.0,0.0,0.0,0.0,0.0,0.0,0.0,0.0,0.0,0.0,0.0,0.0,0.0,0.0,0.0,0.0,0.0,0.0,0.0,0.0
,,124037.726425,0.98561692237854,0.0,0.0,0.0,0.0,0.0,0.0,0.0,0.0,0.0,0.0,0.0,58775.0,-0.03,0.01,-1.0,-0.06,-0.06,0.0,3.3,45.76,-45.61,58784.0,-0.02,-0.0,-1.01,0.06,0.0,0.06,2.55,44.41,-45.61,0.0,0.0,0.0,0.0,0.0,0.0,0.0,0.0,0.0,0.0,0.0,0.0,0.0,0.0,0.0,0.0,0.0,0.0,0.0,0.0,0.0
,,124037.746824,1.006014347076416,0.0,0.0,0.0,0.0,0.0,0.0,0.0,0.0,0.0,0.0,0.0,58792.0,-0.03,0.01,-1.0,-0.12,-0.12,-0.06,2.55,43.66,-44.26,58801.0,-0.04,-0.0,-1.02,-0.06,-0.12,0.0,4.5,44.26,-45.46,0.0,0.0,0.0,0.0,0.0,0.0,0.0,0.0,0.0,0.0,0.0,0.0,0.0,0.0,0.0,0.0,0.0,0.0,0.0,0.0,0.0
,,124037.766701,1.0258948802947998,0.0,0.0,0.0,0.0,0.0,0.0,0.0,0.0,0.0,0.0,0.0,58809.0,-0.03,0.0,-1.01,0.0,0.06,0.0,4.5,44.26,-44.41,58818.0,-0.02,-0.0,-1.0,0.0,0.0,0.0,1.8,44.11,-45.01,0.0,0.0,0.0,0.0,0.0,0.0,0.0,0.0,0.0,0.0,0.0,0.0,0.0,0.0,0.0,0.0,0.0,0.0,0.0,0.0,0.0
,,124037.78658,1.0457699298858643,0.0,0.0,0.0,0.0,0.0,0.0,0.0,0.0,0.0,0.0,0.0,58826.0,-0.03,-0.0,-1.0,-0.06,0.06,-0.06,1.8,44.11,-45.01,58835.0,-0.03,-0.0,-0.99,-0.06,-0.06,0.0,3.6,43.36,-45.61,0.0,0.0,0.0,0.0,0.0,0.0,0.0,0.0,0.0,0.0,0.0,0.0,0.0,0.0,0.0,0.0,0.0,0.0,0.0,0.0,0.0
,,124037.806686,1.0658669471740723,0.0,0.0,0.0,0.0,0.0,0.0,0.0,0.0,0.0,0.0,0.0,58843.0,-0.03,0.0,-1.0,-0.06,-0.06,0.0,2.25,44.11,-45.01,58852.0,-0.03,-0.0,-1.02,-0.06,-0.06,0.0,3.75,45.61,-44.86,0.0,0.0,0.0,0.0,0.0,0.0,0.0,0.0,0.0,0.0,0.0,0.0,0.0,0.0,0.0,0.0,0.0,0.0,0.0,0.0,0.0
,,124037.826864,1.086045503616333,0.0,0.0,0.0,0.0,0.0,0.0,0.0,0.0,0.0,0.0,0.0,58860.0,-0.03,0.01,-1.01,0.0,0.06,0.0,2.4,44.56,-45.76,58869.0,-0.03,0.0,-1.0,-0.12,-0.06,-0.06,2.7,43.51,-44.41,0.0,0.0,0.0,0.0,0.0,0.0,0.0,0.0,0.0,0.0,0.0,0.0,0.0,0.0,0.0,0.0,0.0,0.0,0.0,0.0,0.0
,,124037.854709,1.1139037609100342,0.0,0.0,0.0,0.0,0.0,0.0,0.0,0.0,0.0,0.0,0.0,58909.0,-0.03,-0.0,-1.01,0.06,0.12,0.12,3.75,44.26,-42.76,58917.0,-0.02,0.01,-1.02,-0.12,-0.06,-0.06,3.75,45.01,-43.81,0.0,0.0,0.0,0.0,0.0,0.0,0.0,0.0,0.0,0.0,0.0,0.0,0.0,0.0,0.0,0.0,0.0,0.0,0.0,0.0,0.0
,,124037.871107,1.13028883934021,0.0,0.0,0.0,0.0,0.0,0.0,0.0,0.0,0.0,0.0,0.0,58926.0,-0.03,0.01,-1.01,0.0,0.0,-0.06,3.75,45.01,-43.81,58935.0,-0.03,-0.0,-0.99,0.0,0.0,-0.06,4.65,44.71,-44.56,0.0,0.0,0.0,0.0,0.0,0.0,0.0,0.0,0.0,0.0,0.0,0.0,0.0,0.0,0.0,0.0,0.0,0.0,0.0,0.0,0.0
,,124037.888407,1.1475896835327148,0.0,0.0,0.0,0.0,0.0,0.0,0.0,0.0,0.0,0.0,0.0,58943.0,-0.03,0.0,-1.0,0.06,0.0,-0.06,4.35,45.76,-45.01,58951.0,-0.03,-0.01,-0.99,0.12,0.06,0.12,3.3,44.41,-44.26,0.0,0.0,0.0,0.0,0.0,0.0,0.0,0.0,0.0,0.0,0.0,0.0,0.0,0.0,0.0,0.0,0.0,0.0,0.0,0.0,0.0
,,124037.90825,1.16744065284729,0.0,0.0,0.0,0.0,0.0,0.0,0.0,0.0,0.0,0.0,0.0,58960.0,-0.03,-0.01,-1.0,-0.06,-0.12,-0.06,4.5,43.21,-45.76,58969.0,-0.02,0.01,-1.0,0.06,0.12,-0.12,3.6,44.11,-44.56,0.0,0.0,0.0,0.0,0.0,0.0,0.0,0.0,0.0,0.0,0.0,0.0,0.0,0.0,0.0,0.0,0.0,0.0,0.0,0.0,0.0
,,124037.926951,1.1861333847045898,0.0,0.0,0.0,0.0,0.0,0.0,0.0,0.0,0.0,0.0,0.0,58977.0,-0.03,0.0,-1.0,0.0,0.06,-0.06,3.9,44.41,-43.96,58986.0,-0.02,0.0,-1.01,-0.06,-0.06,0.18,3.9,44.41,-43.96,0.0,0.0,0.0,0.0,0.0,0.0,0.0,0.0,0.0,0.0,0.0,0.0,0.0,0.0,0.0,0.0,0.0,0.0,0.0,0.0,0.0
,,124037.946869,1.2060518264770508,0.0,0.0,0.0,0.0,0.0,0.0,0.0,0.0,0.0,0.0,0.0,58995.0,-0.04,-0.01,-1.0,0.0,0.12,0.0,2.55,43.66,-43.96,59003.0,-0.03,-0.0,-1.0,0.0,0.0,0.06,4.5,43.81,-45.46,0.0,0.0,0.0,0.0,0.0,0.0,0.0,0.0,0.0,0.0,0.0,0.0,0.0,0.0,0.0,0.0,0.0,0.0,0.0,0.0,0.0
,,124037.967003,1.2261848449707031,0.0,0.0,0.0,0.0,0.0,0.0,0.0,0.0,0.0,0.0,0.0,59011.0,-0.02,-0.0,-1.0,0.0,0.0,0.0,3.3,44.71,-44.26,59020.0,-0.04,0.0,-1.01,0.06,-0.12,-0.18,4.5,43.21,-44.86,0.0,0.0,0.0,0.0,0.0,0.0,0.0,0.0,0.0,0.0,0.0,0.0,0.0,0.0,0.0,0.0,0.0,0.0,0.0,0.0,0.0
,,124038.006046,1.2652289867401123,0.0,0.0,0.0,0.0,0.0,0.0,0.0,0.0,0.0,0.0,0.0,59028.0,-0.03,0.0,-1.01,-0.06,-0.12,0.06,3.75,46.36,-44.11,59069.0,-0.03,0.0,-0.99,-0.06,-0.12,0.0,6.45,44.71,-43.66,0.0,0.0,0.0,0.0,0.0,0.0,0.0,0.0,0.0,0.0,0.0,0.0,0.0,0.0,0.0,0.0,0.0,0.0,0.0,0.0,0.0
,,124038.023173,1.2823517322540283,0.0,0.0,0.0,0.0,0.0,0.0,0.0,0.0,0.0,0.0,0.0,59078.0,-0.03,-0.0,-1.0,-0.06,-0.06,-0.06,2.55,45.76,-45.31,59086.0,-0.03,-0.0,-0.99,0.06,0.0,0.06,2.55,45.76,-45.31,0.0,0.0,0.0,0.0,0.0,0.0,0.0,0.0,0.0,0.0,0.0,0.0,0.0,0.0,0.0,0.0,0.0,0.0,0.0,0.0,0.0
,,124038.040453,1.299638271331787,0.0,0.0,0.0,0.0,0.0,0.0,0.0,0.0,0.0,0.0,0.0,59095.0,-0.03,0.01,-1.0,-0.06,-0.06,0.0,3.6,45.46,-44.56,59103.0,-0.03,0.01,-0.99,-0.06,-0.06,0.0,2.4,43.51,-45.16,0.0,0.0,0.0,0.0,0.0,0.0,0.0,0.0,0.0,0.0,0.0,0.0,0.0,0.0,0.0,0.0,0.0,0.0,0.0,0.0,0.0
,,124038.057213,1.316399097442627,0.0,0.0,0.0,0.0,0.0,0.0,0.0,0.0,0.0,0.0,0.0,59112.0,-0.03,0.0,-1.01,0.0,0.0,0.0,3.9,45.16,-44.26,59120.0,-0.03,0.01,-1.01,0.06,0.0,0.06,2.1,44.56,-44.86,0.0,0.0,0.0,0.0,0.0,0.0,0.0,0.0,0.0,0.0,0.0,0.0,0.0,0.0,0.0,0.0,0.0,0.0,0.0,0.0,0.0
,,124038.074287,1.3334693908691406,0.0,0.0,0.0,0.0,0.0,0.0,0.0,0.0,0.0,0.0,0.0,59129.0,-0.03,0.01,-1.0,-0.06,-0.12,0.0,3.75,45.61,-44.86,59137.0,-0.03,0.0,-1.01,0.06,0.0,0.12,3.3,45.16,-44.26,0.0,0.0,0.0,0.0,0.0,0.0,0.0,0.0,0.0,0.0,0.0,0.0,0.0,0.0,0.0,0.0,0.0,0.0,0.0,0.0,0.0
,,124038.091836,1.351020097732544,0.0,0.0,0.0,0.0,0.0,0.0,0.0,0.0,0.0,0.0,0.0,59146.0,-0.02,0.0,-1.0,-0.06,-0.12,-0.06,3.3,45.16,-44.26,59155.0,-0.03,-0.0,-1.01,-0.06,0.0,0.06,1.8,45.16,-45.31,0.0,0.0,0.0,0.0,0.0,0.0,0.0,0.0,0.0,0.0,0.0,0.0,0.0,0.0,0.0,0.0,0.0,0.0,0.0,0.0,0.0
,,124038.108303,1.367488145828247,0.0,0.0,0.0,0.0,0.0,0.0,0.0,0.0,0.0,0.0,0.0,59163.0,-0.03,-0.01,-1.01,-0.06,0.0,0.0,3.45,44.56,-45.16,59172.0,-0.02,0.0,-1.0,-0.06,0.0,0.0,3.75,43.51,-45.46,0.0,0.0,0.0,0.0,0.0,0.0,0.0,0.0,0.0,0.0,0.0,0.0,0.0,0.0,0.0,0.0,0.0,0.0,0.0,0.0,0.0
,,124038.126233,1.3854105472564697,0.0,0.0,0.0,0.0,0.0,0.0,0.0,0.0,0.0,0.0,0.0,59180.0,-0.02,0.0,-0.99,0.0,0.0,-0.06,4.2,44.56,-45.16,59188.0,-0.03,-0.0,-1.0,0.06,-0.12,0.06,3.6,43.66,-44.56,0.0,0.0,0.0,0.0,0.0,0.0,0.0,0.0,0.0,0.0,0.0,0.0,0.0,0.0,0.0,0.0,0.0,0.0,0.0,0.0,0.0
,,124038.172007,1.4312028884887695,0.0,0.0,0.0,0.0,0.0,0.0,0.0,0.0,0.0,0.0,0.0,59226.0,-0.03,-0.0,-1.01,-0.06,-0.06,0.06,4.5,44.56,-43.36,59235.0,-0.03,0.0,-1.0,0.06,0.12,0.0,4.2,45.01,-43.36,0.0,0.0,0.0,0.0,0.0,0.0,0.0,0.0,0.0,0.0,0.0,0.0,0.0,0.0,0.0,0.0,0.0,0.0,0.0,0.0,0.0
,,124038.18895,1.4481432437896729,0.0,0.0,0.0,0.0,0.0,0.0,0.0,0.0,0.0,0.0,0.0,59244.0,-0.02,0.0,-1.0,0.0,-0.06,-0.06,1.5,45.16,-44.56,59252.0,-0.03,0.0,-1.0,-0.06,-0.12,0.0,2.4,45.01,-44.41,0.0,0.0,0.0,0.0,0.0,0.0,0.0,0.0,0.0,0.0,0.0,0.0,0.0,0.0,0.0,0.0,0.0,0.0,0.0,0.0,0.0
,,124038.205993,1.4651708602905273,0.0,0.0,0.0,0.0,0.0,0.0,0.0,0.0,0.0,0.0,0.0,59261.0,-0.03,0.01,-1.0,0.0,-0.12,-0.12,2.1,45.01,-43.81,59269.0,-0.02,0.0,-1.02,0.0,0.0,-0.06,3.3,45.16,-45.01,0.0,0.0,0.0,0.0,0.0,0.0,0.0,0.0,0.0,0.0,0.0,0.0,0.0,0.0,0.0,0.0,0.0,0.0,0.0,0.0,0.0
,,124038.223602,1.4827799797058105,0.0,0.0,0.0,0.0,0.0,0.0,0.0,0.0,0.0,0.0,0.0,59278.0,-0.02,-0.0,-1.0,-0.06,-0.12,0.0,2.85,44.11,-44.26,59286.0,-0.03,0.0,-1.0,0.0,-0.06,0.06,2.85,44.11,-44.26,0.0,0.0,0.0,0.0,0.0,0.0,0.0,0.0,0.0,0.0,0.0,0.0,0.0,0.0,0.0,0.0,0.0,0.0,0.0,0.0,0.0
,,124038.240593,1.4997777938842773,0.0,0.0,0.0,0.0,0.0,0.0,0.0,0.0,0.0,0.0,0.0,59295.0,-0.03,-0.01,-0.99,-0.06,-0.06,0.06,3.75,43.51,-44.11,59303.0,-0.02,0.01,-1.01,-0.06,-0.12,0.06,4.35,45.46,-42.91,0.0,0.0,0.0,0.0,0.0,0.0,0.0,0.0,0.0,0.0,0.0,0.0,0.0,0.0,0.0,0.0,0.0,0.0,0.0,0.0,0.0
,,124038.257661,1.516834020614624,0.0,0.0,0.0,0.0,0.0,0.0,0.0,0.0,0.0,0.0,0.0,59312.0,-0.02,0.01,-1.0,-0.06,-0.06,0.06,3.6,46.51,-43.96,59321.0,-0.03,-0.01,-1.0,-0.12,-0.12,0.0,3.15,45.31,-44.86,0.0,0.0,0.0,0.0,0.0,0.0,0.0,0.0,0.0,0.0,0.0,0.0,0.0,0.0,0.0,0.0,0.0,0.0,0.0,0.0,0.0
,,124038.275039,1.5342254638671875,0.0,0.0,0.0,0.0,0.0,0.0,0.0,0.0,0.0,0.0,0.0,59329.0,-0.03,0.0,-1.01,0.06,0.06,-0.06,2.25,43.06,-45.01,59338.0,-0.03,0.0,-1.0,-0.12,-0.12,0.0,2.7,43.21,-46.21,0.0,0.0,0.0,0.0,0.0,0.0,0.0,0.0,0.0,0.0,0.0,0.0,0.0,0.0,0.0,0.0,0.0,0.0,0.0,0.0,0.0
,,124038.323191,1.5823800563812256,0.0,0.0,0.0,0.0,0.0,0.0,0.0,0.0,0.0,0.0,0.0,59347.0,-0.02,0.0,-1.0,-0.06,-0.06,-0.06,2.7,43.21,-46.21,59386.0,-0.03,0.0,-1.01,-0.06,-0.18,-0.06,4.5,43.51,-44.86,0.0,0.0,0.0,0.0,0.0,0.0,0.0,0.0,0.0,0.0,0.0,0.0,0.0,0.0,0.0,0.0,0.0,0.0,0.0,0.0,0.0
,,124038.340156,1.5993449687957764,0.0,0.0,0.0,0.0,0.0,0.0,0.0,0.0,0.0,0.0,0.0,59394.0,-0.03,-0.0,-0.99,0.06,0.0,0.12,4.2,45.31,-44.41,59403.0,-0.03,0.0,-1.01,-0.06,-0.06,-0.06,2.7,44.56,-45.76,0.0,0.0,0.0,0.0,0.0,0.0,0.0,0.0,0.0,0.0,0.0,0.0,0.0,0.0,0.0,0.0,0.0,0.0,0.0,0.0,0.0
,,124038.357531,1.616736888885498,0.0,0.0,0.0,0.0,0.0,0.0,0.0,0.0,0.0,0.0,0.0,59411.0,-0.03,0.0,-1.0,-0.12,-0.24,0.06,2.85,45.16,-43.96,59420.0,-0.03,-0.0,-1.01,-0.06,-0.18,-0.18,3.3,45.76,-44.26,0.0,0.0,0.0,0.0,0.0,0.0,0.0,0.0,0.0,0.0,0.0,0.0,0.0,0.0,0.0,0.0,0.0,0.0,0.0,0.0,0.0
,,124038.374037,1.6332128047943115,0.0,0.0,0.0,0.0,0.0,0.0,0.0,0.0,0.0,0.0,0.0,59429.0,-0.03,0.0,-1.0,0.06,0.0,0.0,2.7,44.26,-45.16,59437.0,-0.03,-0.0,-1.0,0.0,0.0,-0.06,2.7,45.01,-46.21,0.0,0.0,0.0,0.0,0.0,0.0,0.0,0.0,0.0,0.0,0.0,0.0,0.0,0.0,0.0,0.0,0.0,0.0,0.0,0.0,0.0
,,124038.391784,1.6509675979614258,0.0,0.0,0.0,0.0,0.0,0.0,0.0,0.0,0.0,0.0,0.0,59446.0,0.03,0.01,-1.01,0.24,-1.28,7.44,2.7,45.01,-46.21,59454.0,-0.06,0.0,-1.0,0.43,-1.16,12.8,2.25,44.71,-45.01,0.0,0.0,0.0,0.0,0.0,0.0,0.0,0.0,0.0,0.0,0.0,0.0,0.0,0.0,0.0,0.0,0.0,0.0,0.0,0.0,0.0
,,124038.409059,1.6682498455047607,0.0,0.0,0.0,0.0,0.0,0.0,0.0,0.0,0.0,0.0,0.0,59463.0,-0.05,0.02,-0.98,0.12,-0.61,2.99,2.7,44.56,-43.81,59472.0,-0.02,-0.01,-1.02,0.06,0.24,1.16,3.75,46.06,-43.36,0.0,0.0,0.0,0.0,0.0,0.0,0.0,0.0,0.0,0.0,0.0,0.0,0.0,0.0,0.0,0.0,0.0,0.0,0.0,0.0,0.0
,,124038.426529,1.685713291168213,0.0,0.0,0.0,0.0,0.0,0.0,0.0,0.0,0.0,0.0,0.0,59480.0,-0.01,-0.05,-1.01,-0.06,-0.37,1.46,4.2,44.56,-44.86,59489.0,-0.01,0.04,-1.02,-0.18,0.91,1.71,2.7,44.56,-44.41,0.0,0.0,0.0,0.0,0.0,0.0,0.0,0.0,0.0,0.0,0.0,0.0,0.0,0.0,0.0,0.0,0.0,0.0,0.0,0.0,0.0
,,124038.444091,1.703279972076416,0.0,0.0,0.0,0.0,0.0,0.0,0.0,0.0,0.0,0.0,0.0,59498.0,-0.06,-0.05,-0.96,0.0,-0.79,3.66,3.9,46.21,-44.56,59506.0,-0.0,-0.0,-1.01,-0.06,6.4,-1.22,3.9,46.21,-44.56,0.0,0.0,0.0,0.0,0.0,0.0,0.0,0.0,0.0,0.0,0.0,0.0,0.0,0.0,0.0,0.0,0.0,0.0,0.0,0.0,0.0
,,124038.490429,1.7496185302734375,0.0,0.0,0.0,0.0,0.0,0.0,0.0,0.0,0.0,0.0,0.0,59545.0,-0.07,-0.03,-1.01,0.0,0.18,-6.83,4.95,45.16,-44.26,59553.0,-0.01,0.08,-1.02,0.24,5.06,-4.02,4.8,46.06,-42.46,0.0,0.0,0.0,0.0,0.0,0.0,0.0,0.0,0.0,0.0,0.0,0.0,0.0,0.0,0.0,0.0,0.0,0.0,0.0,0.0,0.0
,,124038.507838,1.7670223712921143,0.0,0.0,0.0,0.0,0.0,0.0,0.0,0.0,0.0,0.0,0.0,59562.0,-0.05,0.02,-0.99,0.0,-0.91,0.3,3.6,44.71,-44.26,59570.0,-0.04,0.02,-1.01,-0.24,-0.06,-3.6,4.2,43.21,-44.41,0.0,0.0,0.0,0.0,0.0,0.0,0.0,0.0,0.0,0.0,0.0,0.0,0.0,0.0,0.0,0.0,0.0,0.0,0.0,0.0,0.0
,,124038.52482,1.7840039730072021,0.0,0.0,0.0,0.0,0.0,0.0,0.0,0.0,0.0,0.0,0.0,59579.0,-0.04,0.01,-1.0,0.0,-0.79,-3.54,3.45,43.81,-45.46,59588.0,-0.04,0.02,-1.01,0.12,-0.98,-6.77,3.6,44.71,-45.31,0.0,0.0,0.0,0.0,0.0,0.0,0.0,0.0,0.0,0.0,0.0,0.0,0.0,0.0,0.0,0.0,0.0,0.0,0.0,0.0,0.0
,,124038.542324,1.801509141921997,0.0,0.0,0.0,0.0,0.0,0.0,0.0,0.0,0.0,0.0,0.0,59596.0,-0.02,0.04,-1.0,-0.49,-1.04,-7.01,3.6,44.71,-45.31,59605.0,-0.01,0.09,-1.02,-0.49,-1.28,-4.09,3.15,45.31,-44.11,0.0,0.0,0.0,0.0,0.0,0.0,0.0,0.0,0.0,0.0,0.0,0.0,0.0,0.0,0.0,0.0,0.0,0.0,0.0,0.0,0.0
,,124038.559854,1.8190386295318604,0.0,0.0,0.0,0.0,0.0,0.0,0.0,0.0,0.0,0.0,0.0,59614.0,-0.0,0.16,-0.95,-0.49,-1.4,4.7,4.2,44.26,-45.46,59623.0,-0.04,0.07,-0.85,0.85,-3.66,12.44,3.45,46.06,-45.46,0.0,0.0,0.0,0.0,0.0,0.0,0.0,0.0,0.0,0.0,0.0,0.0,0.0,0.0,0.0,0.0,0.0,0.0,0.0,0.0,0.0
,,124038.577449,1.836634635925293,0.0,0.0,0.0,0.0,0.0,0.0,0.0,0.0,0.0,0.0,0.0,59631.0,-0.04,0.07,-1.07,-0.85,2.62,8.9,4.5,44.56,-45.76,59640.0,-0.02,-0.15,-1.01,0.91,1.34,3.11,3.9,45.16,-45.01,0.0,0.0,0.0,0.0,0.0,0.0,0.0,0.0,0.0,0.0,0.0,0.0,0.0,0.0,0.0,0.0,0.0,0.0,0.0,0.0,0.0
,,124038.594888,1.8540840148925781,0.0,0.0,0.0,0.0,0.0,0.0,0.0,0.0,0.0,0.0,0.0,59649.0,0.01,-0.14,-0.94,0.0,-2.62,14.57,3.45,44.26,-45.16,59658.0,-0.04,-0.04,-0.99,0.85,0.12,25.73,1.8,44.11,-46.96,0.0,0.0,0.0,0.0,0.0,0.0,0.0,0.0,0.0,0.0,0.0,0.0,0.0,0.0,0.0,0.0,0.0,0.0,0.0,0.0,0.0
,,124038.643594,1.9027845859527588,0.0,0.0,0.0,0.0,0.0,0.0,0.0,0.0,0.0,0.0,0.0,59666.0,-0.09,-0.01,-1.04,1.52,-3.29,39.09,1.8,44.11,-46.96,59706.0,-0.03,0.04,-1.05,1.77,-7.99,46.89,2.25,43.06,-45.61,0.0,0.0,0.0,0.0,0.0,0.0,0.0,0.0,0.0,0.0,0.0,0.0,0.0,0.0,0.0,0.0,0.0,0.0,0.0,0.0,0.0
,,124038.661119,1.9203133583068848,0.0,0.0,0.0,0.0,0.0,0.0,0.0,0.0,0.0,0.0,0.0,59715.0,-0.02,0.05,-1.02,1.22,-17.44,36.89,1.2,43.66,-44.56,59724.0,-0.03,0.01,-1.0,-0.18,-18.23,20.18,3.15,45.31,-45.16,0.0,0.0,0.0,0.0,0.0,0.0,0.0,0.0,0.0,0.0,0.0,0.0,0.0,0.0,0.0,0.0,0.0,0.0,0.0,0.0,0.0
,,124038.678539,1.93772554397583,0.0,0.0,0.0,0.0,0.0,0.0,0.0,0.0,0.0,0.0,0.0,59732.0,-0.04,0.05,-0.99,-0.3,-17.56,7.93,0.0,43.81,-45.16,59741.0,-0.1,0.02,-1.05,0.37,-21.04,8.41,-0.6,45.46,-45.01,0.0,0.0,0.0,0.0,0.0,0.0,0.0,0.0,0.0,0.0,0.0,0.0,0.0,0.0,0.0,0.0,0.0,0.0,0.0,0.0,0.0
,,124038.695737,1.9549195766448975,0.0,0.0,0.0,0.0,0.0,0.0,0.0,0.0,0.0,0.0,0.0,59750.0,-0.06,0.05,-1.04,0.49,-23.41,11.83,0.0,44.56,-44.86,59758.0,-0.05,0.04,-1.07,-8.96,-25.43,16.1,0.0,46.06,-43.81,0.0,0.0,0.0,0.0,0.0,0.0,0.0,0.0,0.0,0.0,0.0,0.0,0.0,0.0,0.0,0.0,0.0,0.0,0.0,0.0,0.0
,,124038.713172,1.9723527431488037,0.0,0.0,0.0,0.0,0.0,0.0,0.0,0.0,0.0,0.0,0.0,59767.0,-0.02,0.11,-1.07,-48.23,-2.99,5.0,-1.2,44.56,-44.41,59776.0,-0.06,0.05,-1.1,-63.54,-0.55,7.68,-1.2,44.56,-44.41,0.0,0.0,0.0,0.0,0.0,0.0,0.0,0.0,0.0,0.0,0.0,0.0,0.0,0.0,0.0,0.0,0.0,0.0,0.0,0.0,0.0
,,124038.730931,1.9901137351989746,0.0,0.0,0.0,0.0,0.0,0.0,0.0,0.0,0.0,0.0,0.0,59785.0,-0.05,0.05,-1.11,-68.54,-2.68,15.0,0.45,43.36,-44.56,59794.0,0.04,0.05,-1.0,-79.45,7.38,25.49,-1.8,43.21,-44.41,0.0,0.0,0.0,0.0,0.0,0.0,0.0,0.0,0.0,0.0,0.0,0.0,0.0,0.0,0.0,0.0,0.0,0.0,0.0,0.0,0.0
,,124038.750344,2.0095651149749756,0.0,0.0,0.0,0.0,0.0,0.0,0.0,0.0,0.0,0.0,0.0,59802.0,-0.02,0.01,-0.95,-77.5,13.72,24.82,-3.3,44.56,-44.86,59811.0,-0.04,-0.01,-0.96,-66.65,18.78,18.54,-1.8,43.51,-45.16,0.0,0.0,0.0,0.0,0.0,0.0,0.0,0.0,0.0,0.0,0.0,0.0,0.0,0.0,0.0,0.0,0.0,0.0,0.0,0.0,0.0
,,124038.796578,2.055773973464966,0.0,0.0,0.0,0.0,0.0,0.0,0.0,0.0,0.0,0.0,0.0,59820.0,-0.07,0.01,-1.01,-59.39,17.8,18.05,-2.85,44.26,-45.46,59859.0,-0.06,0.03,-1.01,-59.27,17.5,21.16,-2.55,43.51,-44.41,0.0,0.0,0.0,0.0,0.0,0.0,0.0,0.0,0.0,0.0,0.0,0.0,0.0,0.0,0.0,0.0,0.0,0.0,0.0,0.0,0.0
,,124038.814163,2.0733442306518555,0.0,0.0,0.0,0.0,0.0,0.0,0.0,0.0,0.0,0.0,0.0,59868.0,-0.06,0.08,-1.06,-59.88,13.72,21.04,-3.3,43.51,-43.81,59877.0,-0.09,0.15,-1.09,-69.82,12.74,22.56,-3.3,43.51,-43.81,0.0,0.0,0.0,0.0,0.0,0.0,0.0,0.0,0.0,0.0,0.0,0.0,0.0,0.0,0.0,0.0,0.0,0.0,0.0,0.0,0.0
,,124038.831891,2.091071605682373,0.0,0.0,0.0,0.0,0.0,0.0,0.0,0.0,0.0,0.0,0.0,59886.0,-0.08,0.19,-1.06,-87.01,9.7,31.77,-3.9,44.26,-44.86,59895.0,-0.06,0.16,-1.04,-98.54,1.34,47.38,-3.3,43.81,-45.46,0.0,0.0,0.0,0.0,0.0,0.0,0.0,0.0,0.0,0.0,0.0,0.0,0.0,0.0,0.0,0.0,0.0,0.0,0.0,0.0,0.0
,,124038.849929,2.1091127395629883,0.0,0.0,0.0,0.0,0.0,0.0,0.0,0.0,0.0,0.0,0.0,59903.0,-0.06,0.16,-1.06,-90.73,-5.79,55.67,-3.9,43.51,-45.46,59912.0,0.03,0.28,-0.96,-72.5,-4.02,49.27,-2.55,43.81,-46.51,0.0,0.0,0.0,0.0,0.0,0.0,0.0,0.0,0.0,0.0,0.0,0.0,0.0,0.0,0.0,0.0,0.0,0.0,0.0,0.0,0.0
,,124038.867814,2.1270108222961426,0.0,0.0,0.0,0.0,0.0,0.0,0.0,0.0,0.0,0.0,0.0,59921.0,0.01,0.29,-0.92,-63.23,-6.83,37.68,-3.0,45.16,-45.61,59930.0,-0.06,0.24,-0.97,-59.63,-4.09,31.1,-3.45,44.71,-45.61,0.0,0.0,0.0,0.0,0.0,0.0,0.0,0.0,0.0,0.0,0.0,0.0,0.0,0.0,0.0,0.0,0.0,0.0,0.0,0.0,0.0
,,124038.885245,2.144434928894043,0.0,0.0,0.0,0.0,0.0,0.0,0.0,0.0,0.0,0.0,0.0,59939.0,0.0,0.19,-1.0,-57.99,-3.48,32.5,-3.75,43.66,-45.91,59948.0,0.0,0.21,-0.98,-39.76,-2.93,23.23,-2.4,43.66,-47.71,0.0,0.0,0.0,0.0,0.0,0.0,0.0,0.0,0.0,0.0,0.0,0.0,0.0,0.0,0.0,0.0,0.0,0.0,0.0,0.0,0.0
,,124038.903114,2.162295341491699,0.0,0.0,0.0,0.0,0.0,0.0,0.0,0.0,0.0,0.0,0.0,59957.0,-0.04,0.23,-1.02,-25.0,-7.32,13.29,-2.4,43.66,-47.71,59965.0,0.01,0.21,-0.94,-21.89,-1.77,13.54,-4.05,44.41,-48.01,0.0,0.0,0.0,0.0,0.0,0.0,0.0,0.0,0.0,0.0,0.0,0.0,0.0,0.0,0.0,0.0,0.0,0.0,0.0,0.0,0.0
,,124038.95164,2.2108330726623535,0.0,0.0,0.0,0.0,0.0,0.0,0.0,0.0,0.0,0.0,0.0,59974.0,-0.02,0.22,-1.01,-28.78,-3.54,20.91,-2.4,44.41,-49.06,60014.0,-0.01,0.25,-1.02,-22.38,-2.26,22.62,0.6,45.01,-47.86,0.0,0.0,0.0,0.0,0.0,0.0,0.0,0.0,0.0,0.0,0.0,0.0,0.0,0.0,0.0,0.0,0.0,0.0,0.0,0.0,0.0
,,124038.969397,2.228590726852417,0.0,0.0,0.0,0.0,0.0,0.0,0.0,0.0,0.0,0.0,0.0,60023.0,-0.02,0.26,-1.03,-10.3,-5.0,20.55,-1.8,45.61,-49.51,60032.0,0.05,0.24,-1.01,6.22,-3.96,12.8,-2.55,43.81,-48.91,0.0,0.0,0.0,0.0,0.0,0.0,0.0,0.0,0.0,0.0,0.0,0.0,0.0,0.0,0.0,0.0,0.0,0.0,0.0,0.0,0.0
,,124038.987436,2.246642827987671,0.0,0.0,0.0,0.0,0.0,0.0,0.0,0.0,0.0,0.0,0.0,60041.0,0.06,0.25,-0.93,18.6,-11.89,0.12,-3.0,44.71,-48.61,60049.0,0.01,0.27,-0.99,26.46,-26.04,-6.52,-2.4,43.36,-49.66,0.0,0.0,0.0,0.0,0.0,0.0,0.0,0.0,0.0,0.0,0.0,0.0,0.0,0.0,0.0,0.0,0.0,0.0,0.0,0.0,0.0
,,124039.004787,2.2639713287353516,0.0,0.0,0.0,0.0,0.0,0.0,0.0,0.0,0.0,0.0,0.0,60058.0,-0.02,0.27,-1.04,22.74,-29.94,-3.41,-2.4,45.46,-50.11,60067.0,-0.04,0.26,-1.06,24.57,-25.0,-3.11,-3.45,44.41,-50.71,0.0,0.0,0.0,0.0,0.0,0.0,0.0,0.0,0.0,0.0,0.0,0.0,0.0,0.0,0.0,0.0,0.0,0.0,0.0,0.0,0.0
,,124039.022671,2.281853675842285,0.0,0.0,0.0,0.0,0.0,0.0,0.0,0.0,0.0,0.0,0.0,60076.0,-0.03,0.21,-1.06,32.32,-9.63,-5.37,-3.45,44.41,-50.71,60085.0,-0.06,0.18,-1.06,42.93,-0.55,-10.85,-4.35,44.56,-50.56,0.0,0.0,0.0,0.0,0.0,0.0,0.0,0.0,0.0,0.0,0.0,0.0,0.0,0.0,0.0,0.0,0.0,0.0,0.0,0.0,0.0
,,124039.040168,2.2993528842926025,0.0,0.0,0.0,0.0,0.0,0.0,0.0,0.0,0.0,0.0,0.0,60094.0,-0.04,0.19,-0.99,45.24,2.68,-10.91,-4.8,44.41,-49.66,60103.0,-0.04,0.2,-0.97,46.59,-7.38,-10.85,-4.35,42.46,-49.51,0.0,0.0,0.0,0.0,0.0,0.0,0.0,0.0,0.0,0.0,0.0,0.0,0.0,0.0,0.0,0.0,0.0,0.0,0.0,0.0,0.0
,,124039.058332,2.3175525665283203,0.0,0.0,0.0,0.0,0.0,0.0,0.0,0.0,0.0,0.0,0.0,60112.0,-0.02,0.16,-0.95,48.41,-16.28,-8.96,-4.65,45.01,-48.91,60120.0,-0.08,0.21,-0.97,51.16,-26.95,-10.18,-4.8,44.11,-49.66,0.0,0.0,0.0,0.0,0.0,0.0,0.0,0.0,0.0,0.0,0.0,0.0,0.0,0.0,0.0,0.0,0.0,0.0,0.0,0.0,0.0
,,124039.106349,2.365574598312378,0.0,0.0,0.0,0.0,0.0,0.0,0.0,0.0,0.0,0.0,0.0,60129.0,-0.07,0.19,-1.02,45.55,-19.82,-6.71,-4.65,44.56,-50.56,60169.0,-0.11,0.19,-1.01,34.02,-14.88,-6.83,-5.85,42.01,-45.61,0.0,0.0,0.0,0.0,0.0,0.0,0.0,0.0,0.0,0.0,0.0,0.0,0.0,0.0,0.0,0.0,0.0,0.0,0.0,0.0,0.0
,,124039.124771,2.383976459503174,0.0,0.0,0.0,0.0,0.0,0.0,0.0,0.0,0.0,0.0,0.0,60178.0,-0.03,0.17,-1.01,20.85,6.1,-4.7,-6.15,43.66,-47.26,60187.0,-0.06,0.2,-1.04,13.05,13.78,-5.06,-9.3,42.01,-48.01,0.0,0.0,0.0,0.0,0.0,0.0,0.0,0.0,0.0,0.0,0.0,0.0,0.0,0.0,0.0,0.0,0.0,0.0,0.0,0.0,0.0
,,124039.14376,2.4029605388641357,0.0,0.0,0.0,0.0,0.0,0.0,0.0,0.0,0.0,0.0,0.0,60196.0,-0.06,0.21,-1.02,-7.07,26.04,-0.18,-9.3,42.01,-48.01,60206.0,-0.03,0.22,-1.0,-31.71,25.61,5.91,-8.25,42.61,-46.66,0.0,0.0,0.0,0.0,0.0,0.0,0.0,0.0,0.0,0.0,0.0,0.0,0.0,0.0,0.0,0.0,0.0,0.0,0.0,0.0,0.0
,,124039.162192,2.4214119911193848,0.0,0.0,0.0,0.0,0.0,0.0,0.0,0.0,0.0,0.0,0.0,60215.0,-0.03,0.19,-1.01,-43.84,19.94,7.56,-9.15,41.71,-46.21,60224.0,-0.02,0.18,-1.02,-49.09,19.94,5.24,-9.9,42.16,-46.81,0.0,0.0,0.0,0.0,0.0,0.0,0.0,0.0,0.0,0.0,0.0,0.0,0.0,0.0,0.0,0.0,0.0,0.0,0.0,0.0,0.0
,,124039.181229,2.440436363220215,0.0,0.0,0.0,0.0,0.0,0.0,0.0,0.0,0.0,0.0,0.0,60233.0,-0.06,0.12,-0.98,-40.85,12.38,1.4,-10.2,42.76,-46.21,60243.0,-0.04,0.16,-0.94,-55.73,11.59,2.93,-9.9,39.61,-46.51,0.0,0.0,0.0,0.0,0.0,0.0,0.0,0.0,0.0,0.0,0.0,0.0,0.0,0.0,0.0,0.0,0.0,0.0,0.0,0.0,0.0
,,124039.198571,2.4577653408050537,0.0,0.0,0.0,0.0,0.0,0.0,0.0,0.0,0.0,0.0,0.0,60252.0,-0.03,0.19,-0.88,-63.35,-2.07,7.68,-9.6,41.11,-46.81,60261.0,-0.05,0.21,-0.95,-59.09,-9.82,7.26,-10.8,41.56,-45.91,0.0,0.0,0.0,0.0,0.0,0.0,0.0,0.0,0.0,0.0,0.0,0.0,0.0,0.0,0.0,0.0,0.0,0.0,0.0,0.0,0.0
,,124039.216217,2.4753987789154053,0.0,0.0,0.0,0.0,0.0,0.0,0.0,0.0,0.0,0.0,0.0,60270.0,-0.06,0.26,-1.04,-52.5,-3.41,3.29,-11.7,40.66,-47.11,60279.0,-0.07,0.25,-1.0,-49.7,11.4,2.38,-12.0,41.71,-45.46,0.0,0.0,0.0,0.0,0.0,0.0,0.0,0.0,0.0,0.0,0.0,0.0,0.0,0.0,0.0,0.0,0.0,0.0,0.0,0.0,0.0
,,124039.266009,2.525200128555298,0.0,0.0,0.0,0.0,0.0,0.0,0.0,0.0,0.0,0.0,0.0,60288.0,-0.04,0.26,-0.99,-55.43,26.71,9.15,-9.75,41.56,-45.91,60328.0,-0.02,0.28,-0.98,-67.93,30.12,17.99,-11.85,39.46,-41.56,0.0,0.0,0.0,0.0,0.0,0.0,0.0,0.0,0.0,0.0,0.0,0.0,0.0,0.0,0.0,0.0,0.0,0.0,0.0,0.0,0.0
,,124039.284806,2.5439937114715576,0.0,0.0,0.0,0.0,0.0,0.0,0.0,0.0,0.0,0.0,0.0,60337.0,-0.03,0.27,-1.03,-80.3,34.7,22.93,-14.1,40.66,-43.81,60347.0,-0.01,0.28,-0.99,-95.61,42.01,21.65,-13.95,40.51,-42.31,0.0,0.0,0.0,0.0,0.0,0.0,0.0,0.0,0.0,0.0,0.0,0.0,0.0,0.0,0.0,0.0,0.0,0.0,0.0,0.0,0.0
,,124039.303613,2.562788248062134,0.0,0.0,0.0,0.0,0.0,0.0,0.0,0.0,0.0,0.0,0.0,60356.0,0.02,0.33,-0.98,-105.67,48.72,20.73,-13.95,40.51,-42.31,60366.0,0.02,0.37,-0.92,-100.0,46.16,17.07,-15.15,39.61,-42.01,0.0,0.0,0.0,0.0,0.0,0.0,0.0,0.0,0.0,0.0,0.0,0.0,0.0,0.0,0.0,0.0,0.0,0.0,0.0,0.0,0.0
,,124039.322212,2.5813944339752197,0.0,0.0,0.0,0.0,0.0,0.0,0.0,0.0,0.0,0.0,0.0,60375.0,0.04,0.38,-0.9,-92.01,41.04,13.05,-13.95,38.71,-42.31,60385.0,0.02,0.37,-0.9,-88.17,29.21,9.88,-14.25,39.46,-42.31,0.0,0.0,0.0,0.0,0.0,0.0,0.0,0.0,0.0,0.0,0.0,0.0,0.0,0.0,0.0,0.0,0.0,0.0,0.0,0.0,0.0
,,124039.34094,2.6001195907592773,0.0,0.0,0.0,0.0,0.0,0.0,0.0,0.0,0.0,0.0,0.0,60394.0,0.03,0.35,-0.88,-87.56,19.15,10.79,-14.55,39.91,-42.31,60403.0,0.0,0.37,-0.98,-78.17,13.11,7.56,-15.45,39.61,-40.06,0.0,0.0,0.0,0.0,0.0,0.0,0.0,0.0,0.0,0.0,0.0,0.0,0.0,0.0,0.0,0.0,0.0,0.0,0.0,0.0,0.0
,,124039.359645,2.6188406944274902,0.0,0.0,0.0,0.0,0.0,0.0,0.0,0.0,0.0,0.0,0.0,60413.0,-0.01,0.32,-0.93,-63.6,15.73,8.05,-14.4,38.56,-40.06,60422.0,0.05,0.34,-0.85,-57.38,22.99,6.89,-14.4,39.01,-40.06,0.0,0.0,0.0,0.0,0.0,0.0,0.0,0.0,0.0,0.0,0.0,0.0,0.0,0.0,0.0,0.0,0.0,0.0,0.0,0.0,0.0
,,124039.378441,2.6376304626464844,0.0,0.0,0.0,0.0,0.0,0.0,0.0,0.0,0.0,0.0,0.0,60431.0,0.01,0.34,-0.86,-62.01,19.45,9.82,-15.3,40.21,-39.91,60441.0,-0.02,0.34,-0.85,-58.23,23.96,12.93,-16.95,38.26,-38.41,0.0,0.0,0.0,0.0,0.0,0.0,0.0,0.0,0.0,0.0,0.0,0.0,0.0,0.0,0.0,0.0,0.0,0.0,0.0,0.0,0.0
,,124039.427697,2.6868832111358643,0.0,0.0,0.0,0.0,0.0,0.0,0.0,0.0,0.0,0.0,0.0,60450.0,0.04,0.37,-0.87,-60.67,17.56,15.55,-15.45,39.31,-37.66,60490.0,0.03,0.44,-0.86,-59.09,22.13,11.22,-18.15,37.06,-34.81,0.0,0.0,0.0,0.0,0.0,0.0,0.0,0.0,0.0,0.0,0.0,0.0,0.0,0.0,0.0,0.0,0.0,0.0,0.0,0.0,0.0
,,124039.446823,2.706021308898926,0.0,0.0,0.0,0.0,0.0,0.0,0.0,0.0,0.0,0.0,0.0,60499.0,0.07,0.43,-0.88,-69.39,22.8,9.02,-18.45,39.16,-33.76,60508.0,0.07,0.4,-0.85,-85.43,20.73,11.22,-18.15,39.16,-35.41,0.0,0.0,0.0,0.0,0.0,0.0,0.0,0.0,0.0,0.0,0.0,0.0,0.0,0.0,0.0,0.0,0.0,0.0,0.0,0.0,0.0
,,124039.464911,2.7240920066833496,0.0,0.0,0.0,0.0,0.0,0.0,0.0,0.0,0.0,0.0,0.0,60518.0,0.09,0.39,-0.88,-96.95,17.87,11.65,-20.41,39.01,-34.36,60527.0,0.08,0.46,-0.86,-96.83,15.91,9.7,-20.26,37.66,-32.11,0.0,0.0,0.0,0.0,0.0,0.0,0.0,0.0,0.0,0.0,0.0,0.0,0.0,0.0,0.0,0.0,0.0,0.0,0.0,0.0,0.0
,,124039.483732,2.7429163455963135,0.0,0.0,0.0,0.0,0.0,0.0,0.0,0.0,0.0,0.0,0.0,60537.0,0.08,0.49,-0.84,-91.77,16.4,8.78,-19.2,38.11,-32.41,60546.0,0.08,0.5,-0.83,-92.87,17.13,11.46,-19.2,38.11,-32.41,0.0,0.0,0.0,0.0,0.0,0.0,0.0,0.0,0.0,0.0,0.0,0.0,0.0,0.0,0.0,0.0,0.0,0.0,0.0,0.0,0.0
,,124039.502726,2.7619173526763916,0.0,0.0,0.0,0.0,0.0,0.0,0.0,0.0,0.0,0.0,0.0,60555.0,0.09,0.52,-0.9,-92.32,18.72,12.26,-19.8,39.16,-31.06,60565.0,0.08,0.49,-0.81,-85.79,23.29,13.72,-20.86,38.71,-30.01,0.0,0.0,0.0,0.0,0.0,0.0,0.0,0.0,0.0,0.0,0.0,0.0,0.0,0.0,0.0,0.0,0.0,0.0,0.0,0.0,0.0
,,124039.521223,2.7804131507873535,0.0,0.0,0.0,0.0,0.0,0.0,0.0,0.0,0.0,0.0,0.0,60574.0,0.13,0.53,-0.75,-79.21,21.16,12.68,-20.56,37.36,-30.46,60584.0,0.05,0.54,-0.85,-63.78,7.07,9.02,-21.16,37.51,-28.81,0.0,0.0,0.0,0.0,0.0,0.0,0.0,0.0,0.0,0.0,0.0,0.0,0.0,0.0,0.0,0.0,0.0,0.0,0.0,0.0,0.0
,,124039.540048,2.79923415184021,0.0,0.0,0.0,0.0,0.0,0.0,0.0,0.0,0.0,0.0,0.0,60593.0,0.14,0.52,-0.8,-54.88,15.06,10.12,-19.8,37.36,-28.66,60602.0,0.09,0.52,-0.84,-52.87,14.57,6.16,-21.31,38.11,-28.06,0.0,0.0,0.0,0.0,0.0,0.0,0.0,0.0,0.0,0.0,0.0,0.0,0.0,0.0,0.0,0.0,0.0,0.0,0.0,0.0,0.0
,,124039.590559,2.849761724472046,0.0,0.0,0.0,0.0,0.0,0.0,0.0,0.0,0.0,0.0,0.0,60612.0,0.09,0.53,-0.83,-62.93,20.73,4.7,-21.76,37.51,-27.91,60653.0,0.15,0.53,-0.83,-82.01,13.11,7.38,-20.41,37.96,-23.86,0.0,0.0,0.0,0.0,0.0,0.0,0.0,0.0,0.0,0.0,0.0,0.0,0.0,0.0,0.0,0.0,0.0,0.0,0.0,0.0,0.0
,,124039.608984,2.868177890777588,0.0,0.0,0.0,0.0,0.0,0.0,0.0,0.0,0.0,0.0,0.0,60662.0,0.1,0.58,-0.85,-89.51,9.82,4.57,-22.66,36.61,-22.96,60671.0,0.07,0.56,-0.83,-88.9,10.85,6.28,-23.11,37.06,-24.01,0.0,0.0,0.0,0.0,0.0,0.0,0.0,0.0,0.0,0.0,0.0,0.0,0.0,0.0,0.0,0.0,0.0,0.0,0.0,0.0,0.0
,,124039.627579,2.8867640495300293,0.0,0.0,0.0,0.0,0.0,0.0,0.0,0.0,0.0,0.0,0.0,60680.0,0.11,0.62,-0.76,-91.22,10.98,7.5,-22.51,36.91,-22.81,60690.0,0.14,0.6,-0.75,-91.22,13.23,6.34,-23.71,36.01,-21.91,0.0,0.0,0.0,0.0,0.0,0.0,0.0,0.0,0.0,0.0,0.0,0.0,0.0,0.0,0.0,0.0,0.0,0.0,0.0,0.0,0.0
,,124039.646606,2.9058074951171875,0.0,0.0,0.0,0.0,0.0,0.0,0.0,0.0,0.0,0.0,0.0,60699.0,0.11,0.56,-0.81,-95.06,18.29,6.1,-23.11,37.06,-21.31,60708.0,0.15,0.65,-0.78,-107.99,24.45,4.45,-24.46,38.41,-22.21,0.0,0.0,0.0,0.0,0.0,0.0,0.0,0.0,0.0,0.0,0.0,0.0,0.0,0.0,0.0,0.0,0.0,0.0,0.0,0.0,0.0
,,124039.664887,2.9240822792053223,0.0,0.0,0.0,0.0,0.0,0.0,0.0,0.0,0.0,0.0,0.0,60718.0,0.09,0.66,-0.74,-114.7,26.04,0.61,-22.51,36.91,-22.81,60727.0,0.12,0.69,-0.69,-120.43,21.95,-2.32,-21.61,37.36,-21.61,0.0,0.0,0.0,0.0,0.0,0.0,0.0,0.0,0.0,0.0,0.0,0.0,0.0,0.0,0.0,0.0,0.0,0.0,0.0,0.0,0.0
,,124039.683613,2.942807197570801,0.0,0.0,0.0,0.0,0.0,0.0,0.0,0.0,0.0,0.0,0.0,60736.0,0.14,0.68,-0.69,-123.17,14.94,-3.48,-21.61,38.41,-21.61,60746.0,0.04,0.68,-0.69,-116.28,7.93,-1.52,-21.61,38.41,-20.56,0.0,0.0,0.0,0.0,0.0,0.0,0.0,0.0,0.0,0.0,0.0,0.0,0.0,0.0,0.0,0.0,0.0,0.0,0.0,0.0,0.0
,,124039.702198,2.961378574371338,0.0,0.0,0.0,0.0,0.0,0.0,0.0,0.0,0.0,0.0,0.0,60755.0,0.09,0.65,-0.66,-108.48,8.84,2.5,-22.36,38.11,-21.31,60764.0,0.09,0.7,-0.63,-108.48,10.06,5.3,-22.36,39.16,-21.91,0.0,0.0,0.0,0.0,0.0,0.0,0.0,0.0,0.0,0.0,0.0,0.0,0.0,0.0,0.0,0.0,0.0,0.0,0.0,0.0,0.0
,,124039.748186,3.0073742866516113,0.0,0.0,0.0,0.0,0.0,0.0,0.0,0.0,0.0,0.0,0.0,60774.0,0.12,0.71,-0.61,-111.89,13.35,8.6,-22.81,37.96,-21.46,60810.0,0.16,0.73,-0.63,-108.11,13.96,8.05,-21.91,39.16,-18.6,0.0,0.0,0.0,0.0,0.0,0.0,0.0,0.0,0.0,0.0,0.0,0.0,0.0,0.0,0.0,0.0,0.0,0.0,0.0,0.0,0.0
,,124039.767146,3.0263426303863525,0.0,0.0,0.0,0.0,0.0,0.0,0.0,0.0,0.0,0.0,0.0,60819.0,0.14,0.75,-0.65,-100.98,12.38,6.65,-23.26,38.56,-21.01,60829.0,0.15,0.78,-0.58,-96.52,13.54,7.74,-22.66,39.16,-21.31,0.0,0.0,0.0,0.0,0.0,0.0,0.0,0.0,0.0,0.0,0.0,0.0,0.0,0.0,0.0,0.0,0.0,0.0,0.0,0.0,0.0
,,124039.785249,3.0444352626800537,0.0,0.0,0.0,0.0,0.0,0.0,0.0,0.0,0.0,0.0,0.0,60838.0,0.17,0.81,-0.51,-95.43,7.07,12.01,-21.61,39.91,-22.21,60847.0,0.14,0.79,-0.5,-90.43,2.93,12.93,-20.86,38.41,-19.95,0.0,0.0,0.0,0.0,0.0,0.0,0.0,0.0,0.0,0.0,0.0,0.0,0.0,0.0,0.0,0.0,0.0,0.0,0.0,0.0,0.0
,,124039.803921,3.063106060028076,0.0,0.0,0.0,0.0,0.0,0.0,0.0,0.0,0.0,0.0,0.0,60857.0,0.14,0.81,-0.53,-91.65,2.13,11.28,-22.66,38.11,-20.56,60866.0,0.14,0.8,-0.54,-88.6,6.65,8.6,-22.66,38.11,-20.56,0.0,0.0,0.0,0.0,0.0,0.0,0.0,0.0,0.0,0.0,0.0,0.0,0.0,0.0,0.0,0.0,0.0,0.0,0.0,0.0,0.0
,,124039.822223,3.081404685974121,0.0,0.0,0.0,0.0,0.0,0.0,0.0,0.0,0.0,0.0,0.0,60875.0,0.13,0.82,-0.5,-83.72,10.0,3.84,-23.26,39.01,-21.76,60885.0,0.14,0.87,-0.43,-81.71,9.88,0.3,-21.91,39.46,-19.5,0.0,0.0,0.0,0.0,0.0,0.0,0.0,0.0,0.0,0.0,0.0,0.0,0.0,0.0,0.0,0.0,0.0,0.0,0.0,0.0,0.0
,,124039.840804,3.099982976913452,0.0,0.0,0.0,0.0,0.0,0.0,0.0,0.0,0.0,0.0,0.0,60894.0,0.13,0.94,-0.45,-85.55,7.68,0.12,-23.41,38.41,-20.26,60903.0,0.14,0.98,-0.5,-93.9,9.88,-0.73,-23.41,37.36,-19.2,0.0,0.0,0.0,0.0,0.0,0.0,0.0,0.0,0.0,0.0,0.0,0.0,0.0,0.0,0.0,0.0,0.0,0.0,0.0,0.0,0.0
,,124039.859474,3.118656635284424,0.0,0.0,0.0,0.0,0.0,0.0,0.0,0.0,0.0,0.0,0.0,60912.0,0.15,1.01,-0.53,-93.17,14.45,2.56,-21.91,38.41,-19.95,60922.0,0.16,0.98,-0.4,-93.84,17.74,8.96,-22.21,39.01,-19.65,0.0,0.0,0.0,0.0,0.0,0.0,0.0,0.0,0.0,0.0,0.0,0.0,0.0,0.0,0.0,0.0,0.0,0.0,0.0,0.0,0.0
,,124039.910696,3.1699016094207764,0.0,0.0,0.0,0.0,0.0,0.0,0.0,0.0,0.0,0.0,0.0,60931.0,0.14,0.78,-0.38,-82.13,17.2,-2.87,-23.26,37.51,-20.41,60973.0,0.07,0.74,-0.37,-46.52,2.5,-10.85,-20.26,40.51,-18.15,0.0,0.0,0.0,0.0,0.0,0.0,0.0,0.0,0.0,0.0,0.0,0.0,0.0,0.0,0.0,0.0,0.0,0.0,0.0,0.0,0.0
,,124039.929305,3.1884894371032715,0.0,0.0,0.0,0.0,0.0,0.0,0.0,0.0,0.0,0.0,0.0,60982.0,0.13,0.84,-0.35,-23.35,0.24,-11.4,-20.56,38.11,-17.85,60991.0,0.13,0.92,-0.43,-19.09,-2.62,-11.04,-23.26,37.96,-18.75,0.0,0.0,0.0,0.0,0.0,0.0,0.0,0.0,0.0,0.0,0.0,0.0,0.0,0.0,0.0,0.0,0.0,0.0,0.0,0.0,0.0
,,124039.948127,3.207314968109131,0.0,0.0,0.0,0.0,0.0,0.0,0.0,0.0,0.0,0.0,0.0,61001.0,0.14,0.94,-0.48,-18.54,-4.21,-10.85,-23.26,37.51,-17.4,61010.0,0.14,0.94,-0.46,-10.91,-2.26,-12.2,-23.41,39.16,-17.25,0.0,0.0,0.0,0.0,0.0,0.0,0.0,0.0,0.0,0.0,0.0,0.0,0.0,0.0,0.0,0.0,0.0,0.0,0.0,0.0,0.0
,,124039.966491,3.2256758213043213,0.0,0.0,0.0,0.0,0.0,0.0,0.0,0.0,0.0,0.0,0.0,61019.0,0.12,0.9,-0.42,-9.15,-1.83,-11.34,-22.21,37.96,-19.05,61029.0,0.12,0.9,-0.41,-2.99,-4.51,-11.77,-22.36,38.41,-19.5,0.0,0.0,0.0,0.0,0.0,0.0,0.0,0.0,0.0,0.0,0.0,0.0,0.0,0.0,0.0,0.0,0.0,0.0,0.0,0.0,0.0
,,124039.984917,3.244098424911499,0.0,0.0,0.0,0.0,0.0,0.0,0.0,0.0,0.0,0.0,0.0,61038.0,0.14,0.91,-0.35,2.8,-4.45,-11.04,-22.21,36.91,-18.3,61047.0,0.14,0.97,-0.39,-2.8,-5.98,-7.01,-21.91,38.11,-18.6,0.0,0.0,0.0,0.0,0.0,0.0,0.0,0.0,0.0,0.0,0.0,0.0,0.0,0.0,0.0,0.0,0.0,0.0,0.0,0.0,0.0
,,124040.003434,3.2626137733459473,0.0,0.0,0.0,0.0,0.0,0.0,0.0,0.0,0.0,0.0,0.0,61056.0,0.13,0.95,-0.44,-13.6,-3.35,-3.23,-21.76,39.01,-18.3,61066.0,0.11,0.94,-0.47,-4.57,2.99,-2.32,-21.76,39.01,-18.3,0.0,0.0,0.0,0.0,0.0,0.0,0.0,0.0,0.0,0.0,0.0,0.0,0.0,0.0,0.0,0.0,0.0,0.0,0.0,0.0,0.0
,,124040.021918,3.281101942062378,0.0,0.0,0.0,0.0,0.0,0.0,0.0,0.0,0.0,0.0,0.0,61075.0,0.15,0.9,-0.43,1.83,8.78,-0.73,-22.66,39.16,-18.6,61084.0,0.16,0.91,-0.41,3.9,9.88,-2.87,-22.81,38.26,-17.7,0.0,0.0,0.0,0.0,0.0,0.0,0.0,0.0,0.0,0.0,0.0,0.0,0.0,0.0,0.0,0.0,0.0,0.0,0.0,0.0,0.0
,,124040.071519,3.3307154178619385,0.0,0.0,0.0,0.0,0.0,0.0,0.0,0.0,0.0,0.0,0.0,61093.0,0.14,0.9,-0.42,2.2,4.51,-4.51,-21.61,37.36,-18.15,61134.0,0.14,0.97,-0.43,2.44,0.91,-5.98,-20.11,36.91,-15.6,0.0,0.0,0.0,0.0,0.0,0.0,0.0,0.0,0.0,0.0,0.0,0.0,0.0,0.0,0.0,0.0,0.0,0.0,0.0,0.0,0.0
,,124040.090163,3.349372148513794,0.0,0.0,0.0,0.0,0.0,0.0,0.0,0.0,0.0,0.0,0.0,61143.0,0.15,1.0,-0.43,-6.22,2.8,-7.74,-20.41,37.96,-15.6,61152.0,0.14,0.94,-0.44,-17.26,7.87,-2.93,-21.16,37.96,-15.6,0.0,0.0,0.0,0.0,0.0,0.0,0.0,0.0,0.0,0.0,0.0,0.0,0.0,0.0,0.0,0.0,0.0,0.0,0.0,0.0,0.0
,,124040.108388,3.3675787448883057,0.0,0.0,0.0,0.0,0.0,0.0,0.0,0.0,0.0,0.0,0.0,61161.0,0.14,0.87,-0.39,-19.27,8.54,-4.82,-23.26,37.21,-16.05,61171.0,0.11,0.91,-0.41,-8.35,8.41,-7.07,-21.16,37.51,-16.05,0.0,0.0,0.0,0.0,0.0,0.0,0.0,0.0,0.0,0.0,0.0,0.0,0.0,0.0,0.0,0.0,0.0,0.0,0.0,0.0,0.0
,,124040.126884,3.386077642440796,0.0,0.0,0.0,0.0,0.0,0.0,0.0,0.0,0.0,0.0,0.0,61180.0,0.17,1.07,-0.31,-7.13,5.61,-2.07,-21.16,37.96,-16.05,61189.0,0.14,0.92,-0.4,-20.3,2.07,1.22,-21.16,36.16,-16.95,0.0,0.0,0.0,0.0,0.0,0.0,0.0,0.0,0.0,0.0,0.0,0.0,0.0,0.0,0.0,0.0,0.0,0.0,0.0,0.0,0.0
,,124040.145353,3.404536724090576,0.0,0.0,0.0,0.0,0.0,0.0,0.0,0.0,0.0,0.0,0.0,61198.0,0.1,0.91,-0.41,-22.44,1.22,3.05,-20.71,36.91,-15.6,61208.0,0.15,0.96,-0.38,-23.29,2.2,9.51,-20.56,37.66,-16.2,0.0,0.0,0.0,0.0,0.0,0.0,0.0,0.0,0.0,0.0,0.0,0.0,0.0,0.0,0.0,0.0,0.0,0.0,0.0,0.0,0.0
,,124040.16393,3.423112630844116,0.0,0.0,0.0,0.0,0.0,0.0,0.0,0.0,0.0,0.0,0.0,61217.0,0.15,0.89,-0.36,-23.48,4.82,10.12,-21.91,36.01,-17.55,61226.0,0.13,0.89,-0.38,-18.05,6.28,5.98,-21.91,36.01,-17.55,0.0,0.0,0.0,0.0,0.0,0.0,0.0,0.0,0.0,0.0,0.0,0.0,0.0,0.0,0.0,0.0,0.0,0.0,0.0,0.0,0.0
,,124040.182538,3.4417173862457275,0.0,0.0,0.0,0.0,0.0,0.0,0.0,0.0,0.0,0.0,0.0,61235.0,0.15,0.92,-0.36,-13.96,7.62,3.66,-21.16,36.46,-16.35,61245.0,0.15,0.95,-0.36,-15.24,1.65,1.77,-20.86,36.61,-15.75,0.0,0.0,0.0,0.0,0.0,0.0,0.0,0.0,0.0,0.0,0.0,0.0,0.0,0.0,0.0,0.0,0.0,0.0,0.0,0.0,0.0
,,124040.233911,3.4930996894836426,0.0,0.0,0.0,0.0,0.0,0.0,0.0,0.0,0.0,0.0,0.0,61254.0,0.15,0.92,-0.38,-16.4,-2.56,1.16,-21.91,35.56,-18.9,61296.0,0.12,0.89,-0.34,-15.18,-3.54,2.38,-17.7,34.96,-16.8,0.0,0.0,0.0,0.0,0.0,0.0,0.0,0.0,0.0,0.0,0.0,0.0,0.0,0.0,0.0,0.0,0.0,0.0,0.0,0.0,0.0
,,124040.252558,3.5117461681365967,0.0,0.0,0.0,0.0,0.0,0.0,0.0,0.0,0.0,0.0,0.0,61305.0,0.09,0.92,-0.3,-16.28,-6.95,0.43,-19.2,33.91,-18.6,61314.0,0.15,0.92,-0.33,-19.57,-10.61,1.16,-20.26,33.91,-18.6,0.0,0.0,0.0,0.0,0.0,0.0,0.0,0.0,0.0,0.0,0.0,0.0,0.0,0.0,0.0,0.0,0.0,0.0,0.0,0.0,0.0
,,124040.271097,3.5302748680114746,0.0,0.0,0.0,0.0,0.0,0.0,0.0,0.0,0.0,0.0,0.0,61324.0,0.14,0.96,-0.36,-28.17,-16.46,2.87,-19.05,33.31,-20.71,61333.0,0.12,0.93,-0.37,-26.95,-16.95,4.88,-20.11,34.06,-22.51,0.0,0.0,0.0,0.0,0.0,0.0,0.0,0.0,0.0,0.0,0.0,0.0,0.0,0.0,0.0,0.0,0.0,0.0,0.0,0.0,0.0
,,124040.290048,3.5492312908172607,0.0,0.0,0.0,0.0,0.0,0.0,0.0,0.0,0.0,0.0,0.0,61342.0,0.13,0.9,-0.33,-21.59,-11.59,10.43,-20.41,34.06,-21.01,61352.0,0.17,0.89,-0.32,-20.3,-14.33,9.76,-19.2,33.91,-22.66,0.0,0.0,0.0,0.0,0.0,0.0,0.0,0.0,0.0,0.0,0.0,0.0,0.0,0.0,0.0,0.0,0.0,0.0,0.0,0.0,0.0
,,124040.308604,3.5677990913391113,0.0,0.0,0.0,0.0,0.0,0.0,0.0,0.0,0.0,0.0,0.0,61361.0,0.16,0.9,-0.4,-18.78,-18.84,2.87,-18.3,33.76,-24.46,61371.0,0.18,0.97,-0.36,-21.77,-18.84,2.38,-18.15,33.91,-24.61,0.0,0.0,0.0,0.0,0.0,0.0,0.0,0.0,0.0,0.0,0.0,0.0,0.0,0.0,0.0,0.0,0.0,0.0,0.0,0.0,0.0
,,124040.327415,3.5865960121154785,0.0,0.0,0.0,0.0,0.0,0.0,0.0,0.0,0.0,0.0,0.0,61380.0,0.18,0.92,-0.37,-26.83,-22.32,6.83,-19.5,33.46,-24.91,61389.0,0.15,0.93,-0.36,-32.38,-23.9,7.38,-17.4,33.46,-27.31,0.0,0.0,0.0,0.0,0.0,0.0,0.0,0.0,0.0,0.0,0.0,0.0,0.0,0.0,0.0,0.0,0.0,0.0,0.0,0.0,0.0
,,124040.346329,3.605522871017456,0.0,0.0,0.0,0.0,0.0,0.0,0.0,0.0,0.0,0.0,0.0,61399.0,0.15,0.93,-0.35,-30.18,-18.96,9.76,-18.15,34.21,-28.36,61408.0,0.13,0.94,-0.3,-31.52,-19.09,11.22,-17.1,33.91,-29.71,0.0,0.0,0.0,0.0,0.0,0.0,0.0,0.0,0.0,0.0,0.0,0.0,0.0,0.0,0.0,0.0,0.0,0.0,0.0,0.0,0.0
,,124040.396403,3.6555898189544678,0.0,0.0,0.0,0.0,0.0,0.0,0.0,0.0,0.0,0.0,0.0,61417.0,0.16,0.92,-0.29,-39.82,-20.85,14.63,-16.2,34.81,-32.56,61458.0,0.12,0.94,-0.24,-31.22,-401.77,-1392.38,-15.9,33.01,-30.91,0.0,0.0,0.0,0.0,0.0,0.0,0.0,0.0,0.0,0.0,0.0,0.0,0.0,0.0,0.0,0.0,0.0,0.0,0.0,0.0,0.0
,,124040.480104,3.7393124103546143,0.0,0.0,0.0,0.0,0.0,0.0,0.0,0.0,0.0,0.0,0.0,61532.0,0.13,0.76,-0.69,-0.37,21.77,-51.65,-16.2,36.46,-32.26,61542.0,0.11,0.69,-0.69,27.74,9.51,-50.98,-18.75,37.36,-32.41,0.0,0.0,0.0,0.0,0.0,0.0,0.0,0.0,0.0,0.0,0.0,0.0,0.0,0.0,0.0,0.0,0.0,0.0,0.0,0.0,0.0
,,124040.500421,3.759632110595703,0.0,0.0,0.0,0.0,0.0,0.0,0.0,0.0,0.0,0.0,0.0,61552.0,0.11,0.68,-0.71,47.07,2.13,-49.02,-17.4,38.71,-33.76,61562.0,0.13,0.69,-0.73,45.73,-1.65,-43.23,-18.75,39.16,-32.71,0.0,0.0,0.0,0.0,0.0,0.0,0.0,0.0,0.0,0.0,0.0,0.0,0.0,0.0,0.0,0.0,0.0,0.0,0.0,0.0,0.0
,,124040.519831,3.7790353298187256,0.0,0.0,0.0,0.0,0.0,0.0,0.0,0.0,0.0,0.0,0.0,61572.0,0.07,0.69,-0.75,29.21,-6.65,-36.34,-17.4,38.41,-33.46,61582.0,0.07,0.67,-0.79,-7.56,-3.96,-30.67,-17.55,40.06,-33.91,0.0,0.0,0.0,0.0,0.0,0.0,0.0,0.0,0.0,0.0,0.0,0.0,0.0,0.0,0.0,0.0,0.0,0.0,0.0,0.0,0.0
,,124040.540264,3.799450635910034,0.0,0.0,0.0,0.0,0.0,0.0,0.0,0.0,0.0,0.0,0.0,61592.0,0.07,0.71,-0.83,-54.7,-2.87,-29.02,-18.45,38.41,-34.51,61602.0,0.1,0.74,-0.75,-84.57,-2.87,-28.48,-18.15,39.16,-32.71,0.0,0.0,0.0,0.0,0.0,0.0,0.0,0.0,0.0,0.0,0.0,0.0,0.0,0.0,0.0,0.0,0.0,0.0,0.0,0.0,0.0
,,124040.559936,3.8191256523132324,0.0,0.0,0.0,0.0,0.0,0.0,0.0,0.0,0.0,0.0,0.0,61612.0,0.09,0.73,-0.67,-93.84,-6.34,-26.59,-17.7,39.16,-31.81,61622.0,0.03,0.75,-0.63,-101.59,-14.63,-27.32,-18.6,39.61,-33.01,0.0,0.0,0.0,0.0,0.0,0.0,0.0,0.0,0.0,0.0,0.0,0.0,0.0,0.0,0.0,0.0,0.0,0.0,0.0,0.0,0.0
,,124040.580183,3.8393747806549072,0.0,0.0,0.0,0.0,0.0,0.0,0.0,0.0,0.0,0.0,0.0,61632.0,0.06,0.75,-0.57,-109.02,-15.06,-29.57,-18.75,37.66,-30.76,61642.0,0.03,0.72,-0.61,-119.7,-20.73,-28.35,-19.2,40.21,-31.36,0.0,0.0,0.0,0.0,0.0,0.0,0.0,0.0,0.0,0.0,0.0,0.0,0.0,0.0,0.0,0.0,0.0,0.0,0.0,0.0,0.0
,,124040.632053,3.891242504119873,0.0,0.0,0.0,0.0,0.0,0.0,0.0,0.0,0.0,0.0,0.0,61652.0,0.03,0.71,-0.64,-137.13,-11.77,-28.41,-19.5,39.16,-30.01,61694.0,0.04,0.79,-0.58,-153.11,2.87,-30.55,-19.65,39.61,-25.51,0.0,0.0,0.0,0.0,0.0,0.0,0.0,0.0,0.0,0.0,0.0,0.0,0.0,0.0,0.0,0.0,0.0,0.0,0.0,0.0,0.0
,,124040.649824,3.9090209007263184,0.0,0.0,0.0,0.0,0.0,0.0,0.0,0.0,0.0,0.0,0.0,61703.0,0.1,0.84,-0.51,-155.55,8.05,-29.02,-19.65,41.71,-25.51,61712.0,0.15,0.95,-0.5,-141.52,5.0,-26.83,-22.21,39.01,-25.21,0.0,0.0,0.0,0.0,0.0,0.0,0.0,0.0,0.0,0.0,0.0,0.0,0.0,0.0,0.0,0.0,0.0,0.0,0.0,0.0,0.0
,,124040.66829,3.9274864196777344,0.0,0.0,0.0,0.0,0.0,0.0,0.0,0.0,0.0,0.0,0.0,61721.0,0.12,1.01,-0.47,-109.45,3.84,-24.94,-21.76,40.06,-25.21,61730.0,0.07,0.92,-0.46,-78.96,8.96,-22.13,-22.66,42.61,-24.61,0.0,0.0,0.0,0.0,0.0,0.0,0.0,0.0,0.0,0.0,0.0,0.0,0.0,0.0,0.0,0.0,0.0,0.0,0.0,0.0,0.0
,,124040.685713,3.944897174835205,0.0,0.0,0.0,0.0,0.0,0.0,0.0,0.0,0.0,0.0,0.0,61739.0,0.05,0.86,-0.47,-67.99,12.93,-22.99,-21.91,42.01,-22.96,61748.0,0.07,0.86,-0.44,-63.23,16.16,-26.95,-21.91,40.21,-25.36,0.0,0.0,0.0,0.0,0.0,0.0,0.0,0.0,0.0,0.0,0.0,0.0,0.0,0.0,0.0,0.0,0.0,0.0,0.0,0.0,0.0
,,124040.703625,3.962820291519165,0.0,0.0,0.0,0.0,0.0,0.0,0.0,0.0,0.0,0.0,0.0,61757.0,0.02,0.91,-0.46,-47.56,14.27,-27.99,-20.71,40.36,-23.86,61765.0,0.0,0.92,-0.51,-26.59,8.11,-23.84,-20.71,40.36,-23.86,0.0,0.0,0.0,0.0,0.0,0.0,0.0,0.0,0.0,0.0,0.0,0.0,0.0,0.0,0.0,0.0,0.0,0.0,0.0,0.0,0.0
,,124040.721312,3.9804913997650146,0.0,0.0,0.0,0.0,0.0,0.0,0.0,0.0,0.0,0.0,0.0,61774.0,-0.02,0.87,-0.58,-19.21,3.96,-19.45,-21.61,42.61,-24.01,61783.0,-0.01,0.87,-0.61,-23.41,2.8,-12.2,-22.36,42.31,-24.31,0.0,0.0,0.0,0.0,0.0,0.0,0.0,0.0,0.0,0.0,0.0,0.0,0.0,0.0,0.0,0.0,0.0,0.0,0.0,0.0,0.0
,,124040.739115,3.998293876647949,0.0,0.0,0.0,0.0,0.0,0.0,0.0,0.0,0.0,0.0,0.0,61792.0,0.01,0.89,-0.54,-33.41,8.6,-8.72,-22.21,41.41,-22.51,61801.0,0.06,0.91,-0.45,-54.39,6.4,-2.68,-21.91,41.56,-21.91,0.0,0.0,0.0,0.0,0.0,0.0,0.0,0.0,0.0,0.0,0.0,0.0,0.0,0.0,0.0,0.0,0.0,0.0,0.0,0.0,0.0
,,124040.795425,4.054620027542114,0.0,0.0,0.0,0.0,0.0,0.0,0.0,0.0,0.0,0.0,0.0,61810.0,0.09,0.94,-0.4,-55.37,3.6,-2.26,-21.16,42.46,-22.06,61857.0,0.07,0.92,-0.4,-50.06,4.51,-5.37,-19.35,42.16,-18.75,0.0,0.0,0.0,0.0,0.0,0.0,0.0,0.0,0.0,0.0,0.0,0.0,0.0,0.0,0.0,0.0,0.0,0.0,0.0,0.0,0.0
,,124040.813258,4.072443723678589,0.0,0.0,0.0,0.0,0.0,0.0,0.0,0.0,0.0,0.0,0.0,61866.0,0.1,0.96,-0.33,-44.27,7.13,-13.11,-22.21,41.71,-20.11,61875.0,0.08,0.92,-0.39,-21.65,2.26,-13.54,-22.21,41.71,-20.11,0.0,0.0,0.0,0.0,0.0,0.0,0.0,0.0,0.0,0.0,0.0,0.0,0.0,0.0,0.0,0.0,0.0,0.0,0.0,0.0,0.0
,,124040.831239,4.090445041656494,0.0,0.0,0.0,0.0,0.0,0.0,0.0,0.0,0.0,0.0,0.0,61884.0,0.05,0.86,-0.47,-18.17,-0.61,-14.82,-23.11,42.01,-18.9,61893.0,0.02,0.87,-0.5,-32.38,-0.91,-19.33,-22.21,41.41,-16.35,0.0,0.0,0.0,0.0,0.0,0.0,0.0,0.0,0.0,0.0,0.0,0.0,0.0,0.0,0.0,0.0,0.0,0.0,0.0,0.0,0.0
,,124040.849251,4.108437776565552,0.0,0.0,0.0,0.0,0.0,0.0,0.0,0.0,0.0,0.0,0.0,61902.0,-0.01,0.9,-0.49,-60.0,-4.88,-20.85,-22.51,42.46,-13.35,61911.0,-0.04,0.87,-0.49,-93.66,-10.43,-18.84,-21.46,42.16,-15.0,0.0,0.0,0.0,0.0,0.0,0.0,0.0,0.0,0.0,0.0,0.0,0.0,0.0,0.0,0.0,0.0,0.0,0.0,0.0,0.0,0.0
,,124040.86697,4.126145124435425,0.0,0.0,0.0,0.0,0.0,0.0,0.0,0.0,0.0,0.0,0.0,61920.0,-0.09,0.92,-0.49,-144.33,-7.56,-17.99,-23.11,42.01,-13.05,61929.0,-0.1,1.06,-0.45,-247.5,11.59,-5.0,-23.56,41.11,-10.95,0.0,0.0,0.0,0.0,0.0,0.0,0.0,0.0,0.0,0.0,0.0,0.0,0.0,0.0,0.0,0.0,0.0,0.0,0.0,0.0,0.0
,,124040.884869,4.14405083656311,0.0,0.0,0.0,0.0,0.0,0.0,0.0,0.0,0.0,0.0,0.0,61938.0,0.02,0.98,-0.27,-299.57,20.0,28.35,-22.51,41.71,-11.55,61947.0,-0.04,0.82,-0.05,-254.45,-3.48,65.67,-21.31,42.31,-11.1,0.0,0.0,0.0,0.0,0.0,0.0,0.0,0.0,0.0,0.0,0.0,0.0,0.0,0.0,0.0,0.0,0.0,0.0,0.0,0.0,0.0
,,124040.903006,4.162190914154053,0.0,0.0,0.0,0.0,0.0,0.0,0.0,0.0,0.0,0.0,0.0,61956.0,-0.06,0.77,-0.05,-172.01,-46.95,51.95,-21.31,42.31,-11.1,61965.0,-0.01,0.97,-0.23,-119.51,-38.48,7.74,-20.71,41.41,-9.6,0.0,0.0,0.0,0.0,0.0,0.0,0.0,0.0,0.0,0.0,0.0,0.0,0.0,0.0,0.0,0.0,0.0,0.0,0.0,0.0,0.0
,,124040.951426,4.210623741149902,0.0,0.0,0.0,0.0,0.0,0.0,0.0,0.0,0.0,0.0,0.0,61974.0,-0.0,1.08,-0.15,-89.51,-14.02,-15.06,-22.36,42.31,-10.8,62013.0,0.0,1.02,-0.1,-29.02,-5.85,-7.32,-19.35,42.16,-8.55,0.0,0.0,0.0,0.0,0.0,0.0,0.0,0.0,0.0,0.0,0.0,0.0,0.0,0.0,0.0,0.0,0.0,0.0,0.0,0.0,0.0
,,124040.968841,4.228020191192627,0.0,0.0,0.0,0.0,0.0,0.0,0.0,0.0,0.0,0.0,0.0,62022.0,0.04,0.98,-0.11,4.76,3.6,-2.13,-19.65,42.16,-9.15,62031.0,0.02,1.03,-0.13,6.77,7.87,-2.62,-22.51,42.16,-10.95,0.0,0.0,0.0,0.0,0.0,0.0,0.0,0.0,0.0,0.0,0.0,0.0,0.0,0.0,0.0,0.0,0.0,0.0,0.0,0.0,0.0
,,124040.986973,4.246156454086304,0.0,0.0,0.0,0.0,0.0,0.0,0.0,0.0,0.0,0.0,0.0,62039.0,0.04,1.01,-0.16,14.88,14.02,4.7,-21.46,42.16,-9.6,62048.0,0.04,0.95,-0.15,8.66,20.0,14.45,-20.56,42.31,-9.45,0.0,0.0,0.0,0.0,0.0,0.0,0.0,0.0,0.0,0.0,0.0,0.0,0.0,0.0,0.0,0.0,0.0,0.0,0.0,0.0,0.0
,,124041.004269,4.2634570598602295,0.0,0.0,0.0,0.0,0.0,0.0,0.0,0.0,0.0,0.0,0.0,62057.0,0.06,0.89,-0.09,-2.99,26.77,16.71,-21.16,40.66,-9.6,62066.0,0.02,0.91,-0.08,-21.83,25.55,12.13,-21.46,42.46,-9.15,0.0,0.0,0.0,0.0,0.0,0.0,0.0,0.0,0.0,0.0,0.0,0.0,0.0,0.0,0.0,0.0,0.0,0.0,0.0,0.0,0.0
,,124041.021793,4.280982732772827,0.0,0.0,0.0,0.0,0.0,0.0,0.0,0.0,0.0,0.0,0.0,62075.0,0.02,0.95,-0.12,-35.85,17.74,10.43,-21.46,42.46,-9.15,62084.0,0.02,1.01,-0.15,-37.2,7.62,10.3,-20.71,42.16,-7.5,0.0,0.0,0.0,0.0,0.0,0.0,0.0,0.0,0.0,0.0,0.0,0.0,0.0,0.0,0.0,0.0,0.0,0.0,0.0,0.0,0.0
,,124041.03978,4.298965215682983,0.0,0.0,0.0,0.0,0.0,0.0,0.0,0.0,0.0,0.0,0.0,62093.0,0.01,0.98,-0.19,-39.88,-3.41,15.98,-21.46,41.11,-7.5,62102.0,0.08,0.96,-0.15,-31.16,-10.79,13.11,-21.91,41.26,-5.7,0.0,0.0,0.0,0.0,0.0,0.0,0.0,0.0,0.0,0.0,0.0,0.0,0.0,0.0,0.0,0.0,0.0,0.0,0.0,0.0,0.0
,,124041.057723,4.316920518875122,0.0,0.0,0.0,0.0,0.0,0.0,0.0,0.0,0.0,0.0,0.0,62110.0,0.1,0.89,-0.17,-32.93,-14.7,2.68,-21.76,40.06,-4.5,62119.0,0.07,0.88,-0.23,-63.6,-8.54,-15.12,-21.16,41.71,-4.2,0.0,0.0,0.0,0.0,0.0,0.0,0.0,0.0,0.0,0.0,0.0,0.0,0.0,0.0,0.0,0.0,0.0,0.0,0.0,0.0,0.0
,,124041.104897,4.3640947341918945,0.0,0.0,0.0,0.0,0.0,0.0,0.0,0.0,0.0,0.0,0.0,62128.0,0.06,0.91,-0.13,-91.1,8.35,-21.83,-21.91,42.61,-3.6,62166.0,0.06,1.05,-0.08,-112.74,15.43,-25.18,-19.8,42.01,-0.9,0.0,0.0,0.0,0.0,0.0,0.0,0.0,0.0,0.0,0.0,0.0,0.0,0.0,0.0,0.0,0.0,0.0,0.0,0.0,0.0,0.0
,,124041.122609,4.3818137645721436,0.0,0.0,0.0,0.0,0.0,0.0,0.0,0.0,0.0,0.0,0.0,62175.0,0.02,1.11,0.02,-131.59,17.13,-21.95,-19.8,42.01,-0.9,62184.0,0.03,1.05,0.07,-132.8,6.46,-9.57,-18.75,42.31,-0.6,0.0,0.0,0.0,0.0,0.0,0.0,0.0,0.0,0.0,0.0,0.0,0.0,0.0,0.0,0.0,0.0,0.0,0.0,0.0,0.0,0.0
,,124041.140211,4.399396657943726,0.0,0.0,0.0,0.0,0.0,0.0,0.0,0.0,0.0,0.0,0.0,62193.0,0.02,0.97,0.08,-116.46,-8.54,-1.71,-19.2,40.51,-0.9,62202.0,0.02,0.91,0.1,-105.43,-20.85,-1.4,-19.2,40.51,1.05,0.0,0.0,0.0,0.0,0.0,0.0,0.0,0.0,0.0,0.0,0.0,0.0,0.0,0.0,0.0,0.0,0.0,0.0,0.0,0.0,0.0
,,124041.158241,4.417437553405762,0.0,0.0,0.0,0.0,0.0,0.0,0.0,0.0,0.0,0.0,0.0,62211.0,-0.01,0.92,0.12,-102.01,-32.93,-6.04,-18.75,39.16,0.15,62220.0,-0.03,1.03,0.11,-90.0,-41.04,-4.33,-18.3,41.71,0.3,0.0,0.0,0.0,0.0,0.0,0.0,0.0,0.0,0.0,0.0,0.0,0.0,0.0,0.0,0.0,0.0,0.0,0.0,0.0,0.0,0.0
,,124041.175844,4.435032367706299,0.0,0.0,0.0,0.0,0.0,0.0,0.0,0.0,0.0,0.0,0.0,62229.0,-0.04,1.08,0.05,-87.99,-47.56,8.05,-17.7,40.51,0.75,62238.0,-0.01,1.07,0.04,-95.18,-41.28,20.18,-18.15,40.51,0.15,0.0,0.0,0.0,0.0,0.0,0.0,0.0,0.0,0.0,0.0,0.0,0.0,0.0,0.0,0.0,0.0,0.0,0.0,0.0,0.0,0.0
,,124041.193755,4.452933311462402,0.0,0.0,0.0,0.0,0.0,0.0,0.0,0.0,0.0,0.0,0.0,62247.0,0.01,1.08,0.04,-98.54,-28.29,30.06,-18.0,40.66,0.9,62255.0,0.02,1.14,0.02,-87.99,-13.84,37.68,-18.0,40.66,0.9,0.0,0.0,0.0,0.0,0.0,0.0,0.0,0.0,0.0,0.0,0.0,0.0,0.0,0.0,0.0,0.0,0.0,0.0,0.0,0.0,0.0
,,124041.211421,4.470606327056885,0.0,0.0,0.0,0.0,0.0,0.0,0.0,0.0,0.0,0.0,0.0,62264.0,0.07,1.13,0.11,-64.21,0.43,43.78,-16.05,39.46,2.1,62273.0,0.09,1.07,0.15,-41.95,6.65,39.7,-17.55,40.66,1.35,0.0,0.0,0.0,0.0,0.0,0.0,0.0,0.0,0.0,0.0,0.0,0.0,0.0,0.0,0.0,0.0,0.0,0.0,0.0,0.0,0.0
,,124041.26012,4.51930832862854,0.0,0.0,0.0,0.0,0.0,0.0,0.0,0.0,0.0,0.0,0.0,62282.0,0.19,0.98,0.23,-30.0,8.29,33.78,-17.1,40.21,2.4,62322.0,0.13,0.92,0.17,-24.94,3.35,24.94,-14.25,42.01,5.85,0.0,0.0,0.0,0.0,0.0,0.0,0.0,0.0,0.0,0.0,0.0,0.0,0.0,0.0,0.0,0.0,0.0,0.0,0.0,0.0,0.0
,,124041.277676,4.5368733406066895,0.0,0.0,0.0,0.0,0.0,0.0,0.0,0.0,0.0,0.0,0.0,62331.0,0.15,0.81,0.08,-9.82,3.05,16.22,-15.0,42.61,5.1,62339.0,0.07,0.76,0.05,-15.12,12.13,-7.99,-15.0,41.26,5.55,0.0,0.0,0.0,0.0,0.0,0.0,0.0,0.0,0.0,0.0,0.0,0.0,0.0,0.0,0.0,0.0,0.0,0.0,0.0,0.0,0.0
,,124041.295469,4.554664611816406,0.0,0.0,0.0,0.0,0.0,0.0,0.0,0.0,0.0,0.0,0.0,62348.0,0.05,0.89,0.09,-47.87,19.82,-22.13,-14.85,42.16,7.65,62357.0,0.07,0.94,0.12,-80.24,19.51,-23.41,-13.95,40.96,7.2,0.0,0.0,0.0,0.0,0.0,0.0,0.0,0.0,0.0,0.0,0.0,0.0,0.0,0.0,0.0,0.0,0.0,0.0,0.0,0.0,0.0
,,124041.313437,4.572618722915649,0.0,0.0,0.0,0.0,0.0,0.0,0.0,0.0,0.0,0.0,0.0,62366.0,0.05,0.95,0.12,-99.45,14.94,-27.62,-14.85,41.11,7.35,62375.0,0.02,1.01,0.14,-113.96,12.26,-33.48,-14.85,41.11,7.35,0.0,0.0,0.0,0.0,0.0,0.0,0.0,0.0,0.0,0.0,0.0,0.0,0.0,0.0,0.0,0.0,0.0,0.0,0.0,0.0,0.0
