name,date,time,time_since_start,vicon_sequence,vicon_time_stamp,vicon_frame_id,vicon_child_frame_id,vicon_translation_x,vicon_translation_y,vicon_translation_z,vicon_rotation_x,vicon_rotation_y,vicon_rotation_z,vicon_rotation_w,int_imu_time_stamp,int_imu_acc_x,int_imu_acc_y,int_imu_acc_z,int_imu_gyro_x,int_imu_gyro_y,int_imu_gyro_z,int_imu_mag_x,int_imu_mag_y,int_imu_mag_z,ext_imu_time_stamp,ext_imu_acc_x,ext_imu_acc_y,ext_imu_acc_z,ext_imu_gyro_x,ext_imu_gyro_y,ext_imu_gyro_z,ext_imu_mag_x,ext_imu_mag_y,ext_imu_mag_z,dji_imu_sequence,dji_imu_time_stamp,dji_imu_frame_id,dji_imu_orientation_x,dji_imu_orientation_y,dji_imu_orientation_z,dji_imu_ang_vel_x,dji_imu_ang_vel_y,dji_imu_ang_vel_z,dji_imu_lin_acc_x,dji_imu_lin_acc_y,dji_imu_lin_acc_z,rc_sequence,rc_time_stamp,rc_frame_id,rc_roll,rc_pitch,rc_yaw,rc_throttle,rc_mode,rc_landing_gear
/home/wc18ny/Desktop/VibrationTest/data_formatlab.csv,20201015,90505.530145,6.866455078125e-05,0.0,0.0,0.0,0.0,0.0,0.0,0.0,0.0,0.0,0.0,0.0,1960747.0,0.04,0.01,-1.01,-1.28,-1.52,-0.24,15.15,30.31,-53.71,1960757.0,0.04,0.01,-1.02,-1.28,-1.59,-0.3,15.75,31.21,-52.96,0.0,0.0,0.0,0.0,0.0,0.0,0.0,0.0,0.0,0.0,0.0,0.0,0.0,0.0,0.0,0.0,0.0,0.0,0.0,0.0,0.0
,,90505.535175,0.005078554153442383,0.0,0.0,0.0,0.0,0.0,0.0,0.0,0.0,0.0,0.0,0.0,1960766.0,0.05,0.01,-1.01,-1.4,-1.52,-0.18,15.15,31.36,-54.46,1960776.0,0.04,0.0,-1.0,-1.28,-1.83,-0.18,15.9,30.01,-52.81,0.0,0.0,0.0,0.0,0.0,0.0,0.0,0.0,0.0,0.0,0.0,0.0,0.0,0.0,0.0,0.0,0.0,0.0,0.0,0.0,0.0
,,90505.554619,0.0245058536529541,0.0,0.0,0.0,0.0,0.0,0.0,0.0,0.0,0.0,0.0,0.0,1960785.0,0.04,0.0,-1.0,-1.34,-1.52,-0.18,15.3,32.26,-53.56,1960795.0,0.04,0.01,-1.02,-1.34,-1.71,-0.12,14.4,31.36,-53.41,0.0,0.0,0.0,0.0,0.0,0.0,0.0,0.0,0.0,0.0,0.0,0.0,0.0,0.0,0.0,0.0,0.0,0.0,0.0,0.0,0.0
,,90505.574278,0.044165611267089844,0.0,0.0,0.0,0.0,0.0,0.0,0.0,0.0,0.0,0.0,0.0,1960804.0,0.04,0.0,-1.0,-1.4,-1.71,-0.3,16.05,31.96,-53.26,1960814.0,0.03,0.0,-1.0,-1.28,-1.71,0.0,14.4,32.86,-54.16,0.0,0.0,0.0,0.0,0.0,0.0,0.0,0.0,0.0,0.0,0.0,0.0,0.0,0.0,0.0,0.0,0.0,0.0,0.0,0.0,0.0
,,90505.592966,0.06285405158996582,0.0,0.0,0.0,0.0,0.0,0.0,0.0,0.0,0.0,0.0,0.0,1960823.0,0.04,0.01,-1.01,-1.4,-1.59,-0.18,14.85,31.36,-54.16,1960832.0,0.04,0.0,-1.01,-1.4,-1.71,-0.18,14.7,32.26,-52.51,0.0,0.0,0.0,0.0,0.0,0.0,0.0,0.0,0.0,0.0,0.0,0.0,0.0,0.0,0.0,0.0,0.0,0.0,0.0,0.0,0.0
,,90505.61284,0.08272504806518555,0.0,0.0,0.0,0.0,0.0,0.0,0.0,0.0,0.0,0.0,0.0,1960842.0,0.04,0.01,-1.01,-1.46,-1.83,-0.12,15.15,32.11,-52.36,1960851.0,0.04,0.01,-1.02,-1.4,-1.65,-0.12,15.15,32.11,-52.36,0.0,0.0,0.0,0.0,0.0,0.0,0.0,0.0,0.0,0.0,0.0,0.0,0.0,0.0,0.0,0.0,0.0,0.0,0.0,0.0,0.0
,,90505.632652,0.10253667831420898,0.0,0.0,0.0,0.0,0.0,0.0,0.0,0.0,0.0,0.0,0.0,1960914.0,0.04,0.0,-1.01,-1.34,-1.65,-0.18,17.1,31.21,-50.86,1960923.0,0.04,-0.0,-1.0,-1.28,-1.65,-0.24,15.75,30.46,-52.96,0.0,0.0,0.0,0.0,0.0,0.0,0.0,0.0,0.0,0.0,0.0,0.0,0.0,0.0,0.0,0.0,0.0,0.0,0.0,0.0,0.0
,,90505.656849,0.1267850399017334,0.0,0.0,0.0,0.0,0.0,0.0,0.0,0.0,0.0,0.0,0.0,1960933.0,0.04,0.0,-1.01,-1.22,-1.65,-0.18,14.4,32.86,-53.41,1960942.0,0.03,0.01,-1.01,-1.28,-1.65,-0.12,14.4,31.81,-52.81,0.0,0.0,0.0,0.0,0.0,0.0,0.0,0.0,0.0,0.0,0.0,0.0,0.0,0.0,0.0,0.0,0.0,0.0,0.0,0.0,0.0
,,90505.675915,0.14583230018615723,0.0,0.0,0.0,0.0,0.0,0.0,0.0,0.0,0.0,0.0,0.0,1960952.0,0.04,0.0,-1.0,-1.28,-1.59,-0.18,16.05,32.56,-54.31,1960961.0,0.03,0.0,-1.0,-1.34,-1.71,-0.37,16.05,32.56,-54.31,0.0,0.0,0.0,0.0,0.0,0.0,0.0,0.0,0.0,0.0,0.0,0.0,0.0,0.0,0.0,0.0,0.0,0.0,0.0,0.0,0.0
,,90505.69607,0.16598844528198242,0.0,0.0,0.0,0.0,0.0,0.0,0.0,0.0,0.0,0.0,0.0,1960970.0,0.03,0.01,-1.01,-1.4,-1.71,-0.18,15.9,31.06,-54.76,1960980.0,0.04,-0.0,-1.01,-1.28,-1.71,-0.18,15.0,30.91,-55.96,0.0,0.0,0.0,0.0,0.0,0.0,0.0,0.0,0.0,0.0,0.0,0.0,0.0,0.0,0.0,0.0,0.0,0.0,0.0,0.0,0.0
,,90505.716407,0.1863255500793457,0.0,0.0,0.0,0.0,0.0,0.0,0.0,0.0,0.0,0.0,0.0,1960989.0,0.05,-0.0,-1.01,-1.28,-1.59,-0.24,15.3,33.01,-52.51,1960999.0,0.04,0.0,-1.02,-1.28,-1.71,-0.18,15.9,31.81,-52.36,0.0,0.0,0.0,0.0,0.0,0.0,0.0,0.0,0.0,0.0,0.0,0.0,0.0,0.0,0.0,0.0,0.0,0.0,0.0,0.0,0.0
,,90505.737322,0.20724129676818848,0.0,0.0,0.0,0.0,0.0,0.0,0.0,0.0,0.0,0.0,0.0,1961008.0,0.04,0.0,-1.01,-1.28,-1.65,-0.18,15.75,32.26,-53.86,1961018.0,0.04,0.0,-1.01,-1.34,-1.71,-0.18,15.75,30.91,-54.61,0.0,0.0,0.0,0.0,0.0,0.0,0.0,0.0,0.0,0.0,0.0,0.0,0.0,0.0,0.0,0.0,0.0,0.0,0.0,0.0,0.0
,,90505.753851,0.22374844551086426,0.0,0.0,0.0,0.0,0.0,0.0,0.0,0.0,0.0,0.0,0.0,1961027.0,0.04,0.01,-1.01,-1.28,-1.71,-0.37,15.45,31.36,-53.11,1961037.0,0.04,0.0,-1.01,-1.46,-1.71,-0.24,15.45,31.81,-52.81,0.0,0.0,0.0,0.0,0.0,0.0,0.0,0.0,0.0,0.0,0.0,0.0,0.0,0.0,0.0,0.0,0.0,0.0,0.0,0.0,0.0
,,90505.773148,0.24305033683776855,0.0,0.0,0.0,0.0,0.0,0.0,0.0,0.0,0.0,0.0,0.0,1961100.0,0.04,0.01,-1.01,-1.34,-1.71,-0.24,15.75,32.56,-52.96,1961110.0,0.04,-0.0,-1.0,-1.4,-1.77,-0.18,16.8,31.51,-53.56,0.0,0.0,0.0,0.0,0.0,0.0,0.0,0.0,0.0,0.0,0.0,0.0,0.0,0.0,0.0,0.0,0.0,0.0,0.0,0.0,0.0
,,90505.793408,0.26329779624938965,0.0,0.0,0.0,0.0,0.0,0.0,0.0,0.0,0.0,0.0,0.0,1961120.0,0.04,0.01,-1.0,-1.46,-1.65,-0.24,14.4,31.81,-54.46,1961130.0,0.04,0.01,-1.01,-1.4,-1.71,-0.18,15.0,31.21,-52.96,0.0,0.0,0.0,0.0,0.0,0.0,0.0,0.0,0.0,0.0,0.0,0.0,0.0,0.0,0.0,0.0,0.0,0.0,0.0,0.0,0.0
,,90505.813146,0.2830383777618408,0.0,0.0,0.0,0.0,0.0,0.0,0.0,0.0,0.0,0.0,0.0,1961140.0,0.05,0.01,-1.0,-1.34,-1.65,0.0,15.75,31.51,-54.91,1961150.0,0.04,0.02,-1.01,-1.46,-1.71,-0.24,15.15,31.81,-54.76,0.0,0.0,0.0,0.0,0.0,0.0,0.0,0.0,0.0,0.0,0.0,0.0,0.0,0.0,0.0,0.0,0.0,0.0,0.0,0.0,0.0
,,90505.834767,0.30469250679016113,0.0,0.0,0.0,0.0,0.0,0.0,0.0,0.0,0.0,0.0,0.0,1961160.0,0.04,0.01,-1.01,-1.34,-1.59,-0.18,13.8,32.11,-53.71,1961170.0,0.04,0.0,-1.01,-1.4,-1.83,-0.24,14.7,31.96,-51.91,0.0,0.0,0.0,0.0,0.0,0.0,0.0,0.0,0.0,0.0,0.0,0.0,0.0,0.0,0.0,0.0,0.0,0.0,0.0,0.0,0.0
,,90505.856773,0.3266904354095459,0.0,0.0,0.0,0.0,0.0,0.0,0.0,0.0,0.0,0.0,0.0,1961180.0,0.05,-0.0,-1.0,-1.34,-1.52,-0.18,15.75,30.91,-53.26,1961190.0,0.04,0.0,-1.01,-1.4,-1.71,-0.18,15.15,30.31,-54.16,0.0,0.0,0.0,0.0,0.0,0.0,0.0,0.0,0.0,0.0,0.0,0.0,0.0,0.0,0.0,0.0,0.0,0.0,0.0,0.0,0.0
,,90505.876938,0.34685420989990234,0.0,0.0,0.0,0.0,0.0,0.0,0.0,0.0,0.0,0.0,0.0,1961200.0,0.04,0.0,-1.0,-1.4,-1.65,-0.18,16.05,31.51,-53.56,1961210.0,0.04,0.01,-1.0,-1.4,-1.77,-0.18,15.9,31.06,-55.06,0.0,0.0,0.0,0.0,0.0,0.0,0.0,0.0,0.0,0.0,0.0,0.0,0.0,0.0,0.0,0.0,0.0,0.0,0.0,0.0,0.0
,,90505.893994,0.3638904094696045,0.0,0.0,0.0,0.0,0.0,0.0,0.0,0.0,0.0,0.0,0.0,1961220.0,0.04,0.01,-1.01,-1.4,-1.52,-0.24,14.4,31.81,-53.71,1961230.0,0.04,0.01,-1.02,-1.4,-1.65,-0.24,14.7,31.96,-53.86,0.0,0.0,0.0,0.0,0.0,0.0,0.0,0.0,0.0,0.0,0.0,0.0,0.0,0.0,0.0,0.0,0.0,0.0,0.0,0.0,0.0
,,90505.914005,0.38390254974365234,0.0,0.0,0.0,0.0,0.0,0.0,0.0,0.0,0.0,0.0,0.0,1961293.0,0.04,0.01,-1.01,-1.4,-1.65,-0.24,16.8,30.46,-52.21,1961303.0,0.04,0.0,-1.02,-1.34,-1.77,-0.24,14.25,31.96,-53.26,0.0,0.0,0.0,0.0,0.0,0.0,0.0,0.0,0.0,0.0,0.0,0.0,0.0,0.0,0.0,0.0,0.0,0.0,0.0,0.0,0.0
,,90505.934539,0.4044380187988281,0.0,0.0,0.0,0.0,0.0,0.0,0.0,0.0,0.0,0.0,0.0,1961313.0,0.03,0.01,-1.02,-1.28,-1.77,-0.3,14.4,31.06,-53.71,1961323.0,0.05,0.0,-1.01,-1.4,-1.77,-0.18,13.8,32.11,-54.46,0.0,0.0,0.0,0.0,0.0,0.0,0.0,0.0,0.0,0.0,0.0,0.0,0.0,0.0,0.0,0.0,0.0,0.0,0.0,0.0,0.0
,,90505.954147,0.4240419864654541,0.0,0.0,0.0,0.0,0.0,0.0,0.0,0.0,0.0,0.0,0.0,1961333.0,0.04,0.01,-1.0,-1.34,-1.65,-0.24,15.3,33.31,-53.26,1961343.0,0.04,0.01,-1.02,-1.34,-1.65,-0.12,15.45,31.36,-53.41,0.0,0.0,0.0,0.0,0.0,0.0,0.0,0.0,0.0,0.0,0.0,0.0,0.0,0.0,0.0,0.0,0.0,0.0,0.0,0.0,0.0
,,90505.9764,0.4463160037994385,0.0,0.0,0.0,0.0,0.0,0.0,0.0,0.0,0.0,0.0,0.0,1961353.0,0.04,0.0,-1.0,-1.4,-1.59,-0.3,14.7,31.96,-53.26,1961363.0,0.05,0.01,-1.03,-1.46,-1.59,-0.12,15.15,33.16,-51.76,0.0,0.0,0.0,0.0,0.0,0.0,0.0,0.0,0.0,0.0,0.0,0.0,0.0,0.0,0.0,0.0,0.0,0.0,0.0,0.0,0.0
,,90505.997844,0.4678027629852295,0.0,0.0,0.0,0.0,0.0,0.0,0.0,0.0,0.0,0.0,0.0,1961373.0,0.04,0.01,-1.01,-1.34,-1.77,-0.3,15.75,31.21,-53.86,1961383.0,0.04,0.01,-1.01,-1.4,-1.59,-0.18,15.0,31.21,-52.96,0.0,0.0,0.0,0.0,0.0,0.0,0.0,0.0,0.0,0.0,0.0,0.0,0.0,0.0,0.0,0.0,0.0,0.0,0.0,0.0,0.0
,,90506.015699,0.48560667037963867,0.0,0.0,0.0,0.0,0.0,0.0,0.0,0.0,0.0,0.0,0.0,1961393.0,0.04,-0.0,-1.03,-1.4,-1.71,-0.24,15.0,31.21,-54.61,1961403.0,0.04,0.0,-1.02,-1.22,-1.65,-0.18,16.05,33.01,-53.26,0.0,0.0,0.0,0.0,0.0,0.0,0.0,0.0,0.0,0.0,0.0,0.0,0.0,0.0,0.0,0.0,0.0,0.0,0.0,0.0,0.0
,,90506.033488,0.5033845901489258,0.0,0.0,0.0,0.0,0.0,0.0,0.0,0.0,0.0,0.0,0.0,1961413.0,0.03,0.01,-1.01,-1.34,-1.71,-0.12,14.85,32.41,-53.71,1961423.0,0.04,0.0,-1.02,-1.34,-1.52,-0.3,15.75,31.96,-52.96,0.0,0.0,0.0,0.0,0.0,0.0,0.0,0.0,0.0,0.0,0.0,0.0,0.0,0.0,0.0,0.0,0.0,0.0,0.0,0.0,0.0
,,90506.054001,0.5238997936248779,0.0,0.0,0.0,0.0,0.0,0.0,0.0,0.0,0.0,0.0,0.0,1961487.0,0.04,0.01,-1.0,-1.34,-1.71,-0.24,16.8,32.26,-51.61,1961497.0,0.04,0.01,-1.01,-1.4,-1.52,-0.18,16.8,31.21,-51.16,0.0,0.0,0.0,0.0,0.0,0.0,0.0,0.0,0.0,0.0,0.0,0.0,0.0,0.0,0.0,0.0,0.0,0.0,0.0,0.0,0.0
,,90506.07371,0.5436055660247803,0.0,0.0,0.0,0.0,0.0,0.0,0.0,0.0,0.0,0.0,0.0,1961507.0,0.04,0.01,-1.0,-1.34,-1.71,-0.37,15.0,30.91,-54.91,1961517.0,0.05,0.0,-1.0,-1.4,-1.59,-0.3,16.05,31.51,-54.61,0.0,0.0,0.0,0.0,0.0,0.0,0.0,0.0,0.0,0.0,0.0,0.0,0.0,0.0,0.0,0.0,0.0,0.0,0.0,0.0,0.0
,,90506.09745,0.5673694610595703,0.0,0.0,0.0,0.0,0.0,0.0,0.0,0.0,0.0,0.0,0.0,1961527.0,0.04,0.01,-1.01,-1.4,-1.65,-0.24,13.95,31.51,-53.86,1961537.0,0.04,0.01,-1.01,-1.22,-1.77,-0.24,14.4,32.86,-54.76,0.0,0.0,0.0,0.0,0.0,0.0,0.0,0.0,0.0,0.0,0.0,0.0,0.0,0.0,0.0,0.0,0.0,0.0,0.0,0.0,0.0
,,90506.116006,0.5859243869781494,0.0,0.0,0.0,0.0,0.0,0.0,0.0,0.0,0.0,0.0,0.0,1961547.0,0.04,0.0,-0.99,-1.28,-1.52,-0.24,15.15,33.16,-53.11,1961557.0,0.04,0.02,-1.02,-1.4,-1.65,-0.24,15.15,31.06,-54.16,0.0,0.0,0.0,0.0,0.0,0.0,0.0,0.0,0.0,0.0,0.0,0.0,0.0,0.0,0.0,0.0,0.0,0.0,0.0,0.0,0.0
,,90506.135869,0.6057984828948975,0.0,0.0,0.0,0.0,0.0,0.0,0.0,0.0,0.0,0.0,0.0,1961567.0,0.04,0.0,-1.03,-1.4,-1.71,-0.18,16.05,32.56,-53.56,1961577.0,0.04,0.01,-1.01,-1.4,-1.71,-0.24,15.3,31.51,-53.86,0.0,0.0,0.0,0.0,0.0,0.0,0.0,0.0,0.0,0.0,0.0,0.0,0.0,0.0,0.0,0.0,0.0,0.0,0.0,0.0,0.0
,,90506.15359,0.6234824657440186,0.0,0.0,0.0,0.0,0.0,0.0,0.0,0.0,0.0,0.0,0.0,1964461.0,0.04,0.01,-1.01,-1.34,-1.65,-0.18,15.15,32.11,-53.71,1964471.0,0.05,0.0,-1.01,-1.28,-1.65,-0.24,15.15,30.31,-54.46,0.0,0.0,0.0,0.0,0.0,0.0,0.0,0.0,0.0,0.0,0.0,0.0,0.0,0.0,0.0,0.0,0.0,0.0,0.0,0.0,0.0
,,90506.227573,0.6975092887878418,0.0,0.0,0.0,0.0,0.0,0.0,0.0,0.0,0.0,0.0,0.0,1964481.0,0.03,0.0,-1.02,-1.34,-1.71,-0.18,15.45,31.36,-54.16,1964544.0,0.04,0.0,-1.01,-1.4,-1.65,-0.18,16.35,32.26,-53.86,0.0,0.0,0.0,0.0,0.0,0.0,0.0,0.0,0.0,0.0,0.0,0.0,0.0,0.0,0.0,0.0,0.0,0.0,0.0,0.0,0.0
,,90506.247393,0.7173128128051758,0.0,0.0,0.0,0.0,0.0,0.0,0.0,0.0,0.0,0.0,0.0,1964554.0,0.03,-0.0,-1.01,-1.22,-1.65,-0.3,16.8,31.51,-54.31,1964564.0,0.04,0.0,-1.0,-1.28,-1.65,-0.24,14.85,30.31,-53.71,0.0,0.0,0.0,0.0,0.0,0.0,0.0,0.0,0.0,0.0,0.0,0.0,0.0,0.0,0.0,0.0,0.0,0.0,0.0,0.0,0.0
,,90506.267351,0.7372701168060303,0.0,0.0,0.0,0.0,0.0,0.0,0.0,0.0,0.0,0.0,0.0,1964574.0,0.03,0.0,-1.0,-1.34,-1.59,-0.24,15.0,30.46,-53.86,1964584.0,0.03,0.0,-1.02,-1.16,-1.59,-0.18,16.95,31.06,-53.41,0.0,0.0,0.0,0.0,0.0,0.0,0.0,0.0,0.0,0.0,0.0,0.0,0.0,0.0,0.0,0.0,0.0,0.0,0.0,0.0,0.0
,,90506.286843,0.7567403316497803,0.0,0.0,0.0,0.0,0.0,0.0,0.0,0.0,0.0,0.0,0.0,1964594.0,0.04,-0.0,-1.01,-1.4,-1.71,-0.18,15.75,31.51,-54.31,1964604.0,0.04,0.0,-1.02,-1.34,-1.83,-0.18,13.2,31.51,-53.86,0.0,0.0,0.0,0.0,0.0,0.0,0.0,0.0,0.0,0.0,0.0,0.0,0.0,0.0,0.0,0.0,0.0,0.0,0.0,0.0,0.0
,,90506.306802,0.7766995429992676,0.0,0.0,0.0,0.0,0.0,0.0,0.0,0.0,0.0,0.0,0.0,1964614.0,0.04,0.0,-1.0,-1.28,-1.71,-0.12,15.75,31.21,-53.56,1964624.0,0.04,0.01,-1.0,-1.4,-1.59,-0.18,16.05,31.96,-52.21,0.0,0.0,0.0,0.0,0.0,0.0,0.0,0.0,0.0,0.0,0.0,0.0,0.0,0.0,0.0,0.0,0.0,0.0,0.0,0.0,0.0
,,90506.327264,0.7971806526184082,0.0,0.0,0.0,0.0,0.0,0.0,0.0,0.0,0.0,0.0,0.0,1964634.0,0.03,0.0,-1.0,-1.4,-1.71,-0.18,14.7,31.96,-53.86,1964644.0,0.03,0.0,-1.01,-1.28,-1.59,-0.43,14.1,33.46,-53.41,0.0,0.0,0.0,0.0,0.0,0.0,0.0,0.0,0.0,0.0,0.0,0.0,0.0,0.0,0.0,0.0,0.0,0.0,0.0,0.0,0.0
,,90506.347384,0.8173208236694336,0.0,0.0,0.0,0.0,0.0,0.0,0.0,0.0,0.0,0.0,0.0,1964654.0,0.04,0.0,-1.01,-1.46,-1.71,-0.24,14.85,31.36,-53.11,1964664.0,0.05,0.01,-1.02,-1.4,-1.71,-0.24,13.95,31.21,-53.56,0.0,0.0,0.0,0.0,0.0,0.0,0.0,0.0,0.0,0.0,0.0,0.0,0.0,0.0,0.0,0.0,0.0,0.0,0.0,0.0,0.0
,,90506.48335,0.9532744884490967,0.0,0.0,0.0,0.0,0.0,0.0,0.0,0.0,0.0,0.0,0.0,1964674.0,0.04,0.01,-1.01,-1.4,-1.77,-0.24,15.45,32.41,-52.81,1964799.0,0.04,0.0,-1.02,-1.34,-1.71,-0.18,15.15,32.11,-53.41,0.0,0.0,0.0,0.0,0.0,0.0,0.0,0.0,0.0,0.0,0.0,0.0,0.0,0.0,0.0,0.0,0.0,0.0,0.0,0.0,0.0
,,90506.503824,0.9737503528594971,0.0,0.0,0.0,0.0,0.0,0.0,0.0,0.0,0.0,0.0,0.0,1964809.0,0.04,0.01,-1.01,-1.34,-1.52,-0.12,16.2,31.36,-52.81,1964819.0,0.05,-0.0,-1.01,-1.34,-1.65,-0.24,15.45,33.16,-53.71,0.0,0.0,0.0,0.0,0.0,0.0,0.0,0.0,0.0,0.0,0.0,0.0,0.0,0.0,0.0,0.0,0.0,0.0,0.0,0.0,0.0
,,90506.522879,0.9927999973297119,0.0,0.0,0.0,0.0,0.0,0.0,0.0,0.0,0.0,0.0,0.0,1964829.0,0.04,-0.0,-1.01,-1.28,-1.59,-0.18,16.35,32.26,-52.96,1964839.0,0.05,0.0,-1.02,-1.34,-1.65,-0.24,15.3,32.56,-52.51,0.0,0.0,0.0,0.0,0.0,0.0,0.0,0.0,0.0,0.0,0.0,0.0,0.0,0.0,0.0,0.0,0.0,0.0,0.0,0.0,0.0
,,90506.54315,1.013073444366455,0.0,0.0,0.0,0.0,0.0,0.0,0.0,0.0,0.0,0.0,0.0,1964849.0,0.04,0.0,-1.02,-1.34,-1.59,-0.18,13.95,32.56,-53.26,1964859.0,0.04,0.0,-1.01,-1.28,-1.65,-0.12,15.45,32.11,-53.71,0.0,0.0,0.0,0.0,0.0,0.0,0.0,0.0,0.0,0.0,0.0,0.0,0.0,0.0,0.0,0.0,0.0,0.0,0.0,0.0,0.0
,,90506.563065,1.0329899787902832,0.0,0.0,0.0,0.0,0.0,0.0,0.0,0.0,0.0,0.0,0.0,1964869.0,0.04,0.01,-1.01,-1.34,-1.65,-0.24,15.3,31.51,-52.96,1964879.0,0.04,0.01,-1.01,-1.22,-1.77,-0.12,15.75,32.56,-55.36,0.0,0.0,0.0,0.0,0.0,0.0,0.0,0.0,0.0,0.0,0.0,0.0,0.0,0.0,0.0,0.0,0.0,0.0,0.0,0.0,0.0
,,90506.583647,1.0535953044891357,0.0,0.0,0.0,0.0,0.0,0.0,0.0,0.0,0.0,0.0,0.0,1964889.0,0.04,0.01,-1.01,-1.34,-1.71,-0.12,16.5,31.36,-53.11,1964899.0,0.04,-0.01,-1.0,-1.22,-1.59,-0.18,15.0,33.76,-53.86,0.0,0.0,0.0,0.0,0.0,0.0,0.0,0.0,0.0,0.0,0.0,0.0,0.0,0.0,0.0,0.0,0.0,0.0,0.0,0.0,0.0
,,90506.603346,1.073258876800537,0.0,0.0,0.0,0.0,0.0,0.0,0.0,0.0,0.0,0.0,0.0,1964909.0,0.05,0.01,-1.02,-1.22,-1.71,-0.18,15.0,32.26,-53.56,1964919.0,0.03,0.0,-1.01,-1.4,-1.65,-0.3,15.45,32.11,-53.71,0.0,0.0,0.0,0.0,0.0,0.0,0.0,0.0,0.0,0.0,0.0,0.0,0.0,0.0,0.0,0.0,0.0,0.0,0.0,0.0,0.0
,,90506.675604,1.1455247402191162,0.0,0.0,0.0,0.0,0.0,0.0,0.0,0.0,0.0,0.0,0.0,1964929.0,0.04,0.01,-1.0,-1.4,-1.59,-0.18,14.85,33.91,-53.11,1964992.0,0.04,0.01,-1.01,-1.34,-1.59,-0.18,15.9,30.76,-52.36,0.0,0.0,0.0,0.0,0.0,0.0,0.0,0.0,0.0,0.0,0.0,0.0,0.0,0.0,0.0,0.0,0.0,0.0,0.0,0.0,0.0
,,90506.694351,1.1642680168151855,0.0,0.0,0.0,0.0,0.0,0.0,0.0,0.0,0.0,0.0,0.0,1965001.0,0.03,0.01,-1.0,-1.34,-1.65,-0.24,14.85,32.11,-53.11,1965011.0,0.04,0.0,-1.02,-1.46,-1.77,0.0,14.7,31.96,-53.86,0.0,0.0,0.0,0.0,0.0,0.0,0.0,0.0,0.0,0.0,0.0,0.0,0.0,0.0,0.0,0.0,0.0,0.0,0.0,0.0,0.0
,,90506.713271,1.1832010746002197,0.0,0.0,0.0,0.0,0.0,0.0,0.0,0.0,0.0,0.0,0.0,1965020.0,0.04,0.0,-1.0,-1.34,-1.65,0.0,15.3,31.96,-54.91,1965029.0,0.04,0.01,-1.01,-1.4,-1.77,-0.24,16.05,32.56,-54.31,0.0,0.0,0.0,0.0,0.0,0.0,0.0,0.0,0.0,0.0,0.0,0.0,0.0,0.0,0.0,0.0,0.0,0.0,0.0,0.0,0.0
,,90506.731704,1.201610803604126,0.0,0.0,0.0,0.0,0.0,0.0,0.0,0.0,0.0,0.0,0.0,1965039.0,0.05,0.0,-1.01,-1.4,-1.46,-0.12,15.3,32.26,-53.56,1965048.0,0.04,-0.0,-1.02,-1.34,-1.59,-0.12,14.7,32.56,-53.26,0.0,0.0,0.0,0.0,0.0,0.0,0.0,0.0,0.0,0.0,0.0,0.0,0.0,0.0,0.0,0.0,0.0,0.0,0.0,0.0,0.0
,,90506.750104,1.2199962139129639,0.0,0.0,0.0,0.0,0.0,0.0,0.0,0.0,0.0,0.0,0.0,1965058.0,0.04,0.01,-1.01,-1.22,-1.65,-0.24,14.7,32.56,-53.26,1965067.0,0.04,0.01,-1.01,-1.34,-1.65,-0.18,15.15,32.11,-53.71,0.0,0.0,0.0,0.0,0.0,0.0,0.0,0.0,0.0,0.0,0.0,0.0,0.0,0.0,0.0,0.0,0.0,0.0,0.0,0.0,0.0
,,90506.770245,1.240166425704956,0.0,0.0,0.0,0.0,0.0,0.0,0.0,0.0,0.0,0.0,0.0,1965077.0,0.05,0.0,-1.02,-1.4,-1.59,-0.18,15.75,30.46,-52.96,1965086.0,0.04,0.0,-1.0,-1.34,-1.65,-0.18,15.15,31.06,-53.41,0.0,0.0,0.0,0.0,0.0,0.0,0.0,0.0,0.0,0.0,0.0,0.0,0.0,0.0,0.0,0.0,0.0,0.0,0.0,0.0,0.0
,,90506.78875,1.2586631774902344,0.0,0.0,0.0,0.0,0.0,0.0,0.0,0.0,0.0,0.0,0.0,1965096.0,0.04,0.0,-1.01,-1.34,-1.52,-0.3,14.1,31.06,-55.06,1965105.0,0.03,0.01,-1.0,-1.34,-1.59,-0.18,15.3,31.96,-53.86,0.0,0.0,0.0,0.0,0.0,0.0,0.0,0.0,0.0,0.0,0.0,0.0,0.0,0.0,0.0,0.0,0.0,0.0,0.0,0.0,0.0
,,90506.861669,1.3315742015838623,0.0,0.0,0.0,0.0,0.0,0.0,0.0,0.0,0.0,0.0,0.0,1965115.0,0.04,0.01,-1.01,-1.34,-1.65,-0.18,15.3,30.91,-52.51,1965178.0,0.03,0.0,-1.0,-1.34,-1.71,-0.12,16.05,31.21,-52.51,0.0,0.0,0.0,0.0,0.0,0.0,0.0,0.0,0.0,0.0,0.0,0.0,0.0,0.0,0.0,0.0,0.0,0.0,0.0,0.0,0.0
,,90506.880468,1.350365400314331,0.0,0.0,0.0,0.0,0.0,0.0,0.0,0.0,0.0,0.0,0.0,1965188.0,0.05,0.0,-1.0,-1.46,-1.59,-0.24,14.7,31.21,-52.51,1965197.0,0.05,-0.0,-1.01,-1.4,-1.65,-0.24,14.7,31.21,-54.31,0.0,0.0,0.0,0.0,0.0,0.0,0.0,0.0,0.0,0.0,0.0,0.0,0.0,0.0,0.0,0.0,0.0,0.0,0.0,0.0,0.0
,,90506.899274,1.3691706657409668,0.0,0.0,0.0,0.0,0.0,0.0,0.0,0.0,0.0,0.0,0.0,1965207.0,0.04,0.01,-1.01,-1.34,-1.65,-0.18,15.45,32.41,-53.11,1965216.0,0.04,0.01,-1.02,-1.46,-1.59,-0.18,15.0,32.56,-53.56,0.0,0.0,0.0,0.0,0.0,0.0,0.0,0.0,0.0,0.0,0.0,0.0,0.0,0.0,0.0,0.0,0.0,0.0,0.0,0.0,0.0
,,90506.918588,1.3885040283203125,0.0,0.0,0.0,0.0,0.0,0.0,0.0,0.0,0.0,0.0,0.0,1965226.0,0.04,0.01,-1.01,-1.34,-1.65,-0.18,15.0,32.56,-52.51,1965235.0,0.04,0.01,-1.01,-1.4,-1.59,-0.18,15.3,29.86,-53.86,0.0,0.0,0.0,0.0,0.0,0.0,0.0,0.0,0.0,0.0,0.0,0.0,0.0,0.0,0.0,0.0,0.0,0.0,0.0,0.0,0.0
,,90506.937668,1.4075908660888672,0.0,0.0,0.0,0.0,0.0,0.0,0.0,0.0,0.0,0.0,0.0,1965245.0,0.05,0.01,-1.02,-1.46,-1.65,-0.18,14.1,31.06,-54.46,1965254.0,0.04,0.01,-1.01,-1.34,-1.71,-0.18,15.15,30.76,-53.41,0.0,0.0,0.0,0.0,0.0,0.0,0.0,0.0,0.0,0.0,0.0,0.0,0.0,0.0,0.0,0.0,0.0,0.0,0.0,0.0,0.0
,,90506.956775,1.426692008972168,0.0,0.0,0.0,0.0,0.0,0.0,0.0,0.0,0.0,0.0,0.0,1965263.0,0.04,0.01,-1.01,-1.28,-1.65,-0.3,14.85,31.36,-53.11,1965273.0,0.04,0.01,-1.01,-1.34,-1.71,-0.24,14.85,31.36,-53.11,0.0,0.0,0.0,0.0,0.0,0.0,0.0,0.0,0.0,0.0,0.0,0.0,0.0,0.0,0.0,0.0,0.0,0.0,0.0,0.0,0.0
,,90506.975651,1.4455671310424805,0.0,0.0,0.0,0.0,0.0,0.0,0.0,0.0,0.0,0.0,0.0,1965282.0,0.05,0.01,-1.0,-1.4,-1.59,-0.18,16.05,31.51,-52.21,1965292.0,0.03,-0.0,-1.01,-1.4,-1.59,-0.18,14.4,31.06,-54.16,0.0,0.0,0.0,0.0,0.0,0.0,0.0,0.0,0.0,0.0,0.0,0.0,0.0,0.0,0.0,0.0,0.0,0.0,0.0,0.0,0.0
,,90507.048601,1.518524408340454,0.0,0.0,0.0,0.0,0.0,0.0,0.0,0.0,0.0,0.0,0.0,1965301.0,0.04,0.01,-0.99,-1.34,-1.59,-0.3,14.85,31.36,-53.71,1965365.0,0.04,-0.0,-1.01,-1.22,-1.65,-0.18,15.45,33.16,-52.36,0.0,0.0,0.0,0.0,0.0,0.0,0.0,0.0,0.0,0.0,0.0,0.0,0.0,0.0,0.0,0.0,0.0,0.0,0.0,0.0,0.0
,,90507.067678,1.5376205444335938,0.0,0.0,0.0,0.0,0.0,0.0,0.0,0.0,0.0,0.0,0.0,1965374.0,0.04,0.01,-1.0,-1.4,-1.65,-0.24,15.0,29.86,-53.86,1965383.0,0.04,-0.0,-1.0,-1.16,-1.71,-0.24,15.45,31.06,-53.41,0.0,0.0,0.0,0.0,0.0,0.0,0.0,0.0,0.0,0.0,0.0,0.0,0.0,0.0,0.0,0.0,0.0,0.0,0.0,0.0,0.0
,,90507.086407,1.5563545227050781,0.0,0.0,0.0,0.0,0.0,0.0,0.0,0.0,0.0,0.0,0.0,1965393.0,0.04,0.01,-1.01,-1.46,-1.59,-0.18,16.5,31.36,-52.36,1965402.0,0.04,0.0,-1.01,-1.34,-1.65,-0.18,15.0,32.56,-54.61,0.0,0.0,0.0,0.0,0.0,0.0,0.0,0.0,0.0,0.0,0.0,0.0,0.0,0.0,0.0,0.0,0.0,0.0,0.0,0.0,0.0
,,90507.105276,1.575192928314209,0.0,0.0,0.0,0.0,0.0,0.0,0.0,0.0,0.0,0.0,0.0,1965412.0,0.05,0.0,-1.02,-1.28,-1.65,-0.12,15.15,32.41,-53.71,1965421.0,0.04,0.01,-1.01,-1.4,-1.65,-0.12,14.7,31.96,-53.56,0.0,0.0,0.0,0.0,0.0,0.0,0.0,0.0,0.0,0.0,0.0,0.0,0.0,0.0,0.0,0.0,0.0,0.0,0.0,0.0,0.0
,,90507.124071,1.593977451324463,0.0,0.0,0.0,0.0,0.0,0.0,0.0,0.0,0.0,0.0,0.0,1965431.0,0.05,0.01,-1.02,-1.28,-1.65,-0.3,15.15,32.41,-54.16,1965440.0,0.04,0.0,-1.01,-1.4,-1.77,-0.18,15.0,32.26,-52.51,0.0,0.0,0.0,0.0,0.0,0.0,0.0,0.0,0.0,0.0,0.0,0.0,0.0,0.0,0.0,0.0,0.0,0.0,0.0,0.0,0.0
,,90507.143471,1.6134064197540283,0.0,0.0,0.0,0.0,0.0,0.0,0.0,0.0,0.0,0.0,0.0,1965450.0,0.05,0.01,-1.01,-1.4,-1.59,-0.24,15.15,32.86,-53.11,1965459.0,0.04,-0.0,-1.01,-1.4,-1.65,-0.12,15.45,31.06,-54.76,0.0,0.0,0.0,0.0,0.0,0.0,0.0,0.0,0.0,0.0,0.0,0.0,0.0,0.0,0.0,0.0,0.0,0.0,0.0,0.0,0.0
,,90507.162177,1.6320972442626953,0.0,0.0,0.0,0.0,0.0,0.0,0.0,0.0,0.0,0.0,0.0,1965469.0,0.03,0.01,-1.02,-1.4,-1.59,-0.18,16.2,31.36,-53.71,1965478.0,0.04,0.0,-1.02,-1.34,-1.59,-0.3,14.4,31.06,-54.16,0.0,0.0,0.0,0.0,0.0,0.0,0.0,0.0,0.0,0.0,0.0,0.0,0.0,0.0,0.0,0.0,0.0,0.0,0.0,0.0,0.0
,,90507.236605,1.7065277099609375,0.0,0.0,0.0,0.0,0.0,0.0,0.0,0.0,0.0,0.0,0.0,1965488.0,0.04,-0.0,-1.0,-1.4,-1.71,-0.24,15.15,31.81,-53.11,1965552.0,0.03,0.0,-1.01,-1.4,-1.71,-0.24,16.8,32.26,-52.51,0.0,0.0,0.0,0.0,0.0,0.0,0.0,0.0,0.0,0.0,0.0,0.0,0.0,0.0,0.0,0.0,0.0,0.0,0.0,0.0,0.0
,,90507.256003,1.7259037494659424,0.0,0.0,0.0,0.0,0.0,0.0,0.0,0.0,0.0,0.0,0.0,1965562.0,0.05,0.0,-1.0,-1.4,-1.59,-0.3,14.85,31.36,-53.71,1965572.0,0.04,0.01,-1.02,-1.28,-1.52,-0.3,14.25,31.96,-53.56,0.0,0.0,0.0,0.0,0.0,0.0,0.0,0.0,0.0,0.0,0.0,0.0,0.0,0.0,0.0,0.0,0.0,0.0,0.0,0.0,0.0
,,90507.276013,1.7459123134613037,0.0,0.0,0.0,0.0,0.0,0.0,0.0,0.0,0.0,0.0,0.0,1965582.0,0.04,0.01,-1.02,-1.46,-1.65,-0.18,15.3,32.56,-53.26,1965592.0,0.04,-0.0,-1.02,-1.34,-1.77,-0.24,15.75,32.26,-53.86,0.0,0.0,0.0,0.0,0.0,0.0,0.0,0.0,0.0,0.0,0.0,0.0,0.0,0.0,0.0,0.0,0.0,0.0,0.0,0.0,0.0
,,90507.297135,1.7670705318450928,0.0,0.0,0.0,0.0,0.0,0.0,0.0,0.0,0.0,0.0,0.0,1965602.0,0.04,0.01,-1.01,-1.4,-1.59,-0.24,15.45,31.81,-52.81,1965612.0,0.04,0.01,-1.03,-1.4,-1.59,-0.12,15.45,32.11,-54.16,0.0,0.0,0.0,0.0,0.0,0.0,0.0,0.0,0.0,0.0,0.0,0.0,0.0,0.0,0.0,0.0,0.0,0.0,0.0,0.0,0.0
,,90507.316497,1.7864136695861816,0.0,0.0,0.0,0.0,0.0,0.0,0.0,0.0,0.0,0.0,0.0,1965622.0,0.04,0.01,-1.0,-1.22,-1.65,-0.24,14.4,32.11,-53.11,1965632.0,0.04,0.0,-1.02,-1.46,-1.71,-0.24,15.45,31.06,-54.46,0.0,0.0,0.0,0.0,0.0,0.0,0.0,0.0,0.0,0.0,0.0,0.0,0.0,0.0,0.0,0.0,0.0,0.0,0.0,0.0,0.0
,,90507.336393,1.8063194751739502,0.0,0.0,0.0,0.0,0.0,0.0,0.0,0.0,0.0,0.0,0.0,1965642.0,0.03,0.01,-1.01,-1.28,-1.71,-0.3,15.0,31.51,-53.26,1965652.0,0.04,0.01,-1.0,-1.34,-1.71,-0.3,15.45,31.81,-53.11,0.0,0.0,0.0,0.0,0.0,0.0,0.0,0.0,0.0,0.0,0.0,0.0,0.0,0.0,0.0,0.0,0.0,0.0,0.0,0.0,0.0
,,90507.356479,1.8263945579528809,0.0,0.0,0.0,0.0,0.0,0.0,0.0,0.0,0.0,0.0,0.0,1965662.0,0.04,0.0,-0.99,-1.34,-1.77,-0.18,16.35,31.96,-53.86,1965672.0,0.04,0.0,-1.0,-1.34,-1.77,-0.18,14.4,32.41,-52.81,0.0,0.0,0.0,0.0,0.0,0.0,0.0,0.0,0.0,0.0,0.0,0.0,0.0,0.0,0.0,0.0,0.0,0.0,0.0,0.0,0.0
,,90507.430324,1.9002337455749512,0.0,0.0,0.0,0.0,0.0,0.0,0.0,0.0,0.0,0.0,0.0,1965682.0,0.04,-0.0,-1.02,-1.4,-1.65,-0.24,15.15,31.36,-52.81,1965746.0,0.04,0.0,-1.01,-1.34,-1.71,-0.3,16.35,31.21,-51.61,0.0,0.0,0.0,0.0,0.0,0.0,0.0,0.0,0.0,0.0,0.0,0.0,0.0,0.0,0.0,0.0,0.0,0.0,0.0,0.0,0.0
,,90507.450886,1.9208102226257324,0.0,0.0,0.0,0.0,0.0,0.0,0.0,0.0,0.0,0.0,0.0,1965756.0,0.04,0.01,-1.0,-1.34,-1.59,-0.18,16.35,31.21,-52.96,1965766.0,0.05,0.01,-1.01,-1.28,-1.71,-0.12,14.85,32.86,-53.11,0.0,0.0,0.0,0.0,0.0,0.0,0.0,0.0,0.0,0.0,0.0,0.0,0.0,0.0,0.0,0.0,0.0,0.0,0.0,0.0,0.0
,,90507.470814,1.9407367706298828,0.0,0.0,0.0,0.0,0.0,0.0,0.0,0.0,0.0,0.0,0.0,1965776.0,0.04,0.01,-1.02,-1.4,-1.59,-0.18,15.0,30.91,-52.21,1965786.0,0.05,0.01,-1.01,-1.4,-1.65,-0.18,15.3,30.91,-54.31,0.0,0.0,0.0,0.0,0.0,0.0,0.0,0.0,0.0,0.0,0.0,0.0,0.0,0.0,0.0,0.0,0.0,0.0,0.0,0.0,0.0
,,90507.490569,1.960493803024292,0.0,0.0,0.0,0.0,0.0,0.0,0.0,0.0,0.0,0.0,0.0,1965796.0,0.03,0.01,-1.0,-1.28,-1.65,-0.24,15.75,31.51,-53.86,1965806.0,0.04,0.01,-1.0,-1.4,-1.59,-0.18,14.85,31.06,-53.41,0.0,0.0,0.0,0.0,0.0,0.0,0.0,0.0,0.0,0.0,0.0,0.0,0.0,0.0,0.0,0.0,0.0,0.0,0.0,0.0,0.0
,,90507.50986,1.9797773361206055,0.0,0.0,0.0,0.0,0.0,0.0,0.0,0.0,0.0,0.0,0.0,1965816.0,0.04,0.01,-1.0,-1.28,-1.65,-0.12,15.15,32.41,-53.41,1965826.0,0.05,-0.0,-1.01,-1.28,-1.65,-0.24,14.25,31.21,-53.86,0.0,0.0,0.0,0.0,0.0,0.0,0.0,0.0,0.0,0.0,0.0,0.0,0.0,0.0,0.0,0.0,0.0,0.0,0.0,0.0,0.0
,,90507.529705,1.9995975494384766,0.0,0.0,0.0,0.0,0.0,0.0,0.0,0.0,0.0,0.0,0.0,1965836.0,0.04,0.01,-1.03,-1.4,-1.65,-0.18,15.9,31.06,-54.46,1965846.0,0.04,0.0,-1.02,-1.34,-1.59,-0.12,16.2,31.81,-53.71,0.0,0.0,0.0,0.0,0.0,0.0,0.0,0.0,0.0,0.0,0.0,0.0,0.0,0.0,0.0,0.0,0.0,0.0,0.0,0.0,0.0
,,90507.550807,2.02073073387146,0.0,0.0,0.0,0.0,0.0,0.0,0.0,0.0,0.0,0.0,0.0,1965856.0,0.04,0.0,-1.01,-1.4,-1.59,-0.3,15.45,30.31,-53.11,1965866.0,0.04,0.01,-1.02,-1.34,-1.65,-0.18,14.25,31.51,-52.96,0.0,0.0,0.0,0.0,0.0,0.0,0.0,0.0,0.0,0.0,0.0,0.0,0.0,0.0,0.0,0.0,0.0,0.0,0.0,0.0,0.0
,,90507.626558,2.0965027809143066,0.0,0.0,0.0,0.0,0.0,0.0,0.0,0.0,0.0,0.0,0.0,1965876.0,0.04,0.01,-1.0,-1.34,-1.65,-0.18,15.9,33.16,-52.06,1965941.0,0.04,0.01,-1.0,-1.46,-1.65,-0.24,15.15,31.36,-52.06,0.0,0.0,0.0,0.0,0.0,0.0,0.0,0.0,0.0,0.0,0.0,0.0,0.0,0.0,0.0,0.0,0.0,0.0,0.0,0.0,0.0
,,90507.645087,2.114982843399048,0.0,0.0,0.0,0.0,0.0,0.0,0.0,0.0,0.0,0.0,0.0,1965951.0,0.05,-0.0,-1.01,-1.4,-1.71,-0.24,17.25,32.86,-52.36,1965961.0,0.05,0.0,-1.01,-1.4,-1.65,-0.24,15.0,30.46,-53.86,0.0,0.0,0.0,0.0,0.0,0.0,0.0,0.0,0.0,0.0,0.0,0.0,0.0,0.0,0.0,0.0,0.0,0.0,0.0,0.0,0.0
,,90507.665016,2.1349146366119385,0.0,0.0,0.0,0.0,0.0,0.0,0.0,0.0,0.0,0.0,0.0,1965971.0,0.04,0.01,-1.02,-1.28,-1.65,-0.18,16.2,30.01,-54.16,1965981.0,0.05,0.01,-1.0,-1.28,-1.59,-0.24,15.3,33.31,-54.61,0.0,0.0,0.0,0.0,0.0,0.0,0.0,0.0,0.0,0.0,0.0,0.0,0.0,0.0,0.0,0.0,0.0,0.0,0.0,0.0,0.0
,,90507.685226,2.1551296710968018,0.0,0.0,0.0,0.0,0.0,0.0,0.0,0.0,0.0,0.0,0.0,1965991.0,0.04,0.0,-1.0,-1.34,-1.59,-0.24,14.85,32.11,-54.76,1966001.0,0.04,0.0,-1.01,-1.28,-1.71,-0.18,14.25,32.26,-53.56,0.0,0.0,0.0,0.0,0.0,0.0,0.0,0.0,0.0,0.0,0.0,0.0,0.0,0.0,0.0,0.0,0.0,0.0,0.0,0.0,0.0
,,90507.705116,2.175020694732666,0.0,0.0,0.0,0.0,0.0,0.0,0.0,0.0,0.0,0.0,0.0,1966011.0,0.04,0.0,-1.0,-1.34,-1.71,-0.24,16.5,30.76,-54.76,1966021.0,0.05,0.01,-1.02,-1.4,-1.59,-0.24,14.4,32.41,-53.41,0.0,0.0,0.0,0.0,0.0,0.0,0.0,0.0,0.0,0.0,0.0,0.0,0.0,0.0,0.0,0.0,0.0,0.0,0.0,0.0,0.0
,,90507.725247,2.19515061378479,0.0,0.0,0.0,0.0,0.0,0.0,0.0,0.0,0.0,0.0,0.0,1966031.0,0.04,0.0,-1.01,-1.52,-1.59,-0.18,15.75,30.91,-54.31,1966041.0,0.04,0.01,-1.0,-1.46,-1.71,-0.24,15.45,32.41,-51.76,0.0,0.0,0.0,0.0,0.0,0.0,0.0,0.0,0.0,0.0,0.0,0.0,0.0,0.0,0.0,0.0,0.0,0.0,0.0,0.0,0.0
,,90507.745664,2.215590238571167,0.0,0.0,0.0,0.0,0.0,0.0,0.0,0.0,0.0,0.0,0.0,1966051.0,0.04,0.0,-1.01,-1.34,-1.71,-0.24,15.45,32.11,-53.11,1966061.0,0.04,0.0,-1.01,-1.4,-1.59,-0.18,17.1,32.26,-54.61,0.0,0.0,0.0,0.0,0.0,0.0,0.0,0.0,0.0,0.0,0.0,0.0,0.0,0.0,0.0,0.0,0.0,0.0,0.0,0.0,0.0
,,90507.887915,2.3578131198883057,0.0,0.0,0.0,0.0,0.0,0.0,0.0,0.0,0.0,0.0,0.0,1966071.0,0.05,0.01,-1.01,-1.28,-1.52,-0.18,15.15,31.36,-54.16,1966203.0,0.05,0.01,-1.02,-1.34,-1.65,-0.12,15.45,32.41,-54.16,0.0,0.0,0.0,0.0,0.0,0.0,0.0,0.0,0.0,0.0,0.0,0.0,0.0,0.0,0.0,0.0,0.0,0.0,0.0,0.0,0.0
,,90507.90729,2.3771839141845703,0.0,0.0,0.0,0.0,0.0,0.0,0.0,0.0,0.0,0.0,0.0,1966213.0,0.03,0.01,-1.02,-1.28,-1.71,-0.24,15.45,30.76,-53.41,1966223.0,0.04,0.0,-1.02,-1.28,-1.71,-0.24,13.8,30.76,-54.76,0.0,0.0,0.0,0.0,0.0,0.0,0.0,0.0,0.0,0.0,0.0,0.0,0.0,0.0,0.0,0.0,0.0,0.0,0.0,0.0,0.0
,,90507.927215,2.3971080780029297,0.0,0.0,0.0,0.0,0.0,0.0,0.0,0.0,0.0,0.0,0.0,1966233.0,0.04,0.0,-1.01,-1.28,-1.71,-0.24,16.35,31.96,-52.96,1966243.0,0.04,0.0,-1.02,-1.4,-1.65,-0.12,14.4,31.81,-53.41,0.0,0.0,0.0,0.0,0.0,0.0,0.0,0.0,0.0,0.0,0.0,0.0,0.0,0.0,0.0,0.0,0.0,0.0,0.0,0.0,0.0
,,90507.947602,2.4175052642822266,0.0,0.0,0.0,0.0,0.0,0.0,0.0,0.0,0.0,0.0,0.0,1966253.0,0.05,-0.0,-1.0,-1.34,-1.65,-0.24,16.05,32.26,-53.86,1966263.0,0.04,0.01,-1.0,-1.34,-1.59,-0.24,15.9,31.36,-52.81,0.0,0.0,0.0,0.0,0.0,0.0,0.0,0.0,0.0,0.0,0.0,0.0,0.0,0.0,0.0,0.0,0.0,0.0,0.0,0.0,0.0
,,90507.967677,2.4375998973846436,0.0,0.0,0.0,0.0,0.0,0.0,0.0,0.0,0.0,0.0,0.0,1966273.0,0.04,0.01,-1.02,-1.46,-1.71,-0.18,16.5,31.06,-54.16,1966283.0,0.05,0.0,-1.0,-1.28,-1.83,0.0,16.35,32.26,-52.21,0.0,0.0,0.0,0.0,0.0,0.0,0.0,0.0,0.0,0.0,0.0,0.0,0.0,0.0,0.0,0.0,0.0,0.0,0.0,0.0,0.0
,,90507.98815,2.4580819606781006,0.0,0.0,0.0,0.0,0.0,0.0,0.0,0.0,0.0,0.0,0.0,1966293.0,0.04,0.0,-1.01,-1.28,-1.71,-0.18,15.15,30.01,-53.71,1966303.0,0.04,0.01,-1.02,-1.52,-1.71,-0.18,14.85,31.81,-54.76,0.0,0.0,0.0,0.0,0.0,0.0,0.0,0.0,0.0,0.0,0.0,0.0,0.0,0.0,0.0,0.0,0.0,0.0,0.0,0.0,0.0
,,90508.008366,2.478304862976074,0.0,0.0,0.0,0.0,0.0,0.0,0.0,0.0,0.0,0.0,0.0,1966313.0,0.05,0.01,-1.01,-1.34,-1.77,-0.18,14.25,30.91,-53.86,1966323.0,0.05,0.0,-0.99,-1.28,-1.77,0.0,14.7,32.56,-52.51,0.0,0.0,0.0,0.0,0.0,0.0,0.0,0.0,0.0,0.0,0.0,0.0,0.0,0.0,0.0,0.0,0.0,0.0,0.0,0.0,0.0
,,90508.082091,2.5520098209381104,0.0,0.0,0.0,0.0,0.0,0.0,0.0,0.0,0.0,0.0,0.0,1966332.0,0.05,0.0,-1.01,-1.4,-1.71,-0.24,15.3,30.91,-53.86,1966397.0,0.03,0.01,-1.01,-1.4,-1.65,-0.3,17.25,31.81,-51.76,0.0,0.0,0.0,0.0,0.0,0.0,0.0,0.0,0.0,0.0,0.0,0.0,0.0,0.0,0.0,0.0,0.0,0.0,0.0,0.0,0.0
,,90508.101246,2.571181297302246,0.0,0.0,0.0,0.0,0.0,0.0,0.0,0.0,0.0,0.0,0.0,1966407.0,0.04,0.0,-1.02,-1.22,-1.71,-0.18,15.45,32.41,-53.11,1966416.0,0.04,0.01,-1.02,-1.4,-1.71,-0.24,16.5,31.81,-53.71,0.0,0.0,0.0,0.0,0.0,0.0,0.0,0.0,0.0,0.0,0.0,0.0,0.0,0.0,0.0,0.0,0.0,0.0,0.0,0.0,0.0
,,90508.120325,2.590254306793213,0.0,0.0,0.0,0.0,0.0,0.0,0.0,0.0,0.0,0.0,0.0,1966426.0,0.03,0.01,-1.01,-1.4,-1.59,0.0,16.8,32.26,-53.86,1966435.0,0.05,0.01,-1.02,-1.22,-1.65,-0.24,13.95,31.21,-53.56,0.0,0.0,0.0,0.0,0.0,0.0,0.0,0.0,0.0,0.0,0.0,0.0,0.0,0.0,0.0,0.0,0.0,0.0,0.0,0.0,0.0
,,90508.138875,2.6087968349456787,0.0,0.0,0.0,0.0,0.0,0.0,0.0,0.0,0.0,0.0,0.0,1966445.0,0.05,0.01,-1.01,-1.34,-1.77,-0.12,14.85,31.81,-54.76,1966454.0,0.03,0.01,-1.01,-1.34,-1.71,-0.24,15.45,31.06,-53.41,0.0,0.0,0.0,0.0,0.0,0.0,0.0,0.0,0.0,0.0,0.0,0.0,0.0,0.0,0.0,0.0,0.0,0.0,0.0,0.0,0.0
,,90508.157463,2.627371072769165,0.0,0.0,0.0,0.0,0.0,0.0,0.0,0.0,0.0,0.0,0.0,1966463.0,0.04,0.0,-1.01,-1.34,-1.71,-0.24,15.0,31.96,-54.91,1966473.0,0.03,0.01,-1.01,-1.34,-1.71,-0.18,16.8,32.56,-53.56,0.0,0.0,0.0,0.0,0.0,0.0,0.0,0.0,0.0,0.0,0.0,0.0,0.0,0.0,0.0,0.0,0.0,0.0,0.0,0.0,0.0
,,90508.176646,2.6465535163879395,0.0,0.0,0.0,0.0,0.0,0.0,0.0,0.0,0.0,0.0,0.0,1966482.0,0.05,0.0,-1.01,-1.34,-1.59,-0.18,15.75,31.96,-53.86,1966492.0,0.04,-0.0,-1.02,-1.34,-1.59,-0.24,15.3,30.91,-53.56,0.0,0.0,0.0,0.0,0.0,0.0,0.0,0.0,0.0,0.0,0.0,0.0,0.0,0.0,0.0,0.0,0.0,0.0,0.0,0.0,0.0
,,90508.195667,2.6655900478363037,0.0,0.0,0.0,0.0,0.0,0.0,0.0,0.0,0.0,0.0,0.0,1966501.0,0.04,0.0,-1.02,-1.46,-1.77,-0.24,15.3,30.91,-53.56,1966511.0,0.04,0.0,-1.0,-1.34,-1.71,-0.3,17.25,31.36,-53.11,0.0,0.0,0.0,0.0,0.0,0.0,0.0,0.0,0.0,0.0,0.0,0.0,0.0,0.0,0.0,0.0,0.0,0.0,0.0,0.0,0.0
,,90508.269414,2.739332675933838,0.0,0.0,0.0,0.0,0.0,0.0,0.0,0.0,0.0,0.0,0.0,1966520.0,0.03,0.0,-1.01,-1.34,-1.71,-0.24,14.25,30.46,-52.96,1966585.0,0.05,0.01,-1.0,-1.46,-1.71,-0.37,15.75,30.91,-51.91,0.0,0.0,0.0,0.0,0.0,0.0,0.0,0.0,0.0,0.0,0.0,0.0,0.0,0.0,0.0,0.0,0.0,0.0,0.0,0.0,0.0
,,90508.287901,2.75780987739563,0.0,0.0,0.0,0.0,0.0,0.0,0.0,0.0,0.0,0.0,0.0,1966594.0,0.04,0.01,-1.01,-1.4,-1.65,-0.3,16.05,31.51,-53.26,1966603.0,0.04,0.01,-1.01,-1.34,-1.65,-0.24,16.35,32.26,-52.96,0.0,0.0,0.0,0.0,0.0,0.0,0.0,0.0,0.0,0.0,0.0,0.0,0.0,0.0,0.0,0.0,0.0,0.0,0.0,0.0,0.0
,,90508.306737,2.776630163192749,0.0,0.0,0.0,0.0,0.0,0.0,0.0,0.0,0.0,0.0,0.0,1966613.0,0.04,0.0,-1.01,-1.28,-1.65,-0.18,16.35,32.56,-53.86,1966622.0,0.04,0.0,-1.01,-1.4,-1.65,-0.12,14.4,31.36,-53.71,0.0,0.0,0.0,0.0,0.0,0.0,0.0,0.0,0.0,0.0,0.0,0.0,0.0,0.0,0.0,0.0,0.0,0.0,0.0,0.0,0.0
,,90508.326046,2.7959439754486084,0.0,0.0,0.0,0.0,0.0,0.0,0.0,0.0,0.0,0.0,0.0,1966632.0,0.04,0.01,-1.02,-1.4,-1.71,-0.12,15.15,32.11,-53.11,1966641.0,0.05,0.01,-1.01,-1.28,-1.59,-0.24,15.15,32.11,-53.11,0.0,0.0,0.0,0.0,0.0,0.0,0.0,0.0,0.0,0.0,0.0,0.0,0.0,0.0,0.0,0.0,0.0,0.0,0.0,0.0,0.0
,,90508.345382,2.815314769744873,0.0,0.0,0.0,0.0,0.0,0.0,0.0,0.0,0.0,0.0,0.0,1966651.0,0.05,0.01,-1.0,-1.34,-1.52,-0.3,16.8,32.56,-52.96,1966660.0,0.03,-0.0,-1.01,-1.46,-1.59,-0.18,15.45,30.76,-52.81,0.0,0.0,0.0,0.0,0.0,0.0,0.0,0.0,0.0,0.0,0.0,0.0,0.0,0.0,0.0,0.0,0.0,0.0,0.0,0.0,0.0
,,90508.364279,2.834203004837036,0.0,0.0,0.0,0.0,0.0,0.0,0.0,0.0,0.0,0.0,0.0,1966670.0,0.04,0.01,-1.01,-1.28,-1.71,-0.12,15.45,32.41,-54.16,1966679.0,0.03,-0.0,-1.0,-1.4,-1.65,-0.3,16.5,32.11,-53.11,0.0,0.0,0.0,0.0,0.0,0.0,0.0,0.0,0.0,0.0,0.0,0.0,0.0,0.0,0.0,0.0,0.0,0.0,0.0,0.0,0.0
,,90508.383354,2.8532726764678955,0.0,0.0,0.0,0.0,0.0,0.0,0.0,0.0,0.0,0.0,0.0,1966689.0,0.04,0.01,-1.01,-1.34,-1.59,-0.24,14.4,31.06,-53.41,1966698.0,0.04,0.0,-1.01,-1.34,-1.65,-0.24,14.85,31.36,-53.11,0.0,0.0,0.0,0.0,0.0,0.0,0.0,0.0,0.0,0.0,0.0,0.0,0.0,0.0,0.0,0.0,0.0,0.0,0.0,0.0,0.0
,,90508.458296,2.928218364715576,0.0,0.0,0.0,0.0,0.0,0.0,0.0,0.0,0.0,0.0,0.0,1966708.0,0.04,0.01,-1.01,-1.4,-1.71,-0.18,14.7,32.56,-52.21,1966773.0,0.04,-0.0,-1.02,-1.28,-1.65,-0.24,15.9,31.06,-52.81,0.0,0.0,0.0,0.0,0.0,0.0,0.0,0.0,0.0,0.0,0.0,0.0,0.0,0.0,0.0,0.0,0.0,0.0,0.0,0.0,0.0
,,90508.477149,2.94707989692688,0.0,0.0,0.0,0.0,0.0,0.0,0.0,0.0,0.0,0.0,0.0,1966782.0,0.04,0.01,-1.0,-1.46,-1.59,-0.24,16.35,31.51,-52.96,1966792.0,0.03,0.01,-1.01,-1.4,-1.65,0.0,15.45,33.46,-53.71,0.0,0.0,0.0,0.0,0.0,0.0,0.0,0.0,0.0,0.0,0.0,0.0,0.0,0.0,0.0,0.0,0.0,0.0,0.0,0.0,0.0
,,90508.495958,2.9658920764923096,0.0,0.0,0.0,0.0,0.0,0.0,0.0,0.0,0.0,0.0,0.0,1966801.0,0.04,0.0,-1.0,-1.4,-1.71,-0.18,15.45,33.46,-53.71,1966811.0,0.04,0.01,-1.0,-1.34,-1.65,-0.3,14.25,31.51,-54.91,0.0,0.0,0.0,0.0,0.0,0.0,0.0,0.0,0.0,0.0,0.0,0.0,0.0,0.0,0.0,0.0,0.0,0.0,0.0,0.0,0.0
,,90508.515079,2.9850151538848877,0.0,0.0,0.0,0.0,0.0,0.0,0.0,0.0,0.0,0.0,0.0,1966820.0,0.05,0.0,-1.02,-1.28,-1.65,-0.24,16.5,32.41,-55.51,1966830.0,0.04,0.01,-1.01,-1.34,-1.65,-0.18,16.95,32.86,-53.41,0.0,0.0,0.0,0.0,0.0,0.0,0.0,0.0,0.0,0.0,0.0,0.0,0.0,0.0,0.0,0.0,0.0,0.0,0.0,0.0,0.0
,,90508.533229,3.003129005432129,0.0,0.0,0.0,0.0,0.0,0.0,0.0,0.0,0.0,0.0,0.0,1966839.0,0.04,0.01,-1.0,-1.46,-1.65,-0.12,16.35,32.26,-54.31,1966849.0,0.04,0.01,-1.01,-1.34,-1.52,-0.18,14.85,32.41,-53.71,0.0,0.0,0.0,0.0,0.0,0.0,0.0,0.0,0.0,0.0,0.0,0.0,0.0,0.0,0.0,0.0,0.0,0.0,0.0,0.0,0.0
,,90508.551852,3.0217573642730713,0.0,0.0,0.0,0.0,0.0,0.0,0.0,0.0,0.0,0.0,0.0,1966858.0,0.04,0.01,-1.02,-1.28,-1.71,-0.37,16.2,32.86,-53.11,1966868.0,0.04,0.01,-0.99,-1.34,-1.52,0.0,15.3,32.26,-54.31,0.0,0.0,0.0,0.0,0.0,0.0,0.0,0.0,0.0,0.0,0.0,0.0,0.0,0.0,0.0,0.0,0.0,0.0,0.0,0.0,0.0
,,90508.57078,3.0406718254089355,0.0,0.0,0.0,0.0,0.0,0.0,0.0,0.0,0.0,0.0,0.0,1966877.0,0.04,0.01,-1.01,-1.4,-1.59,-0.24,14.7,31.51,-52.96,1966886.0,0.05,0.0,-1.0,-1.34,-1.46,-0.12,13.95,30.46,-54.31,0.0,0.0,0.0,0.0,0.0,0.0,0.0,0.0,0.0,0.0,0.0,0.0,0.0,0.0,0.0,0.0,0.0,0.0,0.0,0.0,0.0
,,90508.644409,3.1143317222595215,0.0,0.0,0.0,0.0,0.0,0.0,0.0,0.0,0.0,0.0,0.0,1966896.0,0.04,0.0,-1.01,-1.28,-1.65,-0.24,15.75,32.56,-52.21,1966959.0,0.04,0.0,-1.02,-1.34,-1.65,-0.12,17.1,31.21,-53.56,0.0,0.0,0.0,0.0,0.0,0.0,0.0,0.0,0.0,0.0,0.0,0.0,0.0,0.0,0.0,0.0,0.0,0.0,0.0,0.0,0.0
,,90508.664421,3.134345531463623,0.0,0.0,0.0,0.0,0.0,0.0,0.0,0.0,0.0,0.0,0.0,1966969.0,0.05,0.0,-1.03,-1.4,-1.65,-0.12,16.05,32.26,-52.21,1966979.0,0.04,-0.0,-1.0,-1.34,-1.52,-0.18,15.0,30.91,-53.56,0.0,0.0,0.0,0.0,0.0,0.0,0.0,0.0,0.0,0.0,0.0,0.0,0.0,0.0,0.0,0.0,0.0,0.0,0.0,0.0,0.0
,,90508.683487,3.1533758640289307,0.0,0.0,0.0,0.0,0.0,0.0,0.0,0.0,0.0,0.0,0.0,1966989.0,0.03,0.01,-1.01,-1.4,-1.65,-0.18,14.85,32.41,-53.11,1966999.0,0.04,0.01,-1.01,-1.22,-1.65,-0.18,14.85,31.06,-54.16,0.0,0.0,0.0,0.0,0.0,0.0,0.0,0.0,0.0,0.0,0.0,0.0,0.0,0.0,0.0,0.0,0.0,0.0,0.0,0.0,0.0
,,90508.703529,3.17341685295105,0.0,0.0,0.0,0.0,0.0,0.0,0.0,0.0,0.0,0.0,0.0,1967009.0,0.04,0.01,-1.01,-1.4,-1.71,-0.24,15.0,32.26,-53.26,1967019.0,0.04,0.0,-1.0,-1.4,-1.65,-0.24,15.15,31.36,-54.16,0.0,0.0,0.0,0.0,0.0,0.0,0.0,0.0,0.0,0.0,0.0,0.0,0.0,0.0,0.0,0.0,0.0,0.0,0.0,0.0,0.0
,,90508.723487,3.193375587463379,0.0,0.0,0.0,0.0,0.0,0.0,0.0,0.0,0.0,0.0,0.0,1967029.0,0.04,0.0,-1.01,-1.4,-1.65,-0.18,14.85,31.06,-54.16,1967039.0,0.03,0.01,-1.02,-1.34,-1.65,-0.12,15.15,31.81,-53.71,0.0,0.0,0.0,0.0,0.0,0.0,0.0,0.0,0.0,0.0,0.0,0.0,0.0,0.0,0.0,0.0,0.0,0.0,0.0,0.0,0.0
,,90508.743933,3.213843822479248,0.0,0.0,0.0,0.0,0.0,0.0,0.0,0.0,0.0,0.0,0.0,1967049.0,0.04,0.01,-1.0,-1.22,-1.65,-0.18,16.35,31.51,-52.96,1967059.0,0.04,0.0,-1.01,-1.34,-1.59,-0.18,15.9,32.11,-54.46,0.0,0.0,0.0,0.0,0.0,0.0,0.0,0.0,0.0,0.0,0.0,0.0,0.0,0.0,0.0,0.0,0.0,0.0,0.0,0.0,0.0
,,90508.765002,3.2349319458007812,0.0,0.0,0.0,0.0,0.0,0.0,0.0,0.0,0.0,0.0,0.0,1967069.0,0.04,0.0,-1.01,-1.34,-1.65,-0.12,15.75,31.51,-54.31,1967079.0,0.04,0.01,-1.01,-1.16,-1.71,-0.18,13.35,30.31,-54.46,0.0,0.0,0.0,0.0,0.0,0.0,0.0,0.0,0.0,0.0,0.0,0.0,0.0,0.0,0.0,0.0,0.0,0.0,0.0,0.0,0.0
,,90508.838268,3.308211088180542,0.0,0.0,0.0,0.0,0.0,0.0,0.0,0.0,0.0,0.0,0.0,1967089.0,0.04,0.0,-1.01,-1.28,-1.65,-0.18,15.0,32.26,-54.61,1967153.0,0.04,0.0,-1.01,-1.34,-1.65,-0.3,16.35,31.21,-54.31,0.0,0.0,0.0,0.0,0.0,0.0,0.0,0.0,0.0,0.0,0.0,0.0,0.0,0.0,0.0,0.0,0.0,0.0,0.0,0.0,0.0
,,90508.858234,3.328158378601074,0.0,0.0,0.0,0.0,0.0,0.0,0.0,0.0,0.0,0.0,0.0,1967163.0,0.04,-0.0,-1.01,-1.28,-1.59,-0.24,15.15,31.06,-53.41,1967173.0,0.04,0.0,-1.0,-1.34,-1.71,-0.24,15.45,30.31,-53.41,0.0,0.0,0.0,0.0,0.0,0.0,0.0,0.0,0.0,0.0,0.0,0.0,0.0,0.0,0.0,0.0,0.0,0.0,0.0,0.0,0.0
,,90508.878497,3.3484208583831787,0.0,0.0,0.0,0.0,0.0,0.0,0.0,0.0,0.0,0.0,0.0,1967183.0,0.04,-0.0,-1.02,-1.28,-1.65,-0.12,16.05,31.96,-53.86,1967193.0,0.05,0.01,-1.0,-1.22,-1.71,-0.24,15.9,31.36,-53.71,0.0,0.0,0.0,0.0,0.0,0.0,0.0,0.0,0.0,0.0,0.0,0.0,0.0,0.0,0.0,0.0,0.0,0.0,0.0,0.0,0.0
,,90508.898054,3.367971181869507,0.0,0.0,0.0,0.0,0.0,0.0,0.0,0.0,0.0,0.0,0.0,1967203.0,0.04,0.0,-1.0,-1.34,-1.59,-0.18,15.45,31.81,-54.76,1967213.0,0.04,0.0,-1.02,-1.28,-1.59,-0.18,15.9,31.81,-52.81,0.0,0.0,0.0,0.0,0.0,0.0,0.0,0.0,0.0,0.0,0.0,0.0,0.0,0.0,0.0,0.0,0.0,0.0,0.0,0.0,0.0
,,90508.918117,3.3880372047424316,0.0,0.0,0.0,0.0,0.0,0.0,0.0,0.0,0.0,0.0,0.0,1967223.0,0.04,0.0,-1.02,-1.4,-1.65,-0.18,14.7,29.86,-54.61,1967233.0,0.04,0.01,-1.01,-1.28,-1.65,-0.24,14.7,30.46,-53.56,0.0,0.0,0.0,0.0,0.0,0.0,0.0,0.0,0.0,0.0,0.0,0.0,0.0,0.0,0.0,0.0,0.0,0.0,0.0,0.0,0.0
,,90508.938199,3.4081332683563232,0.0,0.0,0.0,0.0,0.0,0.0,0.0,0.0,0.0,0.0,0.0,1967243.0,0.03,0.0,-1.01,-1.34,-1.65,-0.18,15.9,32.41,-53.41,1967253.0,0.04,0.01,-1.0,-1.34,-1.71,-0.18,15.15,32.86,-53.11,0.0,0.0,0.0,0.0,0.0,0.0,0.0,0.0,0.0,0.0,0.0,0.0,0.0,0.0,0.0,0.0,0.0,0.0,0.0,0.0,0.0
,,90508.958173,3.428091049194336,0.0,0.0,0.0,0.0,0.0,0.0,0.0,0.0,0.0,0.0,0.0,1967263.0,0.04,0.0,-1.0,-1.34,-1.52,-0.18,15.0,31.96,-53.56,1967273.0,0.03,0.0,-1.01,-1.4,-1.52,-0.24,15.15,32.11,-53.41,0.0,0.0,0.0,0.0,0.0,0.0,0.0,0.0,0.0,0.0,0.0,0.0,0.0,0.0,0.0,0.0,0.0,0.0,0.0,0.0,0.0
,,90509.03135,3.5012717247009277,0.0,0.0,0.0,0.0,0.0,0.0,0.0,0.0,0.0,0.0,0.0,1967283.0,0.04,0.0,-1.02,-1.28,-1.71,-0.24,15.9,32.41,-53.11,1967346.0,0.04,0.01,-1.01,-1.28,-1.65,-0.18,16.35,32.56,-51.91,0.0,0.0,0.0,0.0,0.0,0.0,0.0,0.0,0.0,0.0,0.0,0.0,0.0,0.0,0.0,0.0,0.0,0.0,0.0,0.0,0.0
,,90509.051648,3.5215871334075928,0.0,0.0,0.0,0.0,0.0,0.0,0.0,0.0,0.0,0.0,0.0,1967356.0,0.04,0.01,-1.0,-1.28,-1.65,-0.18,16.2,32.11,-53.71,1967366.0,0.04,0.01,-1.01,-1.28,-1.65,-0.24,15.0,32.56,-54.61,0.0,0.0,0.0,0.0,0.0,0.0,0.0,0.0,0.0,0.0,0.0,0.0,0.0,0.0,0.0,0.0,0.0,0.0,0.0,0.0,0.0
,,90509.071331,3.541252613067627,0.0,0.0,0.0,0.0,0.0,0.0,0.0,0.0,0.0,0.0,0.0,1967376.0,0.04,0.01,-0.99,-1.46,-1.65,-0.24,15.0,31.21,-53.56,1967386.0,0.05,0.0,-1.0,-1.34,-1.65,-0.18,14.7,30.91,-53.86,0.0,0.0,0.0,0.0,0.0,0.0,0.0,0.0,0.0,0.0,0.0,0.0,0.0,0.0,0.0,0.0,0.0,0.0,0.0,0.0,0.0
,,90509.090621,3.560529947280884,0.0,0.0,0.0,0.0,0.0,0.0,0.0,0.0,0.0,0.0,0.0,1967396.0,0.04,0.01,-1.01,-1.4,-1.59,-0.24,17.1,30.46,-53.26,1967406.0,0.03,0.01,-1.01,-1.4,-1.71,-0.18,15.0,30.91,-54.61,0.0,0.0,0.0,0.0,0.0,0.0,0.0,0.0,0.0,0.0,0.0,0.0,0.0,0.0,0.0,0.0,0.0,0.0,0.0,0.0,0.0
,,90509.110475,3.580369472503662,0.0,0.0,0.0,0.0,0.0,0.0,0.0,0.0,0.0,0.0,0.0,1967416.0,0.04,0.01,-1.01,-1.4,-1.65,-0.18,16.05,31.96,-51.91,1967426.0,0.04,0.01,-1.0,-1.34,-1.65,-0.12,15.45,31.06,-53.11,0.0,0.0,0.0,0.0,0.0,0.0,0.0,0.0,0.0,0.0,0.0,0.0,0.0,0.0,0.0,0.0,0.0,0.0,0.0,0.0,0.0
,,90509.131526,3.6014583110809326,0.0,0.0,0.0,0.0,0.0,0.0,0.0,0.0,0.0,0.0,0.0,1967436.0,0.04,0.0,-1.0,-1.28,-1.71,-0.24,15.0,31.96,-53.56,1967446.0,0.04,-0.0,-1.01,-1.4,-1.65,-0.18,15.15,32.86,-51.76,0.0,0.0,0.0,0.0,0.0,0.0,0.0,0.0,0.0,0.0,0.0,0.0,0.0,0.0,0.0,0.0,0.0,0.0,0.0,0.0,0.0
,,90509.151275,3.621192455291748,0.0,0.0,0.0,0.0,0.0,0.0,0.0,0.0,0.0,0.0,0.0,1967456.0,0.04,-0.0,-1.01,-1.34,-1.71,-0.24,14.7,32.56,-53.86,1967466.0,0.04,0.01,-1.01,-1.46,-1.65,-0.24,14.85,32.11,-54.46,0.0,0.0,0.0,0.0,0.0,0.0,0.0,0.0,0.0,0.0,0.0,0.0,0.0,0.0,0.0,0.0,0.0,0.0,0.0,0.0,0.0
,,90509.28831,3.758232355117798,0.0,0.0,0.0,0.0,0.0,0.0,0.0,0.0,0.0,0.0,0.0,1967476.0,0.04,0.01,-1.02,-1.34,-1.59,-0.12,15.45,32.41,-54.46,1967602.0,0.05,0.01,-1.02,-1.16,-1.59,-0.24,16.05,31.96,-53.26,0.0,0.0,0.0,0.0,0.0,0.0,0.0,0.0,0.0,0.0,0.0,0.0,0.0,0.0,0.0,0.0,0.0,0.0,0.0,0.0,0.0
,,90509.308323,3.7782440185546875,0.0,0.0,0.0,0.0,0.0,0.0,0.0,0.0,0.0,0.0,0.0,1967612.0,0.04,0.02,-1.01,-1.28,-1.65,-0.24,16.05,30.91,-53.26,1967622.0,0.04,0.01,-1.0,-1.22,-1.52,-0.24,15.0,32.56,-52.96,0.0,0.0,0.0,0.0,0.0,0.0,0.0,0.0,0.0,0.0,0.0,0.0,0.0,0.0,0.0,0.0,0.0,0.0,0.0,0.0,0.0
,,90509.328434,3.7983717918395996,0.0,0.0,0.0,0.0,0.0,0.0,0.0,0.0,0.0,0.0,0.0,1967632.0,0.04,0.0,-1.01,-1.34,-1.65,-0.24,15.75,32.26,-54.31,1967642.0,0.04,0.0,-1.01,-1.28,-1.65,-0.24,15.9,31.06,-52.81,0.0,0.0,0.0,0.0,0.0,0.0,0.0,0.0,0.0,0.0,0.0,0.0,0.0,0.0,0.0,0.0,0.0,0.0,0.0,0.0,0.0
,,90509.348108,3.818040370941162,0.0,0.0,0.0,0.0,0.0,0.0,0.0,0.0,0.0,0.0,0.0,1967652.0,0.04,-0.0,-1.01,-1.34,-1.71,-0.24,15.0,32.26,-53.56,1967662.0,0.05,0.0,-1.02,-1.52,-1.71,-0.18,14.1,31.36,-53.41,0.0,0.0,0.0,0.0,0.0,0.0,0.0,0.0,0.0,0.0,0.0,0.0,0.0,0.0,0.0,0.0,0.0,0.0,0.0,0.0,0.0
,,90509.368095,3.838014602661133,0.0,0.0,0.0,0.0,0.0,0.0,0.0,0.0,0.0,0.0,0.0,1967672.0,0.04,0.01,-1.0,-1.34,-1.65,-0.43,14.25,31.51,-53.56,1967682.0,0.04,0.01,-1.01,-1.34,-1.71,-0.24,16.8,31.96,-53.86,0.0,0.0,0.0,0.0,0.0,0.0,0.0,0.0,0.0,0.0,0.0,0.0,0.0,0.0,0.0,0.0,0.0,0.0,0.0,0.0,0.0
,,90509.388065,3.8579814434051514,0.0,0.0,0.0,0.0,0.0,0.0,0.0,0.0,0.0,0.0,0.0,1967692.0,0.04,0.01,-1.01,-1.28,-1.83,-0.18,16.8,32.26,-53.86,1967702.0,0.04,0.0,-1.01,-1.28,-1.65,-0.24,16.2,32.41,-52.81,0.0,0.0,0.0,0.0,0.0,0.0,0.0,0.0,0.0,0.0,0.0,0.0,0.0,0.0,0.0,0.0,0.0,0.0,0.0,0.0,0.0
,,90509.40806,3.877979278564453,0.0,0.0,0.0,0.0,0.0,0.0,0.0,0.0,0.0,0.0,0.0,1967712.0,0.04,0.01,-1.0,-1.28,-1.71,-0.24,15.0,31.51,-53.86,1967722.0,0.04,0.01,-1.01,-1.4,-1.46,-0.37,15.3,33.01,-52.51,0.0,0.0,0.0,0.0,0.0,0.0,0.0,0.0,0.0,0.0,0.0,0.0,0.0,0.0,0.0,0.0,0.0,0.0,0.0,0.0,0.0
,,90509.476985,3.9469213485717773,0.0,0.0,0.0,0.0,0.0,0.0,0.0,0.0,0.0,0.0,0.0,1967732.0,0.04,0.0,-1.01,-1.28,-1.71,-0.24,15.15,33.91,-53.11,1967791.0,0.04,0.0,-1.01,-1.34,-1.59,-0.24,15.75,31.51,-50.86,0.0,0.0,0.0,0.0,0.0,0.0,0.0,0.0,0.0,0.0,0.0,0.0,0.0,0.0,0.0,0.0,0.0,0.0,0.0,0.0,0.0
,,90509.496297,3.966219663619995,0.0,0.0,0.0,0.0,0.0,0.0,0.0,0.0,0.0,0.0,0.0,1967800.0,0.05,0.01,-1.01,-1.4,-1.71,-0.12,15.75,31.51,-50.86,1967810.0,0.03,0.01,-1.02,-1.28,-1.59,-0.24,15.75,32.26,-54.61,0.0,0.0,0.0,0.0,0.0,0.0,0.0,0.0,0.0,0.0,0.0,0.0,0.0,0.0,0.0,0.0,0.0,0.0,0.0,0.0,0.0
,,90509.514883,3.984818458557129,0.0,0.0,0.0,0.0,0.0,0.0,0.0,0.0,0.0,0.0,0.0,1967819.0,0.04,-0.0,-1.01,-1.34,-1.59,-0.24,15.9,31.81,-53.71,1967829.0,0.04,0.01,-1.01,-1.34,-1.65,-0.18,14.4,31.81,-53.71,0.0,0.0,0.0,0.0,0.0,0.0,0.0,0.0,0.0,0.0,0.0,0.0,0.0,0.0,0.0,0.0,0.0,0.0,0.0,0.0,0.0
,,90509.533965,4.003886461257935,0.0,0.0,0.0,0.0,0.0,0.0,0.0,0.0,0.0,0.0,0.0,1967838.0,0.04,0.0,-1.01,-1.28,-1.59,-0.18,16.35,32.26,-53.86,1967848.0,0.04,0.0,-1.01,-1.4,-1.71,-0.12,16.35,31.21,-53.86,0.0,0.0,0.0,0.0,0.0,0.0,0.0,0.0,0.0,0.0,0.0,0.0,0.0,0.0,0.0,0.0,0.0,0.0,0.0,0.0,0.0
,,90509.552192,4.022085189819336,0.0,0.0,0.0,0.0,0.0,0.0,0.0,0.0,0.0,0.0,0.0,1967857.0,0.04,0.01,-1.02,-1.28,-1.71,-0.24,15.9,31.81,-55.06,1967867.0,0.03,0.0,-1.02,-1.46,-1.65,-0.3,15.15,30.76,-53.41,0.0,0.0,0.0,0.0,0.0,0.0,0.0,0.0,0.0,0.0,0.0,0.0,0.0,0.0,0.0,0.0,0.0,0.0,0.0,0.0,0.0
,,90509.571841,4.041766166687012,0.0,0.0,0.0,0.0,0.0,0.0,0.0,0.0,0.0,0.0,0.0,1967876.0,0.03,0.0,-1.02,-1.28,-1.65,-0.18,15.15,31.81,-52.81,1967886.0,0.04,0.01,-1.0,-1.28,-1.77,-0.24,15.0,31.96,-53.86,0.0,0.0,0.0,0.0,0.0,0.0,0.0,0.0,0.0,0.0,0.0,0.0,0.0,0.0,0.0,0.0,0.0,0.0,0.0,0.0,0.0
,,90509.591101,4.06102180480957,0.0,0.0,0.0,0.0,0.0,0.0,0.0,0.0,0.0,0.0,0.0,1967895.0,0.03,0.01,-1.01,-1.34,-1.71,-0.24,15.3,31.96,-53.86,1967905.0,0.03,0.0,-1.01,-1.34,-1.59,-0.12,14.7,30.46,-53.26,0.0,0.0,0.0,0.0,0.0,0.0,0.0,0.0,0.0,0.0,0.0,0.0,0.0,0.0,0.0,0.0,0.0,0.0,0.0,0.0,0.0
,,90509.662955,4.132876396179199,0.0,0.0,0.0,0.0,0.0,0.0,0.0,0.0,0.0,0.0,0.0,1967914.0,0.04,0.01,-1.0,-1.34,-1.52,-0.18,15.75,31.51,-53.56,1967977.0,0.04,0.01,-1.01,-1.34,-1.65,-0.24,17.4,33.01,-50.26,0.0,0.0,0.0,0.0,0.0,0.0,0.0,0.0,0.0,0.0,0.0,0.0,0.0,0.0,0.0,0.0,0.0,0.0,0.0,0.0,0.0
,,90509.681424,4.151337146759033,0.0,0.0,0.0,0.0,0.0,0.0,0.0,0.0,0.0,0.0,0.0,1967986.0,0.04,0.0,-1.0,-1.46,-1.65,-0.24,16.8,32.56,-52.21,1967996.0,0.05,0.0,-1.0,-1.4,-1.65,-0.3,14.1,32.41,-54.16,0.0,0.0,0.0,0.0,0.0,0.0,0.0,0.0,0.0,0.0,0.0,0.0,0.0,0.0,0.0,0.0,0.0,0.0,0.0,0.0,0.0
,,90509.700259,4.170170545578003,0.0,0.0,0.0,0.0,0.0,0.0,0.0,0.0,0.0,0.0,0.0,1968005.0,0.04,0.0,-1.02,-1.46,-1.52,-0.3,15.75,31.96,-53.56,1968015.0,0.04,0.0,-1.01,-1.46,-1.65,-0.24,16.05,31.21,-53.26,0.0,0.0,0.0,0.0,0.0,0.0,0.0,0.0,0.0,0.0,0.0,0.0,0.0,0.0,0.0,0.0,0.0,0.0,0.0,0.0,0.0
,,90509.719172,4.1890709400177,0.0,0.0,0.0,0.0,0.0,0.0,0.0,0.0,0.0,0.0,0.0,1968024.0,0.04,0.0,-1.0,-1.28,-1.71,-0.37,15.0,31.51,-53.86,1968034.0,0.04,-0.0,-1.01,-1.4,-1.65,-0.24,15.75,30.91,-54.91,0.0,0.0,0.0,0.0,0.0,0.0,0.0,0.0,0.0,0.0,0.0,0.0,0.0,0.0,0.0,0.0,0.0,0.0,0.0,0.0,0.0
,,90509.738168,4.2080724239349365,0.0,0.0,0.0,0.0,0.0,0.0,0.0,0.0,0.0,0.0,0.0,1968043.0,0.04,0.0,-1.01,-1.34,-1.71,-0.18,15.0,30.16,-52.21,1968053.0,0.05,0.01,-1.0,-1.28,-1.71,-0.18,15.45,32.11,-55.06,0.0,0.0,0.0,0.0,0.0,0.0,0.0,0.0,0.0,0.0,0.0,0.0,0.0,0.0,0.0,0.0,0.0,0.0,0.0,0.0,0.0
,,90509.757296,4.227201461791992,0.0,0.0,0.0,0.0,0.0,0.0,0.0,0.0,0.0,0.0,0.0,1968062.0,0.04,0.0,-1.01,-1.22,-1.65,-0.18,15.0,33.31,-53.56,1968071.0,0.04,0.0,-1.02,-1.34,-1.65,-0.3,15.45,31.06,-54.46,0.0,0.0,0.0,0.0,0.0,0.0,0.0,0.0,0.0,0.0,0.0,0.0,0.0,0.0,0.0,0.0,0.0,0.0,0.0,0.0,0.0
,,90509.776882,4.2468061447143555,0.0,0.0,0.0,0.0,0.0,0.0,0.0,0.0,0.0,0.0,0.0,1968081.0,0.04,-0.0,-1.01,-1.28,-1.59,-0.18,14.1,33.16,-54.76,1968090.0,0.03,0.01,-1.0,-1.28,-1.65,-0.18,13.8,31.36,-55.06,0.0,0.0,0.0,0.0,0.0,0.0,0.0,0.0,0.0,0.0,0.0,0.0,0.0,0.0,0.0,0.0,0.0,0.0,0.0,0.0,0.0
,,90509.849565,4.319465398788452,0.0,0.0,0.0,0.0,0.0,0.0,0.0,0.0,0.0,0.0,0.0,1968100.0,0.04,0.0,-1.01,-1.34,-1.65,-0.24,13.8,31.36,-55.06,1968164.0,0.04,0.0,-1.0,-1.28,-1.65,-0.3,17.25,31.81,-53.11,0.0,0.0,0.0,0.0,0.0,0.0,0.0,0.0,0.0,0.0,0.0,0.0,0.0,0.0,0.0,0.0,0.0,0.0,0.0,0.0,0.0
,,90509.868989,4.338930606842041,0.0,0.0,0.0,0.0,0.0,0.0,0.0,0.0,0.0,0.0,0.0,1968173.0,0.05,0.01,-1.01,-1.46,-1.59,-0.18,15.45,32.11,-53.71,1968182.0,0.04,0.0,-1.01,-1.4,-1.65,-0.3,14.7,31.96,-53.56,0.0,0.0,0.0,0.0,0.0,0.0,0.0,0.0,0.0,0.0,0.0,0.0,0.0,0.0,0.0,0.0,0.0,0.0,0.0,0.0,0.0
,,90509.887905,4.357825756072998,0.0,0.0,0.0,0.0,0.0,0.0,0.0,0.0,0.0,0.0,0.0,1968192.0,0.05,0.0,-1.01,-1.28,-1.71,-0.3,16.2,32.11,-54.16,1968201.0,0.05,0.01,-0.99,-1.34,-1.59,-0.18,16.05,33.31,-53.86,0.0,0.0,0.0,0.0,0.0,0.0,0.0,0.0,0.0,0.0,0.0,0.0,0.0,0.0,0.0,0.0,0.0,0.0,0.0,0.0,0.0
,,90509.9067,4.376612663269043,0.0,0.0,0.0,0.0,0.0,0.0,0.0,0.0,0.0,0.0,0.0,1968211.0,0.04,0.01,-1.02,-1.4,-1.52,-0.24,14.7,30.91,-53.56,1968220.0,0.04,0.0,-1.03,-1.28,-1.65,-0.3,14.7,32.26,-54.31,0.0,0.0,0.0,0.0,0.0,0.0,0.0,0.0,0.0,0.0,0.0,0.0,0.0,0.0,0.0,0.0,0.0,0.0,0.0,0.0,0.0
,,90509.925671,4.395594120025635,0.0,0.0,0.0,0.0,0.0,0.0,0.0,0.0,0.0,0.0,0.0,1968230.0,0.03,0.01,-1.0,-1.46,-1.59,0.0,14.7,32.26,-54.31,1968239.0,0.04,0.01,-1.01,-1.28,-1.65,-0.24,16.05,31.96,-53.56,0.0,0.0,0.0,0.0,0.0,0.0,0.0,0.0,0.0,0.0,0.0,0.0,0.0,0.0,0.0,0.0,0.0,0.0,0.0,0.0,0.0
,,90509.944465,4.414382696151733,0.0,0.0,0.0,0.0,0.0,0.0,0.0,0.0,0.0,0.0,0.0,1968249.0,0.04,0.01,-1.01,-1.4,-1.46,-0.12,14.85,32.11,-54.46,1968258.0,0.04,0.01,-1.02,-1.4,-1.71,-0.24,14.7,31.96,-53.56,0.0,0.0,0.0,0.0,0.0,0.0,0.0,0.0,0.0,0.0,0.0,0.0,0.0,0.0,0.0,0.0,0.0,0.0,0.0,0.0,0.0
,,90509.963532,4.4334557056427,0.0,0.0,0.0,0.0,0.0,0.0,0.0,0.0,0.0,0.0,0.0,1968268.0,0.04,0.0,-1.01,-1.46,-1.59,-0.18,15.0,29.86,-53.26,1968277.0,0.03,0.0,-1.01,-1.28,-1.77,-0.18,14.4,31.36,-54.16,0.0,0.0,0.0,0.0,0.0,0.0,0.0,0.0,0.0,0.0,0.0,0.0,0.0,0.0,0.0,0.0,0.0,0.0,0.0,0.0,0.0
,,90510.036279,4.50622034072876,0.0,0.0,0.0,0.0,0.0,0.0,0.0,0.0,0.0,0.0,0.0,1968286.0,0.04,0.01,-1.02,-1.4,-1.65,-0.24,14.1,32.11,-51.76,1968350.0,0.04,0.0,-1.02,-1.34,-1.59,-0.18,14.85,30.31,-51.46,0.0,0.0,0.0,0.0,0.0,0.0,0.0,0.0,0.0,0.0,0.0,0.0,0.0,0.0,0.0,0.0,0.0,0.0,0.0,0.0,0.0
,,90510.056339,4.526263475418091,0.0,0.0,0.0,0.0,0.0,0.0,0.0,0.0,0.0,0.0,0.0,1968360.0,0.03,0.01,-1.02,-1.22,-1.77,-0.24,16.05,31.51,-51.61,1968370.0,0.05,0.0,-1.0,-1.1,-1.59,-0.24,15.45,31.06,-52.06,0.0,0.0,0.0,0.0,0.0,0.0,0.0,0.0,0.0,0.0,0.0,0.0,0.0,0.0,0.0,0.0,0.0,0.0,0.0,0.0,0.0
,,90510.076219,4.54613995552063,0.0,0.0,0.0,0.0,0.0,0.0,0.0,0.0,0.0,0.0,0.0,1968380.0,0.04,0.01,-1.01,-1.34,-1.71,-0.18,15.3,31.21,-54.31,1968390.0,0.04,0.01,-1.01,-1.34,-1.71,-0.18,15.0,31.21,-53.26,0.0,0.0,0.0,0.0,0.0,0.0,0.0,0.0,0.0,0.0,0.0,0.0,0.0,0.0,0.0,0.0,0.0,0.0,0.0,0.0,0.0
,,90510.096255,4.566179990768433,0.0,0.0,0.0,0.0,0.0,0.0,0.0,0.0,0.0,0.0,0.0,1968400.0,0.04,0.01,-1.02,-1.34,-1.59,-0.24,15.15,31.06,-52.36,1968410.0,0.04,0.0,-1.01,-1.4,-1.65,-0.3,14.7,32.26,-52.51,0.0,0.0,0.0,0.0,0.0,0.0,0.0,0.0,0.0,0.0,0.0,0.0,0.0,0.0,0.0,0.0,0.0,0.0,0.0,0.0,0.0
,,90510.115806,4.585713624954224,0.0,0.0,0.0,0.0,0.0,0.0,0.0,0.0,0.0,0.0,0.0,1968420.0,0.03,0.01,-1.01,-1.4,-1.52,-0.18,16.05,31.21,-52.21,1968430.0,0.04,0.0,-1.0,-1.22,-1.71,-0.24,15.45,31.81,-53.71,0.0,0.0,0.0,0.0,0.0,0.0,0.0,0.0,0.0,0.0,0.0,0.0,0.0,0.0,0.0,0.0,0.0,0.0,0.0,0.0,0.0
,,90510.135794,4.605701208114624,0.0,0.0,0.0,0.0,0.0,0.0,0.0,0.0,0.0,0.0,0.0,1968440.0,0.03,0.0,-1.01,-1.34,-1.71,-0.24,14.4,31.81,-53.41,1968450.0,0.04,0.0,-1.01,-1.52,-1.59,-0.3,14.85,31.81,-53.11,0.0,0.0,0.0,0.0,0.0,0.0,0.0,0.0,0.0,0.0,0.0,0.0,0.0,0.0,0.0,0.0,0.0,0.0,0.0,0.0,0.0
,,90510.156488,4.626409530639648,0.0,0.0,0.0,0.0,0.0,0.0,0.0,0.0,0.0,0.0,0.0,1968460.0,0.04,0.0,-1.01,-1.28,-1.52,-0.24,15.3,30.91,-54.31,1968470.0,0.04,-0.0,-1.01,-1.22,-1.52,-0.24,15.9,31.06,-53.11,0.0,0.0,0.0,0.0,0.0,0.0,0.0,0.0,0.0,0.0,0.0,0.0,0.0,0.0,0.0,0.0,0.0,0.0,0.0,0.0,0.0
,,90510.231638,4.701576232910156,0.0,0.0,0.0,0.0,0.0,0.0,0.0,0.0,0.0,0.0,0.0,1968480.0,0.04,0.01,-1.0,-1.46,-1.52,-0.24,15.3,31.21,-52.96,1968544.0,0.04,0.0,-1.01,-1.28,-1.59,-0.24,16.35,31.21,-52.51,0.0,0.0,0.0,0.0,0.0,0.0,0.0,0.0,0.0,0.0,0.0,0.0,0.0,0.0,0.0,0.0,0.0,0.0,0.0,0.0,0.0
,,90510.249952,4.719844102859497,0.0,0.0,0.0,0.0,0.0,0.0,0.0,0.0,0.0,0.0,0.0,1968554.0,0.04,0.01,-1.01,-1.4,-1.65,-0.24,16.05,33.31,-52.96,1968564.0,0.04,0.01,-1.01,-1.34,-1.71,0.0,16.05,32.26,-53.86,0.0,0.0,0.0,0.0,0.0,0.0,0.0,0.0,0.0,0.0,0.0,0.0,0.0,0.0,0.0,0.0,0.0,0.0,0.0,0.0,0.0
,,90510.27066,4.740576982498169,0.0,0.0,0.0,0.0,0.0,0.0,0.0,0.0,0.0,0.0,0.0,1968574.0,0.04,0.0,-1.0,-1.46,-1.59,-0.24,15.3,31.51,-54.31,1968584.0,0.05,-0.01,-1.01,-1.34,-1.71,-0.18,15.3,32.56,-52.96,0.0,0.0,0.0,0.0,0.0,0.0,0.0,0.0,0.0,0.0,0.0,0.0,0.0,0.0,0.0,0.0,0.0,0.0,0.0,0.0,0.0
,,90510.290729,4.76064395904541,0.0,0.0,0.0,0.0,0.0,0.0,0.0,0.0,0.0,0.0,0.0,1968594.0,0.05,0.01,-1.02,-1.28,-1.71,-0.24,15.75,31.51,-53.26,1968604.0,0.04,0.01,-1.01,-1.4,-1.52,-0.3,15.0,31.21,-53.26,0.0,0.0,0.0,0.0,0.0,0.0,0.0,0.0,0.0,0.0,0.0,0.0,0.0,0.0,0.0,0.0,0.0,0.0,0.0,0.0,0.0
,,90510.310944,4.780863046646118,0.0,0.0,0.0,0.0,0.0,0.0,0.0,0.0,0.0,0.0,0.0,1968614.0,0.04,0.0,-0.99,-1.22,-1.65,-0.24,17.1,32.56,-54.31,1968624.0,0.04,0.01,-1.0,-1.34,-1.46,-0.3,13.65,31.96,-53.56,0.0,0.0,0.0,0.0,0.0,0.0,0.0,0.0,0.0,0.0,0.0,0.0,0.0,0.0,0.0,0.0,0.0,0.0,0.0,0.0,0.0
,,90510.330761,4.800679683685303,0.0,0.0,0.0,0.0,0.0,0.0,0.0,0.0,0.0,0.0,0.0,1968634.0,0.05,0.01,-1.02,-1.4,-1.52,-0.3,16.5,32.11,-52.06,1968644.0,0.04,0.0,-1.0,-1.34,-1.52,0.0,14.4,30.01,-53.41,0.0,0.0,0.0,0.0,0.0,0.0,0.0,0.0,0.0,0.0,0.0,0.0,0.0,0.0,0.0,0.0,0.0,0.0,0.0,0.0,0.0
,,90510.350609,4.8205342292785645,0.0,0.0,0.0,0.0,0.0,0.0,0.0,0.0,0.0,0.0,0.0,1968654.0,0.04,0.01,-1.01,-1.34,-1.59,-0.24,16.35,31.21,-53.86,1968664.0,0.04,0.0,-1.01,-1.4,-1.71,-0.24,15.0,31.96,-52.96,0.0,0.0,0.0,0.0,0.0,0.0,0.0,0.0,0.0,0.0,0.0,0.0,0.0,0.0,0.0,0.0,0.0,0.0,0.0,0.0,0.0
,,90510.424319,4.894250392913818,0.0,0.0,0.0,0.0,0.0,0.0,0.0,0.0,0.0,0.0,0.0,1968674.0,0.03,0.01,-1.01,-1.28,-1.71,-0.18,16.05,31.21,-54.91,1968737.0,0.04,0.01,-1.01,-1.4,-1.65,-0.12,15.75,31.51,-52.96,0.0,0.0,0.0,0.0,0.0,0.0,0.0,0.0,0.0,0.0,0.0,0.0,0.0,0.0,0.0,0.0,0.0,0.0,0.0,0.0,0.0
,,90510.444403,4.914324760437012,0.0,0.0,0.0,0.0,0.0,0.0,0.0,0.0,0.0,0.0,0.0,1968747.0,0.04,0.0,-1.02,-1.52,-1.59,-0.18,16.05,32.26,-52.21,1968757.0,0.04,0.01,-1.01,-1.4,-1.52,-0.3,15.9,32.11,-51.46,0.0,0.0,0.0,0.0,0.0,0.0,0.0,0.0,0.0,0.0,0.0,0.0,0.0,0.0,0.0,0.0,0.0,0.0,0.0,0.0,0.0
,,90510.464576,4.934508323669434,0.0,0.0,0.0,0.0,0.0,0.0,0.0,0.0,0.0,0.0,0.0,1968767.0,0.04,0.0,-1.03,-1.34,-1.59,-0.24,15.75,31.21,-53.56,1968777.0,0.04,0.0,-1.01,-1.34,-1.77,-0.18,15.75,31.51,-52.96,0.0,0.0,0.0,0.0,0.0,0.0,0.0,0.0,0.0,0.0,0.0,0.0,0.0,0.0,0.0,0.0,0.0,0.0,0.0,0.0,0.0
,,90510.484204,4.95412278175354,0.0,0.0,0.0,0.0,0.0,0.0,0.0,0.0,0.0,0.0,0.0,1968787.0,0.04,0.01,-1.01,-1.34,-1.65,-0.18,16.05,31.51,-53.86,1968797.0,0.04,0.0,-1.0,-1.28,-1.77,-0.3,16.8,32.56,-53.56,0.0,0.0,0.0,0.0,0.0,0.0,0.0,0.0,0.0,0.0,0.0,0.0,0.0,0.0,0.0,0.0,0.0,0.0,0.0,0.0,0.0
,,90510.503514,4.973403453826904,0.0,0.0,0.0,0.0,0.0,0.0,0.0,0.0,0.0,0.0,0.0,1968807.0,0.03,-0.0,-1.03,-1.34,-1.71,-0.18,16.05,32.56,-53.56,1968817.0,0.04,0.01,-1.0,-1.34,-1.52,-0.3,14.7,30.46,-53.26,0.0,0.0,0.0,0.0,0.0,0.0,0.0,0.0,0.0,0.0,0.0,0.0,0.0,0.0,0.0,0.0,0.0,0.0,0.0,0.0,0.0
,,90510.52439,4.994328737258911,0.0,0.0,0.0,0.0,0.0,0.0,0.0,0.0,0.0,0.0,0.0,1968827.0,0.04,0.0,-1.0,-1.34,-1.59,-0.24,16.05,30.46,-53.86,1968837.0,0.04,0.01,-1.01,-1.28,-1.71,-0.43,15.3,30.46,-53.56,0.0,0.0,0.0,0.0,0.0,0.0,0.0,0.0,0.0,0.0,0.0,0.0,0.0,0.0,0.0,0.0,0.0,0.0,0.0,0.0,0.0
,,90510.544585,5.014509677886963,0.0,0.0,0.0,0.0,0.0,0.0,0.0,0.0,0.0,0.0,0.0,1968847.0,0.03,0.01,-1.01,-1.46,-1.71,-0.24,15.3,31.21,-53.86,1968857.0,0.04,0.01,-1.01,-1.34,-1.52,-0.24,15.15,32.11,-54.46,0.0,0.0,0.0,0.0,0.0,0.0,0.0,0.0,0.0,0.0,0.0,0.0,0.0,0.0,0.0,0.0,0.0,0.0,0.0,0.0,0.0
,,90510.620234,5.090163946151733,0.0,0.0,0.0,0.0,0.0,0.0,0.0,0.0,0.0,0.0,0.0,1968867.0,0.04,0.01,-1.0,-1.34,-1.52,-0.24,16.05,32.26,-52.96,1968932.0,0.04,0.01,-1.02,-1.34,-1.77,-0.18,16.95,31.06,-51.01,0.0,0.0,0.0,0.0,0.0,0.0,0.0,0.0,0.0,0.0,0.0,0.0,0.0,0.0,0.0,0.0,0.0,0.0,0.0,0.0,0.0
