name,date,time,time since start,vicon_sequence,vicon_time_stamp,vicon_frame_id,vicon_child_frame_id,vicon_translation_x,vicon_translation_y,vicon_translation_z,vicon_rotation_x,vicon_rotation_y,vicon_rotation_z,vicon_rotation_w,int_imu_time_stamp,int_imu_acc_x,int_imu_acc_y,int_imu_acc_z,int_imu_gyro_x,int_imu_gyro_y,int_imu_gyro_z,int_imu_mag_x,int_imu_mag_y,int_imu_mag_z,ext_imu_time_stamp,ext_imu_acc_x,ext_imu_acc_y,ext_imu_acc_z,ext_imu_gyro_x,ext_imu_gyro_y,ext_imu_gyro_z,ext_imu_mag_x,ext_imu_mag_y,ext_imu_mag_z,dji_imu_sequence,dji_imu_time_stamp,dji_imu_frame_id,dji_imu_orientation_x,dji_imu_orientation_y,dji_imu_orientation_z,dji_imu_ang_vel_x,dji_imu_ang_vel_y,dji_imu_ang_vel_z,dji_imu_lin_acc_x,dji_imu_lin_acc_y,dji_imu_lin_acc_z,rc_sequence,rc_time_stamp,rc_frame_id,rc_roll,rc_pitch,rc_yaw,rc_throttle,rc_mode,rc_landing_gear
/home/wc18ny/Desktop/VibrationTest/data2.csv,20201013,155357.215666,2.4318695068359375e-05,44155,1602597237.207576,vicon,object name,0.8612988173560135,1.1962537928567851,1.0,2.98635549590859,1.0,2.0,3.4857830253825544,"1684955,","-0.04,","0.03,","-1.03,","-4.94,","-5.61,","-4.70,","8.85,","70.82,",-47.71,"1684964,","-0.05,","0.04,","-1.04,","-6.65,","-3.41,","-6.40,","9.60,","69.77,",-50.11,63340,1602597237.203838,1234,0.5717998264402829,1.4841726382297218,2.2484991264216894,0.6461868255578052,1.5697499662715937,2.0064983809598753,0.2820284072885574,1.8804877290106998,2.2383482429358543,63332,1602597237.203838,4321,0.8909645676612854,1.588645100593567,2.7533390522003174,3.055697441101074,4.940643310546875,5.091662883758545
,,155357.217857,0.002213716506958008,44155,1602597237.207576,vicon,object name,0.8612988173560135,1.1962537928567851,1.0,2.98635549590859,1.0,2.0,3.4857830253825544,"1684974,","-0.06,","0.04,","-1.06,","-11.89,","1.10,","-8.41,","8.85,","72.17,",-47.71,"1684983,","-0.07,","0.05,","-1.02,","-17.80,","6.40,","-10.30,","10.20,","70.07,",-50.41,63340,1602597237.203838,1234,0.5717998264402829,1.4841726382297218,2.2484991264216894,0.6461868255578052,1.5697499662715937,2.0064983809598753,0.2820284072885574,1.8804877290106998,2.2383482429358543,63332,1602597237.203838,4321,0.8909645676612854,1.588645100593567,2.7533390522003174,3.055697441101074,4.940643310546875,5.091662883758545
,,155357.238159,0.02251434326171875,44157,1602597237.227584,vicon,object name,0.0814754818253407,1.4570939124492168,1.0,2.810958759604641,1.0,2.0,3.360458009462345,"1685040,","-0.06,","0.01,","-0.96,","-16.10,","4.51,","-9.02,","9.90,","69.77,",-50.11,"1685050,","-0.04,","0.03,","-1.06,","-12.93,","-2.32,","-10.85,","12.00,","70.07,",-49.06,63343,1602597237.233768,1234,0.9820600306435076,1.4740581053986745,2.9672354806729158,0.7333448213833709,1.3972632537013165,2.000230326151705,0.8611685438556125,1.144981245347302,2.9194198127248923,63335,1602597237.233768,4321,0.31649306416511536,1.0450096130371094,2.2580270767211914,3.7412140369415283,4.920608043670654,5.157567501068115
,,155357.258993,0.043364763259887695,44159,1602597237.247598,vicon,object name,0.4854097932213729,1.6968017130424728,1.0,2.427671733534756,1.0,2.0,3.7561284997491033,"1685059,","-0.05,","0.06,","-1.05,","-15.91,","3.35,","-12.80,","11.10,","69.62,",-49.81,"1685069,","-0.06,","0.10,","-1.03,","-16.04,","5.85,","-14.45,","9.15,","70.82,",-49.66,63345,1602597237.253788,1234,0.48358501204879645,1.078481799321806,2.321502873662295,0.582847325893158,1.788190192355048,2.069391453494132,0.3530879559261658,1.1017812237053357,2.079540024187814,63337,1602597237.253788,4321,0.22015893459320068,1.655767798423767,2.0439651012420654,3.6520955562591553,4.514535427093506,5.1710124015808105
,,155357.277909,0.06226682662963867,44161,1602597237.26759,vicon,object name,0.7140222883639775,1.3165773835763042,1.0,2.0328318806472074,1.0,2.0,3.9557761972957,"1685079,","-0.06,","0.08,","-1.06,","-12.26,","3.96,","-13.05,","10.80,","70.67,",-50.86,"1685088,","-0.07,","0.06,","-1.04,","-10.06,","6.40,","-13.72,","10.50,","70.67,",-49.51,63346,1602597237.263777,1234,0.24352424871515532,1.9742276314563996,2.257007249303343,0.25066732001316605,1.8362295144945606,2.8700030593176766,0.6059779304165956,1.8360367867217664,2.3716652087504495,63338,1602597237.263777,4321,0.6708887219429016,1.5243383646011353,2.905787229537964,3.6352007389068604,4.4175543785095215,5.454013824462891
,,155357.298794,0.08314704895019531,44163,1602597237.28758,vicon,object name,0.6618225495530656,1.77633772390781,1.0,2.4602121496775657,1.0,2.0,3.3079188253632092,"1685098,","-0.07,","0.11,","-1.03,","-7.93,","7.99,","-15.24,","10.20,","70.07,",-51.01,"1685108,","-0.08,","0.11,","-1.00,","-2.74,","8.96,","-14.63,","10.65,","70.37,",-51.01,63349,1602597237.293897,1234,0.8181681072233425,1.4723585617914243,2.957252206123538,0.05988500886836157,1.8834030974476244,2.680862661319817,0.8219596205319568,1.5054112491762988,2.038768301489856,63341,1602597237.293897,4321,0.632870614528656,1.9178729057312012,2.869004249572754,3.9375171661376953,4.2344794273376465,5.019003868103027
,,155357.318332,0.1026914119720459,44165,1602597237.307535,vicon,object name,0.9250629119083739,1.0374920772187577,1.0,2.053331053656008,1.0,2.0,3.8536793773474183,"1685117,","-0.06,","0.06,","-1.00,","8.05,","6.71,","-13.78,","10.80,","70.67,",-51.16,"1685127,","-0.05,","0.05,","-1.01,","12.62,","5.06,","-11.10,","11.25,","72.92,",-50.71,63351,1602597237.313768,1234,0.3388735008079591,1.877615780621926,2.7598801630790657,0.06895644258789846,1.54540665804086,2.4593748441168457,0.6575741443320187,1.9568909028106654,2.2637707112624024,63343,1602597237.313768,4321,0.9489991664886475,1.4184083938598633,2.490414619445801,3.2027668952941895,4.235727787017822,5.639709949493408
,,155357.337735,0.12209272384643555,44167,1602597237.327545,vicon,object name,0.1539250898426241,1.2800866145266498,1.0,2.074317707930228,1.0,2.0,3.187389527394646,"1685136,","-0.05,","0.02,","-1.04,","11.71,","6.83,","-10.12,","12.30,","71.42,",-50.71,"1685146,","-0.08,","0.04,","-1.08,","11.28,","11.95,","-16.10,","13.05,","71.42,",-50.41,63353,1602597237.333709,1234,0.13608770637144896,1.820221962464121,2.4893499452782435,0.7223302271321675,1.6184318281620973,2.098949309467628,0.9012410164083884,1.3501903408951907,2.3600878143918127,63345,1602597237.333709,4321,0.8909125328063965,1.8334405422210693,2.5155162811279297,3.3369243144989014,4.565771102905273,5.591973304748535
,,155357.357808,0.14218759536743164,44169,1602597237.347574,vicon,object name,0.9645000653204031,1.9721533023952833,1.0,2.3214627171285005,1.0,2.0,3.2575629405595254,"1685156,","-0.10,","0.06,","-1.11,","8.29,","16.95,","-21.89,","12.00,","71.42,",-50.71,"1685165,","-0.14,","0.07,","-1.09,","13.60,","14.51,","-27.80,","13.65,","72.02,",-50.56,63355,1602597237.353879,1234,0.4560464115482493,1.1816017856111696,2.5230573610348594,0.013996338843627276,1.037891631607582,2.9895748682599685,0.02053059892846687,1.5622182149237485,2.0863315667660123,63347,1602597237.353879,4321,0.48753821849823,1.9525539875030518,2.1768529415130615,3.0877585411071777,4.723678112030029,5.481796741485596
,,155357.377743,0.16209697723388672,44171,1602597237.36761,vicon,object name,0.9175528166369463,1.3317295324396934,1.0,2.259641166498805,1.0,2.0,3.8633628214973736,"1685219,","-0.12,","0.06,","-1.09,","27.68,","11.16,","-34.15,","17.40,","75.17,",-48.46,"1685229,","-0.09,","-0.03,","-1.03,","34.21,","10.85,","-33.66,","15.90,","75.77,",-47.71,63357,1602597237.373859,1234,0.8834979370040871,1.9143516605929036,2.6133018200632168,0.47392328798124694,1.6998411077243283,2.796662292107345,0.9697783911799585,1.4655139910007473,2.040879417762401,63349,1602597237.373859,4321,0.7567812204360962,1.043341040611267,2.5076029300689697,3.0368213653564453,4.179032802581787,5.5344767570495605
,,155357.398164,0.18252801895141602,44173,1602597237.387591,vicon,object name,0.9460955636917188,1.3512819148070947,1.0,2.788709123479793,1.0,2.0,3.691506794991422,"1685240,","-0.12,","-0.08,","-0.97,","29.51,","5.24,","-30.55,","15.00,","74.87,",-48.16,"1685250,","-0.08,","-0.01,","-1.08,","40.37,","1.46,","-37.01,","14.70,","76.22,",-47.11,63359,1602597237.393884,1234,0.7260303805920069,1.4523552514353184,2.1648544687842524,0.8630159213328672,1.660217924530781,2.0482391784167606,0.32595281494483763,1.5961196380766984,2.290129432815318,63351,1602597237.393884,4321,0.5723680257797241,1.3775852918624878,2.6233179569244385,3.520453453063965,4.859507083892822,5.179636478424072
,,155357.418128,0.20248723030090332,44175,1602597237.407657,vicon,object name,0.24105420028006042,1.509650914703112,1.0,2.9999114378876377,1.0,2.0,3.5493575441461167,"1685260,","-0.07,","-0.00,","-1.00,","41.22,","11.28,","-36.46,","14.25,","77.27,",-45.16,"1685270,","-0.11,","-0.01,","-1.16,","43.17,","1.34,","-28.60,","12.90,","77.27,",-44.86,63361,1602597237.413723,1234,0.8274049526403711,1.1915695545403167,2.9159786403624115,0.009921759164243094,1.5883525340056432,2.4341920679335245,0.6419991919911638,1.3360799308409494,2.72487461928424,63353,1602597237.413723,4321,0.8722472190856934,1.3559348583221436,2.423840284347534,3.848659038543701,4.93906307220459,5.612584590911865
,,155357.438173,0.22252917289733887,44177,1602597237.427604,vicon,object name,0.4711304096139465,1.283055547359583,1.0,2.4946899836914733,1.0,2.0,3.844812769665683,"1685280,","-0.07,","0.00,","-1.21,","56.28,","-0.43,","-30.00,","13.05,","78.47,",-46.36,"1685291,","-0.11,","-0.19,","-1.18,","70.18,","-1.71,","-31.10,","13.80,","77.42,",-45.91,63363,1602597237.433858,1234,0.08083403063021766,1.0342918946085944,2.382855263201968,0.7115725617450555,1.4916819018965684,2.984255756689255,0.4694873249923196,1.682869239122998,2.579768699502892,63355,1602597237.433858,4321,0.5338025093078613,1.976626992225647,2.016819953918457,3.347212076187134,4.7743144035339355,5.661433219909668
,,155357.457977,0.24233222007751465,44179,1602597237.447643,vicon,object name,0.6984598403269177,1.1970415207169363,1.0,2.421479575356807,1.0,2.0,3.279074402375353,"1685301,","-0.16,","-0.32,","-1.39,","81.95,","-27.26,","-25.73,","11.10,","80.12,",-45.16,"1685311,","-0.08,","-0.25,","-1.54,","85.98,","-28.72,","-26.65,","10.95,","78.47,",-43.96,63365,1602597237.453733,1234,0.547935547099576,1.1411886690974478,2.325346093990032,0.7788238344246099,1.1130970333114218,2.519264459299909,0.27927262474743075,1.2735281563211056,2.204757206546574,63357,1602597237.453733,4321,0.9701270461082458,1.339486837387085,2.8426616191864014,3.8457236289978027,4.612049102783203,5.583726406097412
,,155357.47792,0.26227569580078125,44181,1602597237.467564,vicon,object name,0.3024165315659353,1.2188862247130132,1.0,2.254650406544531,1.0,2.0,3.985104435703863,"1685321,","-0.08,","-0.35,","-1.69,","110.18,","-48.23,","-19.15,","9.00,","79.37,",-43.81,"1685331,","-0.03,","-0.40,","-1.82,","108.78,","-56.34,","-3.41,","6.00,","79.22,",-42.91,63367,1602597237.47374,1234,0.007064347707145258,1.7167119252017256,2.3043844638278226,0.6244732150697067,1.5183389290750324,2.5776707987242333,0.6453367025951484,1.135256086207859,2.7700517393531285,63359,1602597237.47374,4321,0.42819228768348694,1.4190027713775635,2.7690913677215576,3.8186373710632324,4.637506008148193,5.3158745765686035
,,155357.498281,0.2826371192932129,44183,1602597237.48757,vicon,object name,0.925667176239735,1.5006243488098863,1.0,2.3372018126757914,1.0,2.0,3.6370321184029066,"1685342,","-0.05,","-0.40,","-1.80,","117.26,","-64.88,","8.72,","6.30,","80.87,",-42.76,"1685399,","0.15,","-0.55,","-1.70,","117.38,","-65.49,","20.55,","2.85,","76.37,",-43.21,63369,1602597237.493798,1234,0.6908755689443936,1.6653373345414644,2.2266308367808882,0.04019967660925727,1.639123240388162,2.2051418250267893,0.29855945081281854,1.433386079881593,2.8372642862624717,63361,1602597237.493798,4321,0.6618563532829285,1.8381538391113281,2.5290634632110596,3.460148334503174,4.397093296051025,5.21504545211792
,,155357.518148,0.302504301071167,44185,1602597237.507608,vicon,object name,0.6521402131500788,1.2748830953797947,1.0,2.691962336734591,1.0,2.0,3.5581529551130733,"1685409,","0.13,","-0.52,","-1.59,","103.23,","-62.56,","22.26,","3.15,","76.97,",-43.36,"1685419,","0.17,","-0.48,","-1.30,","92.80,","-72.26,","16.65,","4.65,","77.87,",-44.26,63371,1602597237.513766,1234,0.0020557218003364186,1.6756920967238758,2.815332391358323,0.8542737973803721,1.2410524246592676,2.163056133801625,0.2683828726971649,1.6082150218290971,2.039776885872527,63363,1602597237.513766,4321,0.2054794877767563,1.9591145515441895,2.1071064472198486,3.53330397605896,4.15389347076416,5.157673358917236
,,155357.538146,0.32250165939331055,44187,1602597237.527613,vicon,object name,0.7230399545460346,1.9923768306346448,1.0,2.536800249424254,1.0,2.0,3.0768181892958997,"1685429,","0.10,","-0.50,","-1.23,","72.26,","-97.50,","18.05,","5.70,","77.12,",-45.91,"1685439,","-0.01,","-0.34,","-1.05,","42.74,","-100.37,","27.07,","7.65,","76.97,",-44.11,63373,1602597237.533868,1234,0.4991369113804949,1.143810399329306,2.669539354614893,0.7276890654252188,1.0569558098199754,2.51530317980608,0.9043374608895722,1.3372125700148736,2.150343685399509,63365,1602597237.533868,4321,0.41974589228630066,1.5511841773986816,2.9334981441497803,3.7687058448791504,4.521810054779053,5.7133026123046875
,,155357.557967,0.34232330322265625,44189,1602597237.547652,vicon,object name,0.5807673107666734,1.430899787435617,1.0,2.6527352006610134,1.0,2.0,3.5971698500122917,"1685450,","-0.03,","-0.30,","-0.88,","-0.79,","-93.48,","44.51,","8.85,","77.12,",-44.26,"1685460,","-0.10,","-0.27,","-0.77,","-35.98,","-82.38,","56.34,","9.45,","79.07,",-45.76,63375,1602597237.553778,1234,0.3231389124791916,1.8124948603435513,2.504087198813644,0.4115626607410596,1.3631529709630286,2.3249588102208025,0.4761735684315359,1.6740918183963465,2.9728551871102553,63367,1602597237.553778,4321,0.06570214033126831,1.1513456106185913,2.7272415161132812,3.745182514190674,4.893256664276123,5.137137413024902
,,155357.579973,0.36432838439941406,44192,1602597237.577596,vicon,object name,0.3065705310989182,1.3218083737833577,1.0,2.653433334583286,1.0,2.0,3.3790924803218543,"1685470,","-0.24,","-0.13,","-0.74,","-56.34,","-84.27,","64.45,","10.50,","79.82,",-44.41,"1685480,","-0.26,","0.03,","-0.61,","-56.95,","-88.41,","71.34,","10.80,","79.37,",-43.81,63377,1602597237.573863,1234,0.3299682779876708,1.6447105720783832,2.4515798540766722,0.19150092449709666,1.3189185030858368,2.730341018470262,0.6777603570424554,1.6824703526220572,2.1194039519292844,63369,1602597237.573863,4321,0.02930603176355362,1.9150224924087524,2.2221732139587402,3.6945791244506836,4.605592250823975,5.352442741394043
,,155357.598142,0.38249683380126953,44193,1602597237.58758,vicon,object name,0.4754264939087679,1.6279548361148946,1.0,2.8370774132159213,1.0,2.0,3.0996215823051054,"1685491,","-0.28,","0.07,","-0.42,","-59.70,","-95.61,","84.94,","12.75,","81.02,",-42.31,"1685501,","-0.25,","0.07,","-0.27,","-85.73,","-106.22,","110.61,","13.95,","80.87,",-41.41,63379,1602597237.593858,1234,0.3375373395807121,1.449766858501424,2.8613475093787883,0.39600321309651554,1.770159825359368,2.4428367530379855,0.8048835339328139,1.7734349068026012,2.7350099775776293,63371,1602597237.593858,4321,0.9426771998405457,1.7323565483093262,2.0554418563842773,3.777773857116699,4.435978412628174,5.047832489013672
,,155357.618564,0.4029223918914795,44195,1602597237.607598,vicon,object name,0.39613569157221373,1.382277249913158,1.0,2.086004357855381,1.0,2.0,3.490344485824782,"1685511,","0.01,","0.52,","0.16,","-108.48,","-104.76,","128.90,","13.95,","81.17,",-41.11,"1685522,","0.05,","1.03,","0.69,","-147.38,","-90.73,","135.00,","17.40,","82.22,",-39.76,63381,1602597237.613871,1234,0.92122163030055,1.4063672733626982,2.1063009548858362,0.4776282420295175,1.1113137522149423,2.5722573329759344,0.9881333085273675,1.6354243538673363,2.3354077269438602,63373,1602597237.613871,4321,0.580699622631073,1.3387256860733032,2.8459272384643555,3.9552841186523438,4.536768436431885,5.539175033569336
,,155357.638194,0.422565221786499,44197,1602597237.627568,vicon,object name,0.6796172478390561,1.4306075049908675,1.0,2.6888632431096062,1.0,2.0,3.00266153745923,"1685580,","0.15,","1.43,","0.72,","-223.35,","-77.80,","110.79,","14.70,","84.62,",-37.06,"1685590,","0.08,","1.29,","0.35,","-312.07,","-39.09,","75.79,","13.20,","85.07,",-36.61,63382,1602597237.623869,1234,0.1033280203017638,1.6750889352892706,2.8412593555976353,0.02322011612046948,1.231192334867034,2.518738255403173,0.2817892020304442,1.9219276799906209,2.4564108647612897,63374,1602597237.623869,4321,0.5822616219520569,1.3696799278259277,2.1935577392578125,3.747053623199463,4.422910213470459,5.108513355255127
,,155357.658024,0.4423844814300537,44199,1602597237.647562,vicon,object name,0.13116789113192284,1.0216748171507488,1.0,2.415000096397919,1.0,2.0,3.737676613275357,"1685600,","-0.03,","0.79,","-0.08,","-383.35,","14.21,","64.15,","9.75,","82.97,",-37.36,"1685611,","-0.04,","0.70,","-0.24,","-374.51,","65.06,","51.59,","7.65,","82.22,",-37.36,63385,1602597237.653764,1234,0.6527621424279577,1.3995898657328474,2.5570087863606688,0.7168527894167067,1.659212959175685,2.1910283222694433,0.6426284335625393,1.112626585925202,2.6980628024807807,63377,1602597237.653764,4321,0.21169908344745636,1.2296861410140991,2.969083786010742,3.5841307640075684,4.702096939086914,5.815399646759033
,,155357.677997,0.4623591899871826,44201,1602597237.667603,vicon,object name,0.6892685623127089,1.6674273530937687,1.0,2.7428439977724537,1.0,2.0,3.841448775683351,"1685621,","-0.01,","0.58,","-0.33,","-286.34,","94.09,","29.02,","5.40,","81.32,",-38.26,"1685631,","-0.05,","0.35,","-0.58,","-168.11,","114.70,","-2.80,","3.90,","82.37,",-37.81,63387,1602597237.673732,1234,0.268695957972533,1.406891082705011,2.5954293874657024,0.4491115169969284,1.9291864636986893,2.1982567917548237,0.05378380338206179,1.9244331111977346,2.5529087328439473,63379,1602597237.673732,4321,0.7565127611160278,1.2711137533187866,2.4326181411743164,3.2870571613311768,4.282842636108398,5.0202460289001465
,,155357.698027,0.48238253593444824,44203,1602597237.687563,vicon,object name,0.8415699589329824,1.7368551707279232,1.0,2.455245407410509,1.0,2.0,3.131161343344398,"1685641,","-0.27,","-0.06,","-1.29,","-52.26,","120.43,","-29.57,","2.25,","81.62,",-37.21,"1685651,","-0.29,","-0.08,","-1.86,","55.49,","112.44,","-52.13,","-0.90,","78.92,",-37.21,63389,1602597237.693852,1234,0.21677477911850307,1.4089847794389612,2.8855186340123806,0.9230313104876162,1.359754578801758,2.7958846774445707,0.7410663941165564,1.2556692037723245,2.4259254757449242,63381,1602597237.693852,4321,0.8445078730583191,1.169324278831482,2.9430887699127197,3.5100040435791016,4.88974666595459,5.321722507476807
,,155357.717973,0.502328634262085,44205,1602597237.707559,vicon,object name,0.29364299112235503,1.3878331321693582,1.0,2.9359125002237985,1.0,2.0,3.020724450816545,"1685662,","-0.18,","-0.26,","-2.00,","149.94,","83.78,","-70.55,","2.55,","80.27,",-37.81,"1685672,","-0.06,","-0.41,","-2.00,","196.22,","23.41,","-78.60,","3.60,","81.02,",-39.61,63391,1602597237.713724,1234,0.31479746379568097,1.0115157570421998,2.047247380835924,0.45165886538952393,1.7818887815820634,2.1276474507488903,0.9805140250839609,1.1305660128279746,2.4388114112650374,63383,1602597237.713724,4321,0.06392323970794678,1.9314301013946533,2.57191801071167,3.2604353427886963,4.758580684661865,5.492475509643555
,,155357.738149,0.522505521774292,44207,1602597237.727558,vicon,object name,0.8141334733856594,1.1110204787503846,1.0,2.925955579593565,1.0,2.0,3.563819281035564,"1685682,","0.09,","-0.50,","-2.61,","200.49,","-40.79,","-75.18,","5.85,","83.57,",-37.96,"1685692,","-0.28,","-0.54,","-1.60,","244.45,","11.04,","-76.10,","8.10,","81.02,",-38.26,63393,1602597237.73375,1234,0.9358695488848409,1.3542576507342117,2.7693724799109742,0.7734827117949783,1.3446240392334066,2.106491495391741,0.6477701244039901,1.7693857615125035,2.227678170285747,63385,1602597237.73375,4321,0.6992787718772888,1.6461809873580933,2.683256149291992,3.232503652572632,4.465069770812988,5.621183395385742
,,155357.759239,0.5435986518859863,44209,1602597237.747598,vicon,object name,0.5267065490387557,1.9288005894040616,1.0,2.5528254055067183,1.0,2.0,3.139694445410539,"1685702,","-0.11,","-0.68,","-1.79,","197.38,","-120.85,","-0.91,","10.05,","84.02,",-38.71,"1685760,","-0.25,","15.92,","5.39,","-62.07,","746.04,","-1106.65,","22.21,","83.42,",-33.16,63395,1602597237.753851,1234,0.2052240219862641,1.091743561168593,2.4547909019800014,0.5751077750982746,1.4199749065950593,2.2243688321658115,0.675375197114205,1.0119470847854144,2.047487570693534,63387,1602597237.753851,4321,0.05718943849205971,1.1110399961471558,2.018582582473755,3.976740837097168,4.830784797668457,5.852039813995361
,,155357.778546,0.5629045963287354,44211,1602597237.767621,vicon,object name,0.906055946320716,1.1611967103455254,1.0,2.2807535270104085,1.0,2.0,3.8828915393761343,"1685833,","-0.41,","0.30,","-1.04,","-713.05,","138.78,","196.59,","3.30,","82.37,",-37.21,"1685844,","-0.45,","0.16,","-0.95,","-647.13,","124.70,","179.82,","-0.75,","81.47,",-36.01,63397,1602597237.773802,1234,0.6868359016232543,1.5625917677723837,2.2584856902002617,0.20813967675316492,1.0551871549348146,2.6300518756991593,0.7909553403985611,1.429409938652943,2.429402756555235,63389,1602597237.773802,4321,0.8529649972915649,1.0678184032440186,2.9068760871887207,3.745290756225586,4.477483749389648,5.740314960479736
,,155357.798523,0.5828819274902344,44213,1602597237.7876,vicon,object name,0.7616986729560723,1.3833475251318554,1.0,2.250582407094884,1.0,2.0,3.614636785756986,"1685854,","-0.46,","0.35,","-0.88,","-486.52,","89.39,","138.96,","-1.35,","81.32,",-34.06,"1685863,","-0.49,","0.38,","-0.84,","-253.60,","43.72,","82.99,","-4.50,","80.27,",-34.81,63399,1602597237.793772,1234,0.027505039001642695,1.2174592335476877,2.142943642536435,0.17282333642045578,1.5717025182728803,2.8140651153180123,0.008666398556092414,1.6393332691180982,2.8381014458799223,63391,1602597237.793772,4321,0.9923930764198303,1.7865394353866577,2.209800958633423,3.408276081085205,4.552507400512695,5.321866035461426
,,155357.81872,0.603079080581665,44215,1602597237.807576,vicon,object name,0.21133256959733193,1.944785542095864,1.0,2.9666245042369908,1.0,2.0,3.7295345850525945,"1685873,","-0.36,","0.68,","-0.92,","22.44,","-6.89,","1.71,","-5.10,","80.57,",-36.46,"1689133,","-0.46,","0.16,","0.01,","-102.93,","-41.16,","56.83,","10.50,","72.32,",-50.56,63401,1602597237.813748,1234,0.34202704479749757,1.011523507915837,2.848446694847124,0.010907965733005898,1.9166311246175973,2.8609230982337697,0.9173608826832252,1.7917237739245822,2.7179999133263837,63393,1602597237.813748,4321,0.25686439871788025,1.1619973182678223,2.2646613121032715,3.0471150875091553,4.319819927215576,5.733017444610596
,,155357.838942,0.6233024597167969,44217,1602597237.827584,vicon,object name,0.11570913996235077,1.6499809699213082,1.0,2.942415641282383,1.0,2.0,3.3389366842220203,"1689143,","-0.57,","0.30,","0.34,","-133.78,","-19.21,","59.45,","8.85,","72.47,",-50.41,"1689153,","-0.64,","0.55,","0.70,","-177.07,","26.95,","47.32,","9.15,","72.92,",-49.36,63403,1602597237.833738,1234,0.22362859461423867,1.0360684403364506,2.3965180536594417,0.900707557604971,1.515489554763224,2.474080352222414,0.8411754954942783,1.934997289305651,2.0034380113604264,63395,1602597237.833738,4321,0.9959330558776855,1.6631317138671875,2.3525240421295166,3.6424460411071777,4.070077896118164,5.544211387634277
,,155357.860798,0.6451578140258789,44220,1602597237.857637,vicon,object name,0.018879927613082215,1.2340051290079046,1.0,2.282958076006628,1.0,2.0,3.777080009160446,"1689162,","-0.63,","0.91,","1.03,","-227.74,","104.76,","22.74,","10.65,","71.12,",-50.71,"1689172,","-0.58,","1.33,","1.27,","-241.10,","205.43,","1.10,","9.00,","70.22,",-49.51,63405,1602597237.853849,1234,0.7196994071184242,1.0706510223515227,2.875365872262214,0.8206389913893619,1.9285611223345955,2.0967595342449523,0.9955671273796406,1.6671355379142232,2.737776991352047,63397,1602597237.853849,4321,0.2841005027294159,1.3556432723999023,2.9734537601470947,3.3303065299987793,4.409815311431885,5.377639293670654
,,155357.878748,0.66310715675354,44221,1602597237.86761,vicon,object name,0.8305112530337155,1.627076705278327,1.0,2.392638684911713,1.0,2.0,3.4484064640955134,"1689182,","-0.47,","1.45,","1.61,","-157.56,","299.57,","-10.61,","10.05,","70.22,",-51.91,"1689191,","-0.21,","1.26,","1.70,","-11.46,","376.77,","-6.16,","9.45,","71.72,",-50.86,63407,1602597237.87379,1234,0.5858090422377171,1.8355796453998634,2.3259158141622924,0.1134329470508244,1.3128251875988903,2.3525507957784932,0.1853247422037031,1.3077827272572051,2.876267979360001,63399,1602597237.87379,4321,0.7069925665855408,1.6464977264404297,2.3862736225128174,3.1692559719085693,4.014739990234375,5.167270183563232
,,155357.898602,0.6829609870910645,44223,1602597237.887629,vicon,object name,0.8237518744936121,1.394259875290522,1.0,2.3970485085005446,1.0,2.0,3.290740812194631,"1689201,","0.24,","0.72,","1.02,","183.35,","430.00,","25.37,","8.55,","72.92,",-50.41,"1689211,","1.05,","-0.06,","-1.05,","453.48,","422.56,","73.96,","8.55,","72.92,",-50.41,63409,1602597237.893789,1234,0.35095937218347395,1.62192052061327,2.2252407775061913,0.6932421785035517,1.3047142587445517,2.007070418057356,0.06109923958305152,1.185460507060294,2.2245887287919714,63401,1602597237.893789,4321,0.30084341764450073,1.5110414028167725,2.014580488204956,3.9872660636901855,4.360710144042969,5.556999683380127
,,155357.945161,0.7295207977294922,44228,1602597237.937565,vicon,object name,0.25256730906510905,1.8265083060671095,1.0,2.3940904213061156,1.0,2.0,3.8429947612276427,"1689220,","1.86,","0.17,","-3.28,","625.18,","362.99,","57.50,","10.05,","72.32,",-48.16,"1689278,","1.86,","0.12,","-3.15,","610.85,","221.34,","-47.20,","11.25,","73.22,",-49.36,63413,1602597237.933855,1234,0.43638555703624426,1.418331309195453,2.8506764319761393,0.9850794304055124,1.555008354951666,2.308843738282113,0.34971859210989753,1.2117654311616182,2.204004086373638,63405,1602597237.933855,4321,0.23863601684570312,1.598302960395813,2.9049246311187744,3.290085554122925,4.674004554748535,5.0587849617004395
,,155357.965891,0.7502808570861816,44230,1602597237.957639,vicon,object name,0.8826741266784377,1.6706065881997425,1.0,2.582143711977836,1.0,2.0,3.115614700174502,"1689288,","1.12,","-0.80,","-2.53,","441.16,","124.57,","-188.29,","11.85,","74.42,",-48.16,"1689299,","0.66,","-1.38,","-2.20,","146.28,","145.91,","-284.09,","10.65,","73.97,",-49.06,63415,1602597237.95374,1234,0.2681788346610695,1.9375374343260636,2.4303193486079184,0.20383798031546507,1.1458034696625456,2.806309434102097,0.5195229658686565,1.7245540485877175,2.723335242738257,63407,1602597237.95374,4321,0.3088655173778534,1.750264286994934,2.9337501525878906,3.8472201824188232,4.909268856048584,5.553699970245361
,,155357.986481,0.7708456516265869,44232,1602597237.977577,vicon,object name,0.18630670170631136,1.529116717000923,1.0,2.6032057732912897,1.0,2.0,3.0991299130493477,"1689309,","0.33,","-1.37,","-3.04,","-86.95,","144.33,","-284.82,","10.05,","74.12,",-50.56,"1689319,","-0.44,","-1.54,","-1.98,","-128.78,","12.80,","-162.13,","11.70,","73.67,",-49.36,63417,1602597237.973768,1234,0.7995249140241942,1.118999812676236,2.8680921204004015,0.8459048706710802,1.4485574440714264,2.0957318780144982,0.5611932811827121,1.4247973906972284,2.3172302006203473,63409,1602597237.973768,4321,0.26244068145751953,1.8206301927566528,2.9895763397216797,3.1307952404022217,4.867427825927734,5.096022605895996
,,155358.007074,0.7914383411407471,44234,1602597237.997603,vicon,object name,0.23048216714991254,1.6689226879088699,1.0,2.9741611713763163,1.0,2.0,3.202386885082012,"1689330,","-0.17,","-0.73,","-1.37,","-115.98,","42.87,","-78.11,","11.10,","73.07,",-48.91,"1689340,","-0.03,","-0.30,","-1.55,","-119.51,","82.13,","-43.66,","10.05,","73.07,",-49.51,63419,1602597237.993731,1234,0.2005089146258322,1.325789317488764,2.6361805383288766,0.34754512645344615,1.1432469756498025,2.538372630600615,0.18363836083481733,1.118768851182376,2.0392847697951177,63411,1602597237.993731,4321,0.7475457787513733,1.642234206199646,2.444441795349121,3.7028236389160156,4.673022270202637,5.828530788421631
,,155358.027364,0.8117289543151855,44236,1602597238.17603,vicon,object name,0.9321454637648621,1.5496253114921896,1.0,2.7707097931337055,1.0,2.0,3.972544075530821,"1689350,","-0.01,","-0.08,","-1.36,","-72.44,","81.95,","-25.49,","11.25,","72.92,",-49.66,"1689360,","0.06,","0.10,","-1.11,","-33.17,","54.63,","-18.29,","12.75,","73.67,",-50.11,63421,1602597238.13741,1234,0.604135621902604,1.1026563211226017,2.196240049380779,0.0431210432111333,1.5107920665510908,2.0327085271542775,0.3080052744277313,1.3947107904007763,2.9057181997372283,63413,1602597238.13741,4321,0.03653254732489586,1.1470956802368164,2.8637144565582275,3.4387049674987793,4.524048805236816,5.14310884475708
,,155358.048056,0.8324201107025146,44238,1602597238.37594,vicon,object name,0.9070318818268455,1.1185057007532633,1.0,2.265071277836168,1.0,2.0,3.4965672860118318,"1689371,","-0.17,","0.56,","-2.14,","3.17,","-95.85,","-12.20,","10.05,","72.77,",-50.26,"1689381,","-0.67,","0.87,","-1.25,","76.34,","-56.83,","-19.21,","11.10,","74.42,",-48.91,63423,1602597238.33746,1234,0.801057860109864,1.8604443185141433,2.208338872758577,0.6203644470044658,1.247654294897802,2.3813078333670923,0.44365332889092013,1.398922822673896,2.4463543356308977,63415,1602597238.33746,4321,0.7823410630226135,1.2028987407684326,2.9818406105041504,3.0551390647888184,4.446822166442871,5.520101547241211
,,155358.068449,0.8528091907501221,44240,1602597238.57597,vicon,object name,0.5111952890585786,1.3573504053608856,1.0,2.580321286355287,1.0,2.0,3.1223258529170477,"1689391,","-0.24,","0.03,","-1.05,","15.98,","34.21,","-15.30,","9.90,","73.22,",-49.66,"1689401,","0.07,","0.18,","-1.11,","21.40,","-13.72,","16.65,","10.80,","73.37,",-49.21,63426,1602597238.6374,1234,0.044821633612695644,1.4918219694284098,2.4900351294739727,0.4562505713966263,1.7256296737413739,2.928612332107835,0.6782502778869152,1.4244139570321428,2.7329457585432517,63418,1602597238.6374,4321,0.5795180201530457,1.1464446783065796,2.553309202194214,3.050309658050537,4.93710994720459,5.945047855377197
,,155358.137738,0.9221022129058838,44247,1602597238.127654,vicon,object name,0.2653025764178617,1.0476685061409303,1.0,2.401405883609062,1.0,2.0,3.9598923213826156,"1689460,","0.09,","0.32,","-0.99,","49.39,","-58.84,","31.10,","12.60,","73.37,",-49.21,"1689471,","0.08,","0.19,","-0.98,","35.67,","-49.51,","11.71,","11.55,","73.82,",-50.11,63432,1602597238.12384,1234,0.7131621429538145,1.0407402628691775,2.9094421682090523,0.5193190818163261,1.7334281320747542,2.9996176978969973,0.9523403307471132,1.0027966028811295,2.535856936273839,63424,1602597238.12384,4321,0.7487043738365173,1.3995798826217651,2.1616909503936768,3.6899116039276123,4.359736442565918,5.3151373863220215
,,155358.157965,0.9423313140869141,44249,1602597238.147606,vicon,object name,0.4121283193045441,1.9030219566275095,1.0,2.5639533358445226,1.0,2.0,3.3112953157142524,"1689481,","-0.09,","-0.00,","-0.93,","12.68,","-31.83,","-3.60,","12.15,","74.42,",-50.26,"1689491,","-0.04,","-0.03,","-0.90,","-0.79,","-35.67,","-4.63,","11.85,","72.02,",-49.81,63434,1602597238.143804,1234,0.1615885309111671,1.9759702711204776,2.9822032110132715,0.955627051126142,1.8496769036798584,2.270375505672507,0.8822430276939954,1.9345326232021458,2.6449131984297765,63426,1602597238.143804,4321,0.9489896297454834,1.7453862428665161,2.196941375732422,3.5635154247283936,4.064939975738525,5.148995399475098
,,155358.178565,0.9629247188568115,44251,1602597238.167659,vicon,object name,0.2322902581804459,1.8614809561107206,1.0,2.385799935820793,1.0,2.0,3.3313386445157613,"1689501,","-0.06,","0.01,","-0.88,","4.88,","-40.24,","-1.95,","13.05,","71.87,",-50.11,"1689511,","-0.06,","-0.01,","-0.87,","10.98,","-30.85,","-5.18,","11.55,","71.72,",-50.56,63437,1602597238.173812,1234,0.16574587772199534,1.1808192920958938,2.530944810067103,0.8669628295868804,1.0174667824684023,2.4420659295594076,0.10016851142891636,1.9912907990589992,2.4945031327669143,63429,1602597238.173812,4321,0.35896721482276917,1.741721272468567,2.571244955062866,3.0525500774383545,4.722012042999268,5.293344497680664
,,155358.198844,0.9832088947296143,44253,1602597238.187587,vicon,object name,0.5359686194887012,1.7244761092803085,1.0,2.839713707611226,1.0,2.0,3.944843146671245,"1689522,","-0.09,","-0.07,","-0.85,","13.78,","-11.83,","-9.15,","12.30,","72.47,",-50.11,"1689532,","-0.10,","-0.10,","-0.86,","15.30,","3.54,","-8.54,","12.75,","72.17,",-50.71,63439,1602597238.193783,1234,0.798956471543141,1.0389073783346539,2.482649735757514,0.5907555677615058,1.5289593103585162,2.178626319653074,0.8366672774603438,1.2859342813712868,2.813984741899214,63431,1602597238.193783,4321,0.8992354273796082,1.9946638345718384,2.895674467086792,3.943742036819458,4.75625467300415,5.726541996002197
,,155358.219038,1.0034003257751465,44255,1602597238.207625,vicon,object name,0.767509951592504,1.3334512670035779,1.0,2.809548296216991,1.0,2.0,3.806615500233647,"1689542,","-0.07,","-0.07,","-0.80,","21.52,","9.82,","-2.32,","12.75,","71.42,",-50.71,"1689552,","-0.04,","-0.00,","-0.78,","19.21,","11.71,","3.23,","13.05,","71.87,",-50.41,63441,1602597238.213845,1234,0.5260473949923564,1.3840138432181226,2.093443915990965,0.06671626226184468,1.0205026367024868,2.7084860060695894,0.2742162913256415,1.9030382527666716,2.9712342479817933,63433,1602597238.213845,4321,0.7208194136619568,1.6785882711410522,2.0785953998565674,3.868896722793579,4.487191200256348,5.864726543426514
,,155358.239563,1.0239250659942627,44257,1602597238.227605,vicon,object name,0.49434306363447644,1.2206836774651662,1.0,2.2683144217107625,1.0,2.0,3.5305144310385876,"1689562,","-0.03,","0.01,","-0.84,","11.71,","12.38,","6.10,","12.60,","72.02,",-50.56,"1689572,","-0.00,","0.06,","-0.87,","12.93,","9.51,","8.29,","13.65,","71.27,",-52.21,63443,1602597238.233835,1234,0.49423195992905866,1.4343879036144516,2.435843580064234,0.6768929981001393,1.6704578745189753,2.4924030324833333,0.04533195924305611,1.9155714959909167,2.944192473018256,63435,1602597238.233835,4321,0.9539878368377686,1.973474383354187,2.9816484451293945,3.7869675159454346,4.844721794128418,5.8701558113098145
,,155358.259269,1.0436301231384277,44259,1602597238.247624,vicon,object name,0.8104667027333646,1.616607125846707,1.0,2.6341082585869073,1.0,2.0,3.093105381875364,"1689582,","0.04,","0.12,","-0.89,","21.04,","6.95,","9.82,","12.30,","70.37,",-51.76,"1689592,","0.05,","0.13,","-0.93,","33.05,","-2.07,","9.82,","12.30,","69.77,",-51.46,63445,1602597238.253788,1234,0.11877187057701999,1.2944957179574486,2.768688296716998,0.12281431325764958,1.0749241245671552,2.362773808699414,0.4989340911829778,1.8301092286909042,2.61857960385389,63437,1602597238.253788,4321,0.17107148468494415,1.9540337324142456,2.968163251876831,3.2782301902770996,4.991916179656982,5.434023857116699
,,155358.327434,1.1117942333221436,44266,1602597238.317613,vicon,object name,0.7910995823254553,1.4829225911994217,1.0,2.0784412696706234,1.0,2.0,3.7118987625279187,"1689650,","0.03,","0.08,","-0.92,","42.38,","-13.96,","7.26,","16.35,","66.32,",-52.21,"1689660,","-0.04,","-0.02,","-0.85,","45.18,","-19.15,","4.15,","15.45,","67.07,",-51.61,63451,1602597238.313857,1234,0.5999953276832852,1.4975695152966133,2.600145238958036,0.4201852569502973,1.84974479576716,2.1901434017320045,0.5556199543975773,1.7115825417258133,2.766093960920927,63443,1602597238.313857,4321,0.6701774001121521,1.1428033113479614,2.16156005859375,3.8641414642333984,4.544826507568359,5.8554606437683105
,,155358.347872,1.1322309970855713,44268,1602597238.337573,vicon,object name,0.5610933005273349,1.5835354995623736,1.0,2.737075683475954,1.0,2.0,3.700174016685666,"1689671,","-0.08,","-0.09,","-0.90,","32.99,","-14.70,","1.59,","16.05,","66.77,",-51.91,"1689681,","-0.09,","-0.13,","-0.94,","18.84,","-1.16,","-0.12,","14.70,","68.12,",-53.26,63454,1602597238.343791,1234,0.3404524600994441,1.3074120852272535,2.3027844804297457,0.8822757165046319,1.2497356381549571,2.3809746036462123,0.7237310738495666,1.9113170246377693,2.0555027283227307,63445,1602597238.333751,4321,0.8392168879508972,1.1505391597747803,2.5771186351776123,3.6085917949676514,4.38800048828125,5.544715404510498
,,155358.368324,1.1526825428009033,44270,1602597238.357683,vicon,object name,0.022257055968660677,1.7853012809947995,1.0,2.1918562568180358,1.0,2.0,3.1099627633292544,"1689691,","-0.08,","-0.13,","-0.95,","4.70,","11.71,","-0.61,","14.70,","68.87,",-52.96,"1689701,","-0.05,","-0.10,","-0.94,","-8.29,","19.76,","-1.10,","15.15,","69.32,",-54.16,63456,1602597238.363805,1234,0.599905927194437,1.520586891405843,2.5170874481363676,0.7527944077501861,1.0944022807030707,2.5691202632076413,0.8967467767719348,1.070202894351107,2.1697138960068685,63448,1602597238.363805,4321,0.8560715317726135,1.2427290678024292,2.55092191696167,3.4437384605407715,4.031059265136719,5.244969367980957
,,155358.388528,1.172888994216919,44272,1602597238.377662,vicon,object name,0.32918573116118544,1.5532597097436076,1.0,2.348148457917743,1.0,2.0,3.5033786484874154,"1689711,","-0.04,","-0.08,","-0.93,","-16.83,","26.77,","-1.16,","14.70,","69.92,",-52.51,"1689721,","0.12,","-0.08,","-0.85,","-16.22,","32.01,","0.06,","14.40,","70.82,",-51.46,63458,1602597238.38387,1234,0.5427333831174517,1.4627300829767445,2.5902983149146226,0.17144596711249815,1.7459962271330884,2.373947951510515,0.25493730632787825,1.875300581193338,2.482653558780851,63450,1602597238.38387,4321,0.9798334836959839,1.773682951927185,2.492711067199707,3.486107110977173,4.385663032531738,5.134866237640381
,,155358.40852,1.1928784847259521,44274,1602597238.397558,vicon,object name,0.12465019891302909,1.3451765567143816,1.0,2.0396299388129164,1.0,2.0,3.5988602009202126,"1689732,","0.10,","0.04,","-1.15,","-7.32,","1.28,","4.94,","15.30,","71.72,",-50.56,"1689742,","0.03,","0.02,","-1.01,","15.43,","-8.96,","6.04,","14.70,","73.37,",-48.91,63460,1602597238.403737,1234,0.35707371469367855,1.9241651011264882,2.0080069768426982,0.3496714077932792,1.2158664337788703,2.271371316401983,0.9690658386912082,1.2558089914101096,2.0387974646595977,63452,1602597238.403737,4321,0.04037195444107056,1.4133353233337402,2.228544235229492,3.8767967224121094,4.558108329772949,5.35101318359375
,,155358.428851,1.2132108211517334,44276,1602597238.417583,vicon,object name,0.7382134806585727,1.1016007193438149,1.0,2.961416014915847,1.0,2.0,3.945749957687032,"1689752,","-0.07,","-0.04,","-1.00,","22.32,","5.49,","4.94,","14.25,","74.87,",-49.81,"1689762,","-0.09,","-0.10,","-0.95,","24.88,","32.62,","8.05,","16.05,","74.12,",-50.86,63462,1602597238.42382,1234,0.5626767349808258,1.2515809330937593,2.4705281999117688,0.3116964998319033,1.3024199257607854,2.6256282690205923,0.777762167826138,1.2995463191015686,2.1327429088848935,63454,1602597238.42382,4321,0.3454835116863251,1.8968679904937744,2.5605738162994385,3.0787932872772217,4.400897979736328,5.347757339477539
,,155358.449518,1.233884334564209,44278,1602597238.437569,vicon,object name,0.5052925602386501,1.2045876389831862,1.0,2.7553722159800005,1.0,2.0,3.625560418308337,"1689772,","-0.02,","-0.06,","-0.97,","35.73,","38.54,","14.51,","14.10,","76.82,",-48.61,"1689782,","0.01,","-0.04,","-0.97,","57.80,","18.96,","22.62,","14.40,","73.67,",-48.31,63464,1602597238.443844,1234,0.37063531181457476,1.1479370935802284,2.1832246968475477,0.6994930400431835,1.9136395790919618,2.528073860576242,0.951928891356188,1.1008121051319821,2.4064485724029674,63456,1602597238.443844,4321,0.3698700964450836,1.681111454963684,2.828360080718994,3.0600075721740723,4.399616241455078,5.196306228637695
,,155358.51886,1.303220272064209,44285,1602597238.507546,vicon,object name,0.05982182272768399,1.8711732600633706,1.0,2.0315669416516005,1.0,2.0,3.0256711562207004,"1689842,","-0.05,","-0.16,","-0.86,","31.77,","24.45,","22.26,","12.75,","71.42,",-50.11,"1689852,","-0.07,","-0.13,","-1.07,","24.21,","-9.02,","31.04,","13.05,","70.07,",-54.16,63471,1602597238.513726,1234,0.9011352444210682,1.6294761094185661,2.0745296580461434,0.5587959178017408,1.5415721164252267,2.3416155065056183,0.08136373605212266,1.043203883133502,2.350308730930118,63463,1602597238.513726,4321,0.07642236351966858,1.9380463361740112,2.731180191040039,3.7748236656188965,4.039196491241455,5.494949817657471
,,155358.539268,1.3236274719238281,44287,1602597238.52761,vicon,object name,0.8716343827773407,1.7643238479441137,1.0,2.2775592431491867,1.0,2.0,3.825972683265675,"1689862,","-0.04,","-0.32,","-0.64,","37.07,","2.44,","43.54,","10.65,","68.72,",-54.16,"1689872,","-0.23,","-0.23,","-1.02,","21.89,","-19.21,","52.93,","7.65,","68.57,",-52.96,63473,1602597238.533853,1234,0.4001859233377911,1.2707242603017397,2.8896878635616146,0.702050314928364,1.2486681424020343,2.9811689585769696,0.5009847077609788,1.8290837528298356,2.6617941185863057,63465,1602597238.533853,4321,0.029146162793040276,1.1757022142410278,2.3283703327178955,3.836467742919922,4.32493257522583,5.811923027038574
,,155358.559954,1.3443305492401123,44289,1602597238.547641,vicon,object name,0.1995519972810813,1.7706248567886536,1.0,2.4434335837355063,1.0,2.0,3.654721180586834,"1689882,","-0.14,","-0.34,","-0.79,","37.13,","44.51,","65.79,","8.85,","69.77,",-52.81,"1689893,","-0.09,","-0.39,","-0.84,","46.46,","69.88,","83.84,","8.10,","68.72,",-51.46,63475,1602597238.553762,1234,0.5253128378879626,1.7259330531821666,2.070648541711364,0.3148091184903715,1.5215047560055595,2.576529139545568,0.2981680430821081,1.4274871410887564,2.250138312792556,63467,1602597238.553762,4321,0.21265745162963867,1.9843403100967407,2.1826868057250977,3.262226104736328,4.439227104187012,5.928164958953857
,,155358.580374,1.3647379875183105,44291,1602597238.567579,vicon,object name,0.4617062318496786,1.7900443665090604,1.0,2.7547762208612747,1.0,2.0,3.614910730826697,"1689903,","0.11,","-0.41,","-1.10,","72.44,","87.38,","99.39,","6.90,","69.92,",-52.21,"1689913,","0.50,","-0.32,","-1.37,","94.33,","89.33,","102.74,","8.10,","70.37,",-51.76,63477,1602597238.573782,1234,0.26800299869569655,1.4539795871113241,2.5869198967602873,0.06714771317461432,1.1572848232592516,2.0694926076463265,0.8445356290619569,1.9930309574975222,2.399475916999859,63469,1602597238.573782,4321,0.571711003780365,1.1440290212631226,2.7707107067108154,3.9689748287200928,4.979545593261719,5.035127639770508
,,155358.600569,1.3849289417266846,44294,1602597238.597643,vicon,object name,0.27266579464717144,1.1270719191348235,1.0,2.633742663371126,1.0,2.0,3.2859501640559854,"1689923,","0.53,","0.10,","-2.16,","114.76,","36.16,","85.67,","6.60,","72.02,",-51.16,"1689933,","0.40,","0.15,","-1.80,","153.35,","62.68,","62.13,","5.40,","71.87,",-51.01,63479,1602597238.593798,1234,0.06616286333087706,1.5153568324060196,2.3880856028549244,0.2938986828446084,1.5852774543150758,2.085204058282117,0.15613514372204762,1.6183492127660597,2.751504411189233,63471,1602597238.593798,4321,0.750965416431427,1.300424337387085,2.2764670848846436,3.412275791168213,4.975314617156982,5.586759567260742
,,155358.621066,1.4054293632507324,44296,1602597238.617573,vicon,object name,0.9549557348274178,1.248408310316705,1.0,2.0864665886851737,1.0,2.0,3.08668746928902,"1689944,","0.57,","-0.02,","-1.42,","139.33,","134.02,","21.04,","5.55,","72.77,",-51.91,"1689954,","0.53,","-0.28,","-1.50,","56.28,","81.95,","-22.38,","4.95,","70.07,",-51.01,63481,1602597238.613746,1234,0.13953849059299261,1.6276339719273296,2.983090639292209,0.9110808938547952,1.4465773954439531,2.041440694169233,0.3589148807675543,1.552683181177131,2.401698237886616,63473,1602597238.613746,4321,0.45516133308410645,1.2067956924438477,2.4827160835266113,3.617663621902466,4.20717716217041,5.90576171875
,,155358.64142,1.4257748126983643,44298,1602597238.637558,vicon,object name,0.191798144118155,1.0265275075734768,1.0,2.6384793860239624,1.0,2.0,3.9573717245410975,"1689964,","0.51,","-0.39,","-1.58,","-7.56,","19.51,","-39.82,","4.95,","71.12,",-51.46,"1689974,","0.43,","-0.43,","-1.49,","-31.65,","-12.44,","-47.44,","6.75,","70.37,",-50.71,63483,1602597238.633735,1234,0.7389963216606016,1.3278172635332472,2.8133675901641,0.19931799753913937,1.2018813824901209,2.390535349899302,0.7196953257609753,1.7928513291293275,2.0506973031676257,63475,1602597238.633735,4321,0.12623728811740875,1.057309865951538,2.2070603370666504,3.2195656299591064,4.36295223236084,5.089147567749023
,,155358.709904,1.494257926940918,44305,1602597238.707549,vicon,object name,0.32052539734533947,1.9330596233830164,1.0,2.4992606805133923,1.0,2.0,3.8347495553284743,"1690033,","0.50,","-0.66,","-1.38,","-21.95,","-183.90,","40.98,","1.80,","67.67,",-50.41,"1690043,","0.33,","-0.57,","-1.27,","-35.67,","-175.98,","17.56,","1.05,","68.87,",-51.16,63490,1602597238.703854,1234,0.6772663481932499,1.6401302671505213,2.2969873561095246,0.9776564782182547,1.4543719332117844,2.108336101218243,0.36691886697588993,1.3019200911975688,2.328280804468765,63482,1602597238.703854,4321,0.30777278542518616,1.4022722244262695,2.7410874366760254,3.491546154022217,4.424988269805908,5.887611389160156
,,155358.730411,1.514765739440918,44307,1602597238.727553,vicon,object name,0.42351375577416006,1.5533304606437333,1.0,2.8881959848258054,1.0,2.0,3.8445583308037,"1690053,","0.22,","-0.61,","-1.26,","-72.62,","-158.84,","-10.00,","-0.45,","68.12,",-51.61,"1690063,","0.25,","-0.52,","-1.11,","-123.29,","-115.73,","-53.48,","-0.90,","67.67,",-50.11,63492,1602597238.723875,1234,0.7801898026059988,1.220669154398295,2.1271607896704396,0.8138242937831854,1.087989019543012,2.6349578140337875,0.543266253178763,1.044021664964176,2.9382713796991116,63484,1602597238.723875,4321,0.6279373168945312,1.2833691835403442,2.0233960151672363,3.9392096996307373,4.802194595336914,5.312663555145264
,,155358.750914,1.5352709293365479,44309,1602597238.747584,vicon,object name,0.4950312129757458,1.0355187902957854,1.0,2.7889553925050254,1.0,2.0,3.9982790947828146,"1690073,","0.34,","-0.72,","-1.22,","-175.30,","-88.90,","-99.51,","-0.75,","67.52,",-52.21,"1690084,","0.55,","-0.62,","-1.18,","-227.38,","-66.52,","-156.89,","-1.65,","67.22,",-51.01,63494,1602597238.743733,1234,0.21572396919623693,1.5412285589810664,2.4611387628366,0.28761031957410654,1.2352682708978164,2.4739923298645454,0.49703669465624867,1.9383073860318536,2.4728264811172336,63486,1602597238.743733,4321,0.08286735415458679,1.7083539962768555,2.116731882095337,3.3001654148101807,4.28810453414917,5.208429336547852
,,155358.771373,1.5557284355163574,44311,1602597238.767542,vicon,object name,0.07507210626440175,1.778212672751763,1.0,2.4961196352026995,1.0,2.0,3.5018206915772927,"1690094,","0.53,","-0.37,","-0.83,","-241.52,","-38.54,","-222.13,","-1.50,","66.02,",-51.61,"1690104,","0.09,","-0.01,","-0.55,","-235.24,","-41.16,","-271.40,","-1.95,","64.82,",-51.01,63496,1602597238.763838,1234,0.5021619468653262,1.7137333613486443,2.0283951303400465,0.5332022726301514,1.8683093595978506,2.5123528765232117,0.9158672201524786,1.8037730093377053,2.2313196366798973,63488,1602597238.763838,4321,0.3374940752983093,1.3054790496826172,2.0638723373413086,3.4058644771575928,4.88237190246582,5.163084506988525
,,155358.791887,1.5762412548065186,44313,1602597238.787554,vicon,object name,0.11442947012103377,1.1997071344121981,1.0,2.8931398356383737,1.0,2.0,3.9412107635749334,"1690114,","-0.26,","-0.04,","-0.94,","-245.98,","-29.15,","-278.11,","-1.20,","63.17,",-49.81,"1690125,","-0.48,","0.15,","-0.46,","-294.70,","71.16,","-272.50,","0.15,","60.92,",-52.81,63498,1602597238.78385,1234,0.26914229981206805,1.9640398134425507,2.146031036145949,0.00213414185144456,1.7843538441082067,2.2830718043108558,0.7863960244279133,1.577148748692467,2.561005489090564,63490,1602597238.78385,4321,0.12930165231227875,1.9964810609817505,2.2091400623321533,3.6459217071533203,4.33376932144165,5.7021613121032715
,,155358.812503,1.596858024597168,44315,1602597238.807698,vicon,object name,0.48939946398610656,1.4847953604933095,1.0,2.8853000451256725,1.0,2.0,3.9260818005556217,"1690135,","-0.66,","0.41,","-0.28,","-254.70,","152.01,","-217.80,","0.15,","58.06,",-53.41,"1690145,","-0.93,","0.47,","-0.59,","-235.43,","224.94,","-155.24,","0.15,","54.91,",-53.11,63500,1602597238.803759,1234,0.5630047903336659,1.613650326254047,2.3539954300352495,0.6045138843720524,1.063905523271083,2.942448750649625,0.3170004978379851,1.271477605144355,2.8801901118852458,63492,1602597238.803759,4321,0.7319405674934387,1.6822199821472168,2.806267499923706,3.149014472961426,4.670233726501465,5.610936641693115
,,155358.882646,1.667004108428955,44322,1602597238.87759,vicon,object name,0.11745793367575263,1.1887025928043855,1.0,2.994646361823806,1.0,2.0,3.6505156957334544,"1690156,","-0.55,","0.31,","-0.56,","-292.44,","236.77,","-10.73,","3.30,","50.41,",-53.71,"1690215,","-0.21,","0.24,","-0.70,","-71.95,","-68.29,","18.17,","6.30,","50.26,",-53.56,63507,1602597238.873779,1234,0.8420396502949581,1.4637238600336677,2.6911792696120327,0.8689089354082743,1.316019867164231,2.293280876641166,0.31918786585037573,1.8743336970116915,2.402948425911286,63499,1602597238.873779,4321,0.6567515134811401,1.1050856113433838,2.6014347076416016,3.8849563598632812,4.232983589172363,5.8507795333862305
,,155358.903279,1.687638282775879,44324,1602597238.897567,vicon,object name,0.24336847548883334,1.3648927299068592,1.0,2.5551830596857896,1.0,2.0,3.708641449133011,"1690226,","-0.14,","0.39,","-0.57,","-73.60,","-37.20,","30.30,","5.25,","49.51,",-55.36,"1690236,","-0.15,","0.57,","-0.65,","-59.76,","-57.80,","43.23,","3.15,","50.26,",-53.86,63509,1602597238.893782,1234,0.6221421761255942,1.5993019515958102,2.7137862285823795,0.016767997036806648,1.7038924722841693,2.693932509517807,0.07283057428603079,1.8383733265426954,2.524929226673915,63501,1602597238.893782,4321,0.20415619015693665,1.0878976583480835,2.412059783935547,3.6495940685272217,4.757602691650391,5.442824363708496
,,155358.92347,1.7078299522399902,44326,1602597238.917591,vicon,object name,0.7753629229753582,1.9897045091807244,1.0,2.002319835246683,1.0,2.0,3.6115786047985616,"1690246,","-0.21,","0.49,","-0.80,","-54.70,","-59.76,","47.38,","2.70,","52.36,",-53.26,"1690256,","-0.16,","0.36,","-0.88,","-54.33,","-21.95,","44.33,","1.80,","51.16,",-53.71,63511,1602597238.913791,1234,0.6958620215498987,1.9251702098927657,2.443461834523233,0.2999894610764494,1.086215094941172,2.872297210759075,0.6529888802545917,1.5668492163851548,2.1169842088745137,63503,1602597238.913791,4321,0.6743065118789673,1.010750651359558,2.0393307209014893,3.7249035835266113,4.656013488769531,5.198386192321777
,,155359.00847,1.7928314208984375,44334,1602597238.9976,vicon,object name,0.7078748813718229,1.8401242213321156,1.0,2.2454773004586164,1.0,2.0,3.353803699347081,"1690331,","-1.31,","0.83,","0.22,","-17.26,","-227.38,","-31.40,","-2.55,","67.52,",-51.91,"1690341,","-1.82,","0.57,","0.13,","-2.87,","-182.32,","-62.44,","-3.30,","66.32,",-51.16,63520,1602597239.3833,1234,0.11115079615299173,1.1618265329364028,2.2889220064527667,0.5173164224348211,1.8311298350836922,2.888136729772827,0.1913495009133963,1.8844186107642678,2.7371670222356466,63512,1602597239.3833,4321,0.7841548323631287,1.2309281826019287,2.074214458465576,3.4152495861053467,4.667673110961914,5.315290927886963
,,155359.028684,1.8130507469177246,44336,1602597239.17579,vicon,object name,0.004321348254362478,1.9967013688682511,1.0,2.0846397046190717,1.0,2.0,3.641335765273243,"1690352,","-2.10,","0.52,","0.16,","18.11,","-84.70,","-82.26,","-1.80,","69.17,",-50.86,"1690361,","-2.23,","0.69,","0.19,","25.12,","12.62,","-80.79,","-0.90,","66.92,",-50.71,63522,1602597239.2385,1234,0.5279324964003269,1.6259581523088347,2.7293631905042854,0.3839450100581664,1.241830811006105,2.6156895435943173,0.7758689641925443,1.8967042819982105,2.3785974505516387,63514,1602597239.2385,4321,0.5120884776115417,1.5151714086532593,2.072286367416382,3.763021469116211,4.628118515014648,5.824192047119141
,,155359.048997,1.8333570957183838,44338,1602597239.37582,vicon,object name,0.4743459503813797,1.2046498735250188,1.0,2.640194679299244,1.0,2.0,3.0761712612467322,"1690371,","-2.08,","0.86,","0.19,","29.63,","90.12,","-56.89,","-2.25,","67.82,",-50.86,"1690382,","-1.76,","1.14,","0.30,","43.72,","150.98,","-2.01,","-1.20,","66.77,",-50.26,63524,1602597239.43781,1234,0.782175878861251,1.381226713565208,2.109414656813151,0.19096636152989277,1.3731113700803932,2.4383054303470324,0.1459422698991264,1.4557347534161504,2.6542736902065793,63516,1602597239.43781,4321,0.05081288889050484,1.5902920961380005,2.208287239074707,3.4093525409698486,4.6449384689331055,5.898182392120361
,,155359.068388,1.852745532989502,44340,1602597239.57602,vicon,object name,0.5732713117686317,1.43424051158052,1.0,2.6440527144316226,1.0,2.0,3.8725960662995966,"1690391,","-1.32,","1.26,","0.37,","79.63,","191.89,","94.88,","0.00,","67.07,",-51.61,"1690401,","-0.78,","1.17,","0.39,","134.57,","208.66,","217.38,","-1.20,","62.87,",-51.16,63526,1602597239.63852,1234,0.077836616048099,1.353785893550484,2.6988898720211685,0.8876964339466877,1.5376187930892986,2.0223506792962755,0.7653257013705917,1.4537542417292482,2.4644176438561542,63518,1602597239.63852,4321,0.5773472189903259,1.7000588178634644,2.5142323970794678,3.351886034011841,4.763646125793457,5.18052864074707
,,155359.137268,1.9216270446777344,44347,1602597239.127597,vicon,object name,0.7843558232888975,1.0520119268895143,1.0,2.36590558174117,1.0,2.0,3.588155515147971,"1690412,","-0.20,","0.98,","0.40,","195.00,","211.95,","326.22,","0.45,","61.67,",-53.41,"1690470,","0.18,","0.78,","0.37,","252.07,","209.09,","384.15,","10.50,","51.31,",-55.36,63532,1602597239.123771,1234,0.15640105100080537,1.4811528278494233,2.239614413132364,0.24196142201820692,1.247998266384268,2.1704347546291247,0.40675772678592015,1.5800702302442722,2.511805923816321,63524,1602597239.123771,4321,0.6268168091773987,1.7473558187484741,2.353043556213379,3.198429822921753,4.940940856933594,5.243837833404541
,,155359.156926,1.9412848949432373,44349,1602597239.147614,vicon,object name,0.6721530650790467,1.876459745419929,1.0,2.888571444761398,1.0,2.0,3.865876434431408,"1690480,","0.61,","0.40,","0.19,","295.61,","201.22,","374.02,","10.05,","49.21,",-54.91,"1690489,","1.39,","-0.15,","-0.20,","330.85,","208.29,","326.34,","10.65,","48.91,",-55.06,63534,1602597239.143789,1234,0.22068383997305097,1.2219639239748519,2.8547967070698013,0.41248663536929364,1.4761015477394377,2.7622664497563627,0.11092055073248086,1.2084965993880514,2.438412297380831,63526,1602597239.143789,4321,0.5852811932563782,1.5487934350967407,2.3725650310516357,3.1442618370056152,4.6862053871154785,5.985572338104248
,,155359.176619,1.9609787464141846,44351,1602597239.167612,vicon,object name,0.7069109342969394,1.7596468680001998,1.0,2.5292394203436985,1.0,2.0,3.723335903607485,"1690499,","2.28,","-0.98,","-0.73,","359.94,","240.98,","272.20,","12.00,","48.91,",-56.86,"1690509,","3.17,","-1.76,","-1.17,","332.50,","262.74,","193.90,","11.85,","47.11,",-55.96,63536,1602597239.163784,1234,0.6776118692943539,1.9234622918924333,2.66759617456752,0.6781670062711954,1.1652657324233495,2.6860443032821504,0.48606275819522315,1.2332287878115722,2.7730378816533516,63528,1602597239.163784,4321,0.1559464931488037,1.655106544494629,2.900329351425171,3.0992774963378906,4.369958877563477,5.357421398162842
,,155359.196122,1.9804840087890625,44353,1602597239.187682,vicon,object name,0.9160699634211784,1.6409573049479746,1.0,2.7841800561005834,1.0,2.0,3.4491369409622075,"1690519,","3.33,","-2.73,","-2.05,","250.00,","195.91,","134.27,","10.05,","45.01,",-57.01,"1690529,","3.06,","-2.79,","-2.05,","146.71,","142.44,","15.73,","7.50,","44.11,",-55.81,63538,1602597239.183771,1234,0.8036173427932356,1.5855450957104078,2.9229251174057143,0.26161376375684975,1.4066241180872288,2.373643331093492,0.6504208648211207,1.9516182692436383,2.9391039179524263,63530,1602597239.183771,4321,0.2708367109298706,1.1369829177856445,2.299938678741455,3.951704502105713,4.391727924346924,5.765040397644043
,,155359.215752,2.000127077102661,44355,1602597239.207656,vicon,object name,0.41143086052420663,1.2976731004402735,1.0,2.576774771949744,1.0,2.0,3.850416756086118,"1690538,","2.78,","-2.51,","-2.42,","56.59,","127.56,","-58.23,","7.80,","44.41,",-55.81,"1690548,","2.35,","-1.74,","-1.99,","-43.78,","212.62,","-90.00,","5.70,","43.66,",-55.51,63540,1602597239.203756,1234,0.444230371213269,1.7313993455097472,2.6956260986014255,0.3085938623076939,1.765909512052815,2.4098396733098255,0.21562116213816096,1.0410239431092012,2.866677354323443,63532,1602597239.203756,4321,0.017910191789269447,1.5820976495742798,2.8692777156829834,3.054475784301758,4.577044486999512,5.530307769775391
,,155359.235215,2.019577980041504,44357,1602597239.227615,vicon,object name,0.517789096068046,1.7626131825209148,1.0,2.0985087779033886,1.0,2.0,3.1666482432336114,"1690558,","2.42,","-0.99,","-1.49,","-148.90,","199.27,","-126.83,","3.45,","42.46,",-54.91,"1690568,","1.78,","-1.16,","-1.52,","-179.57,","102.93,","-2.44,","2.25,","45.16,",-56.11,63542,1602597239.22387,1234,0.9250669008334583,1.4619848399105195,2.101200829894177,0.9984747203177808,1.8415714932574652,2.4215621660217757,0.09201609961521895,1.9808822694501427,2.2911462857042144,63534,1602597239.22387,4321,0.6602497696876526,1.3859226703643799,2.3537681102752686,3.887519359588623,4.500281810760498,5.282165050506592
,,155359.25469,2.0390613079071045,44359,1602597239.247581,vicon,object name,0.5052488740633457,1.5413034334529487,1.0,2.8580196618757574,1.0,2.0,3.90944013548535,"1690577,","1.85,","-0.66,","-1.30,","-206.95,","17.93,","-82.99,","1.35,","46.36,",-57.61,"1690587,","1.51,","-0.44,","-0.88,","-243.90,","39.27,","-164.70,","-0.75,","47.41,",-55.36,63544,1602597239.243774,1234,0.9779408120351936,1.641674492130727,2.9403038719699426,0.8994896240734837,1.685152776990674,2.6426508662188137,0.670516299013324,1.5653360341926428,2.5308147683640945,63536,1602597239.243774,4321,0.17947722971439362,1.4864115715026855,2.635617971420288,3.381181240081787,4.513592720031738,5.76859188079834
,,155359.318857,2.103217840194702,44365,1602597239.30757,vicon,object name,0.8289139444073901,1.6215370355759497,1.0,2.8068203486492216,1.0,2.0,3.444232110018304,"1690642,","0.64,","-0.01,","-0.59,","-247.62,","61.04,","-218.60,","-2.55,","53.71,",-53.86,"1690651,","0.85,","0.38,","-0.59,","-202.93,","-108.35,","-232.01,","-3.30,","54.01,",-54.91,63551,1602597239.31376,1234,0.839909217234301,1.2390742383581341,2.4509923510888747,0.6689870303123135,1.7680702391051022,2.0019458200803877,0.11321048190883509,1.28576572990489,2.8330868762629917,63543,1602597239.31376,4321,0.47747498750686646,1.327268362045288,2.621344804763794,3.973017454147339,4.312558650970459,5.915399074554443
,,155359.338321,2.1226797103881836,44367,1602597239.32764,vicon,object name,0.2903905083250896,1.8665021429692592,1.0,2.366894396357483,1.0,2.0,3.9680123216801206,"1690661,","0.53,","0.63,","-0.39,","-183.35,","-184.94,","-200.67,","-5.10,","53.56,",-56.11,"1690671,","0.16,","0.88,","-0.38,","-176.83,","-190.85,","-145.06,","-2.70,","55.96,",-54.46,63553,1602597239.333851,1234,0.9971035229594232,1.4869797941352831,2.9575090557439765,0.9781089521798719,1.1084696364374436,2.8055625870450824,0.09866948227878625,1.603681943108532,2.364860993938683,63545,1602597239.333851,4321,0.11379717290401459,1.9649547338485718,2.045337677001953,3.1673152446746826,4.191168785095215,5.274438381195068
