name,date,time,time_since_start,vicon_sequence,vicon_time_stamp,vicon_frame_id,vicon_child_frame_id,vicon_translation_x,vicon_translation_y,vicon_translation_z,vicon_rotation_x,vicon_rotation_y,vicon_rotation_z,vicon_rotation_w,int_imu_time_stamp,int_imu_acc_x,int_imu_acc_y,int_imu_acc_z,int_imu_gyro_x,int_imu_gyro_y,int_imu_gyro_z,int_imu_mag_x,int_imu_mag_y,int_imu_mag_z,ext_imu_time_stamp,ext_imu_acc_x,ext_imu_acc_y,ext_imu_acc_z,ext_imu_gyro_x,ext_imu_gyro_y,ext_imu_gyro_z,ext_imu_mag_x,ext_imu_mag_y,ext_imu_mag_z,dji_imu_sequence,dji_imu_time_stamp,dji_imu_frame_id,dji_imu_orientation_x,dji_imu_orientation_y,dji_imu_orientation_z,dji_imu_ang_vel_x,dji_imu_ang_vel_y,dji_imu_ang_vel_z,dji_imu_lin_acc_x,dji_imu_lin_acc_y,dji_imu_lin_acc_z,rc_sequence,rc_time_stamp,rc_frame_id,rc_roll,rc_pitch,rc_yaw,rc_throttle,rc_mode,rc_landing_gear
/home/wc18ny/Desktop/VibrationTest/data.csv,20201016,133748.912723,2.3126602172851562e-05,0.0,0.0,0.0,0.0,0.0,0.0,0.0,0.0,0.0,0.0,0.0,14885.0,-0.0,0.0,-1.01,-1.4,-1.65,-0.12,-10.95,47.11,-54.31,14894.0,-0.01,0.01,-1.0,-1.46,-1.71,-0.3,-11.85,46.21,-54.46,1538,1602848268.905599,1234,0.48425271342553355,-9.77666877154434,2.0255961750895777,0.3847789094860605,1.998175196223237,2.276995769940917,0.43193727739724874,1.254759261755685,2.7434711410077846,1537,1602848268.905599,4321,0.9388746619224548,1.5664492845535278,2.373696804046631,3.923619508743286,4.509446620941162,5.407883167266846
,,133748.915033,0.0023314952850341797,0.0,0.0,0.0,0.0,0.0,0.0,0.0,0.0,0.0,0.0,0.0,14904.0,-0.01,0.0,-1.01,-1.52,-1.71,0.0,-10.8,47.86,-56.11,14913.0,-0.0,-0.0,-1.02,-1.4,-1.65,-0.24,-11.85,47.26,-54.76,1538,1602848268.905599,1234,0.48425271342553355,-9.77666877154434,2.0255961750895777,0.3847789094860605,1.998175196223237,2.276995769940917,0.43193727739724874,1.254759261755685,2.7434711410077846,1537,1602848268.905599,4321,0.9388746619224548,1.5664492845535278,2.373696804046631,3.923619508743286,4.509446620941162,5.407883167266846
,,133748.93532,0.022619962692260742,0.0,0.0,0.0,0.0,0.0,0.0,0.0,0.0,0.0,0.0,0.0,14922.0,-0.01,0.01,-1.01,-1.34,-1.77,-0.18,-12.75,47.11,-54.91,14932.0,-0.0,0.0,-1.02,-1.4,-1.65,-0.18,-11.1,48.61,-54.16,1540,1602848268.925544,1234,0.6272327302453862,-9.410102390443972,2.2373278119292554,0.14100966390710834,1.16135426547753,2.2923853735904607,0.8673108660980338,1.4255997728636416,2.997853875086287,1539,1602848268.925544,4321,0.6286277770996094,1.9800797700881958,2.288259267807007,3.2210257053375244,4.768172264099121,5.060965538024902
,,133748.958343,0.0456540584564209,0.0,0.0,0.0,0.0,0.0,0.0,0.0,0.0,0.0,0.0,0.0,14941.0,-0.01,0.01,-1.02,-1.46,-1.59,-0.18,-10.95,47.41,-54.91,14951.0,-0.01,0.0,-1.01,-1.34,-1.65,-0.24,-12.0,46.36,-54.91,1542,1602848268.945515,1234,0.33006744446680325,-9.74773436333151,2.410713941316821,0.519583626635454,1.8773590736996213,2.0180865263925245,0.07778962112063348,1.346679421497638,2.460633121804903,1541,1602848268.945515,4321,0.5846410393714905,1.7175114154815674,2.8869354724884033,3.680190086364746,4.047360420227051,5.125879287719727
,,133748.974738,0.062032461166381836,0.0,0.0,0.0,0.0,0.0,0.0,0.0,0.0,0.0,0.0,0.0,14960.0,0.0,0.01,-1.0,-1.4,-1.71,-0.24,-11.25,47.41,-53.86,14970.0,-0.0,0.02,-1.0,-1.34,-1.77,-0.3,-10.8,46.51,-56.11,1544,1602848268.965559,1234,0.28872648376634213,-9.63788432456608,2.429231084575227,0.6359346732027943,1.7926600754442514,2.772952943573987,0.5602051839889528,1.2735984706179324,2.5690197033744346,1543,1602848268.965559,4321,0.7229518890380859,1.3270263671875,2.0397751331329346,3.4210660457611084,4.996980667114258,5.32440710067749
,,133748.996972,0.08426809310913086,0.0,0.0,0.0,0.0,0.0,0.0,0.0,0.0,0.0,0.0,0.0,14979.0,-0.0,0.01,-1.0,-1.34,-1.77,-0.18,-12.0,47.71,-54.31,14989.0,-0.0,0.0,-1.01,-1.4,-1.77,-0.12,-12.0,47.71,-54.31,1546,1602848268.985522,1234,0.5233919564295099,-9.76136158329564,2.549960667717402,0.6796661692586831,1.9256850787245905,2.175617686129226,0.7451507076558402,1.6429482131727242,2.2434975597739943,1545,1602848268.985522,4321,0.4962466061115265,1.041022539138794,2.0294382572174072,3.1997129917144775,4.603201866149902,5.747043609619141
,,133749.019697,0.1070246696472168,0.0,0.0,0.0,0.0,0.0,0.0,0.0,0.0,0.0,0.0,0.0,15048.0,-0.0,0.01,-1.01,-1.4,-1.71,-0.24,-9.9,46.66,-54.31,15058.0,-0.01,0.01,-1.01,-1.46,-1.77,-0.12,-10.8,47.56,-54.16,1548,1602848269.5588,1234,0.18108650801500126,-9.306401419566924,2.428680867555147,0.0665108215349991,1.0341623981716008,2.329399049342875,0.7403760476267954,1.969127013752181,2.526422158397611,1547,1602848269.5588,4321,0.626168429851532,1.1762645244598389,2.857548475265503,3.1707065105438232,4.29710578918457,5.757316589355469
,,133749.035908,0.1232144832611084,0.0,0.0,0.0,0.0,0.0,0.0,0.0,0.0,0.0,0.0,0.0,15068.0,-0.01,-0.0,-1.0,-1.34,-1.71,-0.24,-11.1,47.86,-55.06,15078.0,0.0,0.0,-1.01,-1.52,-1.71,-0.24,-11.7,46.36,-54.31,1550,1602848269.2714,1234,0.456626040793755,-9.350938918133496,2.712776656670945,0.5242451119924977,1.3773315345574249,2.8818584602633095,0.36660443891568484,1.1489654192876704,2.7078778927042,1549,1602848269.2714,4321,0.4949321448802948,1.7890586853027344,2.421492576599121,3.0607542991638184,4.045578956604004,5.007988452911377
,,133749.055449,0.14275288581848145,0.0,0.0,0.0,0.0,0.0,0.0,0.0,0.0,0.0,0.0,0.0,15088.0,0.0,0.01,-1.02,-1.4,-1.71,-0.24,-10.8,48.31,-55.06,15098.0,-0.0,0.01,-1.01,-1.34,-1.71,-0.12,-10.2,47.11,-55.96,1552,1602848269.45573,1234,0.4885571681327503,-9.044590131446755,2.169297419221324,0.8051874478459007,1.0923279411532207,2.8225264202492135,0.17304258873867695,1.9776941115508073,2.1417334314506014,1551,1602848269.45573,4321,0.3590334951877594,1.6946450471878052,2.357177495956421,3.7540600299835205,4.0674872398376465,5.7803754806518555
,,133749.074904,0.16219830513000488,0.0,0.0,0.0,0.0,0.0,0.0,0.0,0.0,0.0,0.0,0.0,15108.0,-0.01,0.01,-1.0,-1.34,-1.71,-0.24,-11.25,48.16,-55.96,15118.0,-0.01,-0.0,-1.01,-1.59,-1.71,-0.12,-12.15,46.51,-54.46,1554,1602848269.65532,1234,0.7047309005093056,-9.383115043289985,2.8452375726485197,0.030575510001511708,1.4239796084652379,2.324325576135215,0.4528856119434307,1.3538522935028328,2.315031199763999,1553,1602848269.65532,4321,0.9898643493652344,1.7370147705078125,2.0959115028381348,3.645981550216675,4.502940654754639,5.573452472686768
,,133749.094641,0.18193626403808594,0.0,0.0,0.0,0.0,0.0,0.0,0.0,0.0,0.0,0.0,0.0,15128.0,-0.01,0.0,-1.0,-1.4,-1.71,-0.18,-10.35,46.81,-55.81,15138.0,-0.0,0.01,-1.01,-1.34,-1.65,-0.3,-10.95,46.36,-54.91,1556,1602848269.85531,1234,0.5717890651142179,-9.151083917133652,2.704566235172274,0.12113039978133977,1.473478878061368,2.1750472991654877,0.1629840353264752,1.3069902220605312,2.821384599026226,1555,1602848269.85531,4321,0.39782601594924927,1.145772933959961,2.5475547313690186,3.7551631927490234,4.887528419494629,5.751809120178223
,,133749.114907,0.20220184326171875,0.0,0.0,0.0,0.0,0.0,0.0,0.0,0.0,0.0,0.0,0.0,15148.0,-0.0,0.01,-0.99,-1.4,-1.71,-0.18,-11.7,47.71,-54.61,15158.0,-0.0,0.0,-1.01,-1.52,-1.71,-0.18,-11.7,47.71,-54.91,1558,1602848269.10574,1234,0.19116816511013945,-9.004486819327411,2.8134337159426064,0.8512675811554639,1.6053685294783757,2.905720598055785,0.9942204173011199,1.7946068677224807,2.746665899584971,1557,1602848269.10574,4321,0.620742917060852,1.709943413734436,2.7344372272491455,3.215989112854004,4.658101558685303,5.311277389526367
,,133749.135001,0.22229862213134766,0.0,0.0,0.0,0.0,0.0,0.0,0.0,0.0,0.0,0.0,0.0,15168.0,0.0,0.01,-1.0,-1.52,-1.71,-0.18,-12.45,48.31,-55.81,15177.0,-0.0,0.01,-1.01,-1.4,-1.65,-0.18,-11.7,47.11,-54.31,1560,1602848269.12548,1234,0.9709640030545191,-9.287709955701587,2.278576729309828,0.6444284172067624,1.7917555101340747,2.7411295001713736,0.5727581429343581,1.8985462026811526,2.5538029437954135,1559,1602848269.12548,4321,0.32375821471214294,1.7699103355407715,2.8654160499572754,3.9424610137939453,4.742169380187988,5.399523735046387
,,133749.155174,0.24247217178344727,0.0,0.0,0.0,0.0,0.0,0.0,0.0,0.0,0.0,0.0,0.0,15241.0,-0.0,0.01,-1.01,-1.52,-1.65,-0.18,-9.3,47.86,-53.41,15251.0,-0.01,0.0,-1.01,-1.46,-1.65,0.0,-11.85,46.81,-55.81,1562,1602848269.145524,1234,0.3803535457454792,-9.69348148664202,2.1448286867794684,0.36768377062352986,1.343618065684042,2.1800825385950073,0.6933875483689521,1.1076558085044739,2.545539306801902,1561,1602848269.145524,4321,0.08828800171613693,1.1223753690719604,2.676072359085083,3.319143295288086,4.420932292938232,5.205182075500488
,,133749.178346,0.2656726837158203,0.0,0.0,0.0,0.0,0.0,0.0,0.0,0.0,0.0,0.0,0.0,15261.0,-0.01,0.01,-1.0,-1.34,-1.65,-0.18,-10.8,46.81,-55.81,15270.0,-0.0,0.01,-0.99,-1.34,-1.77,-0.18,-10.65,47.71,-54.61,1564,1602848269.165644,1234,0.6421641888371123,-9.710280046505886,2.6123080829509044,0.5892150314014362,1.7966063064455202,2.8624898833565315,0.08454774317903657,1.1079368505393445,2.0177968205234897,1563,1602848269.165644,4321,0.2983369529247284,1.0649290084838867,2.640493392944336,3.4830563068389893,4.83833122253418,5.811018943786621
,,133749.197605,0.28491997718811035,0.0,0.0,0.0,0.0,0.0,0.0,0.0,0.0,0.0,0.0,0.0,15280.0,0.0,-0.0,-1.0,-1.4,-1.65,-0.37,-10.05,46.51,-55.81,15290.0,-0.01,0.0,-1.01,-1.4,-1.77,-0.37,-11.4,47.26,-54.46,1565,1602848269.175658,1234,0.737846728146623,-9.89097277120097,2.126731446048231,0.6770945452486246,1.6373866404312085,2.456097195748039,0.8682687183936552,1.5146671638086788,2.3290540046488157,1565,1602848269.187336,4321,0.21798619627952576,1.3579037189483643,2.790256977081299,3.119948387145996,4.13640832901001,5.066527843475342
,,133749.2162,0.3035085201263428,0.0,0.0,0.0,0.0,0.0,0.0,0.0,0.0,0.0,0.0,0.0,15300.0,-0.0,0.0,-1.01,-1.4,-1.71,-0.12,-11.25,47.11,-54.91,15310.0,-0.0,0.01,-1.02,-1.4,-1.65,-0.12,-10.8,48.31,-55.51,1568,1602848269.205534,1234,0.46638066140231094,-9.506245880863183,2.114031209951258,0.44326499709927736,1.7324193941848627,2.2558682235257805,0.45767205039277814,1.605541917992039,2.7994821476677885,1567,1602848269.205534,4321,0.3845647871494293,1.1506787538528442,2.9842965602874756,3.674781084060669,4.8538641929626465,5.756802082061768
,,133749.237265,0.3245995044708252,0.0,0.0,0.0,0.0,0.0,0.0,0.0,0.0,0.0,0.0,0.0,15320.0,-0.01,0.02,-1.01,-1.46,-1.71,-0.3,-10.95,47.41,-55.36,15330.0,0.0,0.0,-1.02,-1.4,-1.65,-0.18,-11.4,46.81,-54.76,1570,1602848269.225589,1234,0.8463862602599329,-9.78105853057266,2.1947739281040155,0.17717831563059017,1.6434706147516676,2.4341061030887694,0.24868427336668886,1.7513308752443288,2.348944327922712,1569,1602848269.225589,4321,0.6841822266578674,1.994819164276123,2.6759886741638184,3.983515501022339,4.860471725463867,5.179301738739014
,,133749.255599,0.34290242195129395,0.0,0.0,0.0,0.0,0.0,0.0,0.0,0.0,0.0,0.0,0.0,15340.0,-0.0,0.01,-1.0,-1.46,-1.65,-0.12,-11.1,47.56,-55.06,15350.0,-0.0,-0.0,-1.01,-1.52,-1.83,-0.24,-11.4,46.21,-54.76,1572,1602848269.245539,1234,0.5504678053722323,-9.248896662583364,2.4955640387377964,0.9803098274363684,1.177888397675669,2.0082316629761383,0.7966736835976154,1.8165982838618335,2.5130286976534797,1571,1602848269.245539,4321,0.16058319807052612,1.4059011936187744,2.1722779273986816,3.3969383239746094,4.898351192474365,5.477215766906738
,,133749.275357,0.3626558780670166,0.0,0.0,0.0,0.0,0.0,0.0,0.0,0.0,0.0,0.0,0.0,15360.0,-0.0,0.01,-1.01,-1.34,-1.71,-0.3,-11.4,48.31,-55.06,15370.0,-0.01,0.01,-1.01,-1.46,-1.71,-0.18,-12.0,46.66,-54.61,1574,1602848269.265532,1234,0.10235012744349081,-9.705506542734533,2.605678756657545,0.030792693760885892,1.0889119813668064,2.542221907443907,0.1050268041502973,1.8094995538676324,2.9948599141244445,1573,1602848269.265532,4321,0.2563721537590027,1.3932017087936401,2.5330653190612793,3.1545441150665283,4.538378715515137,5.325265407562256
,,133749.298505,0.3858318328857422,0.0,0.0,0.0,0.0,0.0,0.0,0.0,0.0,0.0,0.0,0.0,15433.0,-0.0,0.01,-1.0,-1.46,-1.65,-0.12,-10.35,46.51,-54.46,15443.0,-0.01,0.02,-1.02,-1.4,-1.77,0.0,-11.25,46.36,-54.31,1576,1602848269.285572,1234,0.4676828938280433,-9.235970548103353,2.7013032874760556,0.7215273180570899,1.2987732990945762,2.880202983985085,0.7420052874004243,1.3829248290295526,2.9924932192623483,1575,1602848269.285572,4321,0.6282366514205933,1.7823745012283325,2.5346872806549072,3.8436670303344727,4.714297294616699,5.438833236694336
,,133749.315577,0.4028804302215576,0.0,0.0,0.0,0.0,0.0,0.0,0.0,0.0,0.0,0.0,0.0,15453.0,-0.01,0.01,-1.0,-1.46,-1.65,-0.12,-11.1,48.31,-54.16,15463.0,-0.0,0.01,-1.01,-1.52,-1.65,-0.3,-11.4,48.31,-53.71,1578,1602848269.305581,1234,0.6155190617587314,-9.422314595314884,2.997178323410894,0.030319139523499405,1.2967545054707013,2.7153244558991876,0.8534305790154714,1.888095082466371,2.548656546610882,1577,1602848269.305581,4321,0.9914504885673523,1.6322542428970337,2.280334711074829,3.258530378341675,4.204606533050537,5.539327621459961
,,133749.335192,0.42249107360839844,0.0,0.0,0.0,0.0,0.0,0.0,0.0,0.0,0.0,0.0,0.0,15473.0,-0.0,0.01,-1.01,-1.4,-1.71,-0.18,-12.0,47.11,-54.91,15482.0,0.0,0.01,-1.0,-1.46,-1.71,-0.24,-11.7,46.06,-55.36,1580,1602848269.325689,1234,0.19661083983987182,-9.333131699169464,2.3315672994281313,0.38089121277733773,1.1279365370591155,2.2517893966501266,0.2171144335893812,1.4680915193266248,2.8150411205901893,1579,1602848269.325689,4321,0.9960439801216125,1.5461153984069824,2.8625340461730957,3.8500893115997314,4.240029335021973,5.0927300453186035
,,133749.355212,0.44250941276550293,0.0,0.0,0.0,0.0,0.0,0.0,0.0,0.0,0.0,0.0,0.0,15492.0,-0.0,0.01,-1.02,-1.4,-1.71,-0.37,-10.95,46.36,-55.36,15502.0,0.0,0.01,-1.01,-1.46,-1.65,-0.18,-10.95,47.41,-55.66,1582,1602848269.345524,1234,0.9803759567877885,-9.441865719131611,2.8828770666365107,0.40542977478736086,1.3359980256039865,2.412109940709937,0.5704076996973374,1.4559218457004586,2.422466100209273,1581,1602848269.345524,4321,0.8200763463973999,1.2543524503707886,2.582174062728882,3.7029566764831543,4.196587562561035,5.325207233428955
,,133749.376154,0.46346449851989746,0.0,0.0,0.0,0.0,0.0,0.0,0.0,0.0,0.0,0.0,0.0,15512.0,-0.0,0.01,-1.01,-1.34,-1.65,-0.18,-10.8,47.26,-55.51,15522.0,-0.0,0.01,-1.01,-1.34,-1.65,-0.24,-11.7,47.11,-55.36,1584,1602848269.365518,1234,0.2756187103589798,-9.205822856800546,2.3851480427379617,0.6231863129274258,1.0513307371754133,2.5032568512134006,0.9740407025529626,1.9725624102137456,2.7916409594098837,1583,1602848269.365518,4321,0.1948021650314331,1.2226048707962036,2.300077438354492,3.2914888858795166,4.745847702026367,5.270790100097656
,,133749.399192,0.48651909828186035,0.0,0.0,0.0,0.0,0.0,0.0,0.0,0.0,0.0,0.0,0.0,15532.0,0.0,0.01,-0.99,-1.46,-1.71,-0.3,-10.65,48.16,-54.91,15542.0,0.0,0.01,-1.01,-1.4,-1.65,-0.24,-10.65,46.06,-54.31,1586,1602848269.385637,1234,0.6502331855329793,-9.392377974919176,2.0312217727801833,0.6946030522425614,1.117491999518177,2.115896567383866,0.015340450428949826,1.060455223999311,2.9788875328389577,1585,1602848269.385637,4321,0.02180781401693821,1.0569530725479126,2.18078875541687,3.3138785362243652,4.419694900512695,5.309288024902344
,,133749.415516,0.5028200149536133,0.0,0.0,0.0,0.0,0.0,0.0,0.0,0.0,0.0,0.0,0.0,15552.0,-0.0,0.0,-1.0,-1.34,-1.71,-0.12,-12.3,47.41,-55.36,15562.0,-0.01,0.01,-1.01,-1.52,-1.59,-0.12,-12.0,48.46,-54.61,1588,1602848269.405559,1234,0.21229971102491163,-9.004180524688236,2.733280320310869,0.3593044477504235,1.6716442672741276,2.8228717550696185,0.4900573031180474,1.0142851560215458,2.5758342414657336,1587,1602848269.405559,4321,0.637017548084259,1.4238414764404297,2.4257874488830566,3.893968343734741,4.334897518157959,5.8559675216674805
,,133749.435634,0.5229377746582031,0.0,0.0,0.0,0.0,0.0,0.0,0.0,0.0,0.0,0.0,0.0,15626.0,-0.0,0.05,-12.09,-270.85,1052.01,-348.72,-11.1,47.56,-54.76,15700.0,-0.01,0.01,-1.01,-1.28,-1.77,-0.24,-11.1,46.51,-55.06,1590,1602848269.425556,1234,0.34036301117875023,-9.412206208273053,2.577352238129965,0.7508090954082495,1.6923129810828927,2.1111872569156223,0.0055230946034654504,1.1330256373394971,2.1457178944697963,1589,1602848269.425556,4321,0.6937639117240906,1.577684760093689,2.85332989692688,3.713305950164795,4.382511138916016,5.5840163230896
,,133749.455618,0.5429196357727051,0.0,0.0,0.0,0.0,0.0,0.0,0.0,0.0,0.0,0.0,0.0,15710.0,-0.0,0.0,-1.01,-1.4,-1.77,-0.18,-10.95,47.11,-55.36,15720.0,-0.0,0.0,-1.01,-1.46,-1.65,0.0,-9.9,47.11,-55.66,1592,1602848269.445535,1234,0.7633464262222728,-9.021797524592028,2.8401043742600116,0.7747879996612232,1.124620649176622,2.3672723270963654,0.20836426391041873,1.1365119415716578,2.23647672167776,1591,1602848269.445535,4321,0.3657442033290863,1.3650261163711548,2.5309154987335205,3.092219829559326,4.059858798980713,5.000290393829346
,,133749.475534,0.5628368854522705,0.0,0.0,0.0,0.0,0.0,0.0,0.0,0.0,0.0,0.0,0.0,15729.0,0.0,0.02,-1.0,-1.4,-1.65,-0.24,-12.45,47.56,-56.11,15740.0,-0.0,0.02,-1.01,-1.28,-1.71,-0.24,-11.4,46.51,-54.76,1594,1602848269.465535,1234,0.5992858414010451,-9.232523965980835,2.759601360109899,0.23865205209062323,1.7400539581219832,2.1794919155443733,0.6412469530945925,1.8747254776202515,2.67975848104457,1593,1602848269.465535,4321,0.6971755027770996,1.4564300775527954,2.554516315460205,3.1595206260681152,4.32404899597168,5.870283603668213
,,133749.495644,0.5829465389251709,0.0,0.0,0.0,0.0,0.0,0.0,0.0,0.0,0.0,0.0,0.0,15749.0,0.0,0.01,-1.01,-1.34,-1.71,-0.18,-12.0,47.41,-54.91,15760.0,0.0,0.0,-1.01,-1.46,-1.65,-0.24,-11.4,47.86,-54.16,1596,1602848269.485547,1234,0.7989802772217808,-9.813382292813396,2.9632802590939713,0.5511029868420304,1.7372724765688847,2.5739549931774337,0.8387392210415983,1.9382397710811163,2.2238736547810216,1595,1602848269.485547,4321,0.043191757053136826,1.6479355096817017,2.5493571758270264,3.745866060256958,4.248692035675049,5.3721723556518555
,,133749.515617,0.602921724319458,0.0,0.0,0.0,0.0,0.0,0.0,0.0,0.0,0.0,0.0,0.0,15769.0,-0.01,0.0,-1.01,-1.4,-1.65,-0.24,-10.65,48.76,-55.66,15780.0,-0.0,-0.0,-1.02,-1.4,-1.65,-0.12,-12.9,47.56,-54.46,1598,1602848269.50569,1234,0.20378954766391122,-9.347549986025113,2.6303782993392657,0.679851045275603,1.9418814432901597,2.5744273453868494,0.3508649457251022,1.243966644690149,2.8255932100108097,1597,1602848269.50569,4321,0.00586005998775363,1.478712797164917,2.5332469940185547,3.426236867904663,4.828900337219238,5.324508190155029
,,133749.536183,0.6234879493713379,0.0,0.0,0.0,0.0,0.0,0.0,0.0,0.0,0.0,0.0,0.0,20359.0,-0.0,0.01,-1.01,-1.34,-1.65,-0.24,-11.4,48.31,-56.11,20368.0,0.0,0.01,-1.01,-1.4,-1.65,-0.12,-11.25,47.71,-54.61,1600,1602848269.52553,1234,0.6941732002407737,-9.147863142930351,2.243313882236833,0.857063524030384,1.9825209802189878,2.796734260944927,0.492411955028619,1.3562759970866072,2.965813000833389,1599,1602848269.52553,4321,0.21602500975131989,1.408887267112732,2.102534055709839,3.7344231605529785,4.497397422790527,5.431478500366211
,,133749.55605,0.6433537006378174,0.0,0.0,0.0,0.0,0.0,0.0,0.0,0.0,0.0,0.0,0.0,20377.0,0.0,0.02,-1.02,-1.4,-1.77,-0.12,-10.35,47.56,-54.76,20387.0,-0.01,0.02,-1.02,-1.28,-1.59,-0.24,-10.65,46.36,-54.91,1602,1602848269.545549,1234,0.5609788884966402,-9.538969629397089,2.1746545108018647,0.2434185635862014,1.0167464030855538,2.17393942743335,0.7849979389647512,1.9344954172364397,2.5468552785011833,1601,1602848269.545549,4321,0.33216020464897156,1.739641785621643,2.041508913040161,3.391202926635742,4.1108222007751465,5.389199733734131
,,133749.576192,0.6634957790374756,0.0,0.0,0.0,0.0,0.0,0.0,0.0,0.0,0.0,0.0,0.0,20396.0,-0.0,0.01,-1.01,-1.4,-1.77,-0.3,-10.8,47.56,-54.76,20406.0,-0.01,0.01,-1.01,-1.46,-1.71,-0.3,-10.8,47.56,-54.76,1604,1602848269.565551,1234,0.31788919621094325,-9.781534142692385,2.417876260838776,0.4522132118709544,1.4699187535344949,2.3362812952775935,0.9191210629857515,1.5248849680820498,2.9679978926730044,1603,1602848269.565551,4321,0.31847843527793884,1.7418729066848755,2.0714974403381348,3.9820218086242676,4.295924663543701,5.9186859130859375
,,133749.596178,0.683488130569458,0.0,0.0,0.0,0.0,0.0,0.0,0.0,0.0,0.0,0.0,0.0,20415.0,-0.0,0.01,-1.01,-1.4,-1.65,-0.18,-10.8,47.86,-54.46,20425.0,0.0,0.0,-1.02,-1.34,-1.65,-0.3,-10.95,46.36,-54.61,1606,1602848269.585546,1234,0.4160740536328168,-9.331428518279386,2.7659496047921266,0.4500005266579582,1.7767058058317784,2.278138521823603,0.8439697269237174,1.076046609462789,2.2436810353853915,1605,1602848269.585546,4321,0.6027064323425293,1.5164225101470947,2.184234619140625,3.708160400390625,4.191812515258789,5.680285930633545
,,133749.615959,0.703275203704834,0.0,0.0,0.0,0.0,0.0,0.0,0.0,0.0,0.0,0.0,0.0,20434.0,-0.01,0.01,-1.01,-1.4,-1.59,-0.18,-11.85,47.56,-55.06,20444.0,-0.01,-0.0,-1.02,-1.34,-1.65,-0.18,-11.25,48.16,-53.56,1608,1602848269.605544,1234,0.5302610835739457,-9.114984289180528,2.4406606569899667,0.24843579839740781,1.5868813614938113,2.347463880224417,0.6792112627207286,1.6921654297923077,2.118915726770679,1607,1602848269.605544,4321,0.14611558616161346,1.507088541984558,2.1632180213928223,3.128859758377075,4.878365993499756,5.314122676849365
,,133749.683286,0.7705903053283691,0.0,0.0,0.0,0.0,0.0,0.0,0.0,0.0,0.0,0.0,0.0,20509.0,-0.01,0.01,-1.01,-1.4,-1.77,-0.18,-10.8,46.51,-54.76,20519.0,-0.01,0.0,-1.01,-1.34,-1.65,-0.24,-10.05,48.31,-54.16,1615,1602848269.675725,1234,0.7207519403696455,-9.797953417851094,2.6553524660759993,0.9752557476405739,1.9798294687877358,2.666053918791046,0.27615252410645064,1.2237190467371595,2.395294075340337,1614,1602848269.675725,4321,0.22716495394706726,1.3196429014205933,2.8157002925872803,3.9586613178253174,4.464301586151123,5.058381080627441
,,133749.703491,0.7908041477203369,0.0,0.0,0.0,0.0,0.0,0.0,0.0,0.0,0.0,0.0,0.0,20529.0,0.0,0.01,-1.01,-1.46,-1.71,-0.3,-10.95,46.36,-54.61,20539.0,-0.0,0.0,-1.02,-1.34,-1.65,-0.18,-10.8,48.31,-54.46,1617,1602848269.695571,1234,0.5122190989188912,-9.037213143287007,2.454811393149969,0.32795377081691335,1.4802559459185778,2.944004944505663,0.9071671565647468,1.8577318768618052,2.73388159160013,1616,1602848269.695571,4321,0.1655140519142151,1.4324512481689453,2.008140802383423,3.4440248012542725,4.093602180480957,5.518157482147217
,,133749.723147,0.8104498386383057,0.0,0.0,0.0,0.0,0.0,0.0,0.0,0.0,0.0,0.0,0.0,20549.0,-0.01,0.02,-1.0,-1.4,-1.65,-0.24,-10.95,48.16,-56.71,20559.0,-0.01,0.01,-1.0,-1.46,-1.77,0.0,-11.25,47.71,-54.31,1619,1602848269.715584,1234,0.7608905322126636,-9.531011842590631,2.6512091340938784,0.5720251980555391,1.1110473083762762,2.7346579545685876,0.8525401283795735,1.8673436214914065,2.094573310634508,1618,1602848269.715584,4321,0.7998849153518677,1.1884205341339111,2.339759588241577,3.972052574157715,4.090841293334961,5.342488765716553
,,133749.743805,0.8311398029327393,0.0,0.0,0.0,0.0,0.0,0.0,0.0,0.0,0.0,0.0,0.0,20568.0,0.01,0.01,-1.0,-1.59,-1.71,-0.24,-10.05,47.56,-53.71,20578.0,-0.0,0.01,-1.01,-1.46,-1.71,-0.24,-11.4,47.26,-55.06,1620,1602848269.725536,1234,0.8045288374690901,-9.89798556767173,2.1782479225953435,0.6740106394744125,1.8486040753506436,2.063495021312386,0.45601671813586386,1.4128966557315463,2.877973457056904,1619,1602848269.725536,4321,0.1342470496892929,1.5437678098678589,2.4190547466278076,3.4367549419403076,4.410312175750732,5.030475616455078
,,133749.763758,0.8510854244232178,0.0,0.0,0.0,0.0,0.0,0.0,0.0,0.0,0.0,0.0,0.0,20588.0,-0.01,0.01,-1.01,-1.52,-1.65,-0.24,-12.3,47.11,-55.66,20598.0,-0.0,0.01,-1.0,-1.34,-1.71,-0.18,-10.2,47.11,-53.86,1622,1602848269.745635,1234,0.9543996655335523,-9.526922330526656,2.8961513301488693,0.29237701106710867,1.3970548090538768,2.0773664141357564,0.6529336414025311,1.4867469384314531,2.1306121597803767,1621,1602848269.745635,4321,0.7829316258430481,1.0289586782455444,2.4220359325408936,3.333634853363037,4.856979846954346,5.911158561706543
,,133749.784125,0.8714520931243896,0.0,0.0,0.0,0.0,0.0,0.0,0.0,0.0,0.0,0.0,0.0,20608.0,-0.0,0.01,-1.0,-1.4,-1.65,-0.18,-11.4,47.26,-54.16,20618.0,0.0,0.0,-1.0,-1.52,-1.65,-0.24,-12.9,46.81,-55.81,1624,1602848269.765671,1234,0.9353342929568604,-9.632693732985134,2.649149555973103,0.36990855750576124,1.9964581401714845,2.1635186555310235,0.3658419404043113,1.0489282540046703,2.984523288634709,1623,1602848269.765671,4321,0.6316854357719421,1.1495198011398315,2.0885255336761475,3.8675196170806885,4.706984996795654,5.950600624084473
,,133749.802918,0.8902208805084229,0.0,0.0,0.0,0.0,0.0,0.0,0.0,0.0,0.0,0.0,0.0,20628.0,-0.01,0.0,-1.01,-1.59,-1.71,-0.24,-12.75,46.36,-53.26,20638.0,-0.0,0.01,-1.01,-1.46,-1.59,-0.3,-10.65,47.11,-54.61,1627,1602848269.79563,1234,0.9306283727979785,-9.475239908918232,2.063963689232588,0.10427365979568226,1.9475641392277878,2.7909402680284465,0.16914481469936782,1.660273201471218,2.837615988518272,1626,1602848269.79563,4321,0.31499868631362915,1.7740726470947266,2.750910520553589,3.541998863220215,4.996934413909912,5.489604949951172
,,133749.877259,0.9645836353302002,0.0,0.0,0.0,0.0,0.0,0.0,0.0,0.0,0.0,0.0,0.0,20703.0,-0.01,-0.0,-1.0,-1.4,-1.59,-0.24,-11.4,47.86,-53.41,20712.0,-0.01,0.01,-1.01,-1.52,-1.65,-0.24,-10.05,46.81,-55.51,1634,1602848269.865542,1234,0.7252232755759435,-9.012460855289852,2.264046302795685,0.4100994880024228,1.112313152472562,2.9150799888174324,0.12792149329601377,1.7210917390534677,2.2402684302796727,1633,1602848269.865542,4321,0.009146702475845814,1.6618998050689697,2.160332679748535,3.8488268852233887,4.929417133331299,5.74566650390625
,,133749.898336,0.9856846332550049,0.0,0.0,0.0,0.0,0.0,0.0,0.0,0.0,0.0,0.0,0.0,20722.0,-0.0,0.01,-1.01,-1.59,-1.59,-0.18,-10.8,46.51,-55.06,20732.0,-0.01,-0.0,-1.01,-1.34,-1.59,-0.18,-12.45,48.31,-54.76,1636,1602848269.885625,1234,0.39006580442055105,-9.013510958313656,2.0608771238017742,0.9443383432213072,1.1434268406001242,2.8166483734604344,0.388489360171119,1.2641082291275816,2.005451996076088,1635,1602848269.885625,4321,0.5523388385772705,1.027092695236206,2.4829790592193604,3.7870757579803467,4.531346321105957,5.044356822967529
,,133749.917963,1.005291223526001,0.0,0.0,0.0,0.0,0.0,0.0,0.0,0.0,0.0,0.0,0.0,20742.0,-0.0,0.0,-1.01,-1.4,-1.65,-0.24,-12.0,46.36,-55.96,20752.0,0.0,0.01,-1.0,-1.4,-1.59,-0.12,-13.05,47.71,-54.61,1638,1602848269.905949,1234,0.8374606020161894,-9.876427046889281,2.9845451457692764,0.19759837826433302,1.8115867930322804,2.182292334774357,0.559169928991768,1.4593662089256798,2.215072207928458,1636,1602848269.895761,4321,0.18650895357131958,1.5949782133102417,2.1425561904907227,3.775350332260132,4.478610515594482,5.064251899719238
,,133749.938041,1.0253722667694092,0.0,0.0,0.0,0.0,0.0,0.0,0.0,0.0,0.0,0.0,0.0,20762.0,-0.0,0.02,-1.01,-1.34,-1.65,-0.3,-11.1,47.86,-55.06,20772.0,-0.01,0.01,-1.01,-1.52,-1.71,-0.3,-11.7,47.41,-54.91,1640,1602848269.92561,1234,0.19150455099205643,-9.588433726983059,2.9198865657765607,0.03020132306348089,1.8827019243721523,2.030425152559201,0.25336753208575147,1.9386407505024508,2.4395121947108547,1639,1602848269.92561,4321,0.35705819725990295,1.68988037109375,2.1660702228546143,3.64186692237854,4.666098594665527,5.166818141937256
,,133749.958601,1.0459325313568115,0.0,0.0,0.0,0.0,0.0,0.0,0.0,0.0,0.0,0.0,0.0,20782.0,-0.0,0.0,-1.01,-1.46,-1.65,-0.24,-10.65,47.71,-55.66,20792.0,-0.0,0.02,-1.01,-1.4,-1.77,-0.18,-11.25,48.16,-55.66,1642,1602848269.946383,1234,0.7477575068387761,-9.695166483061403,2.104831895746915,0.8598017086632228,1.2611014390153867,2.8575191228171004,0.46251574990824007,1.6167818645315069,2.9595913465255252,1641,1602848269.946383,4321,0.5619237422943115,1.0961272716522217,2.1088476181030273,3.3359694480895996,4.486756324768066,5.095455646514893
,,133749.977369,1.0646836757659912,0.0,0.0,0.0,0.0,0.0,0.0,0.0,0.0,0.0,0.0,0.0,20802.0,0.0,0.01,-1.01,-1.59,-1.71,-0.24,-12.75,46.36,-55.36,20812.0,0.0,0.01,-1.01,-1.34,-1.71,-0.24,-12.45,47.26,-53.71,1644,1602848269.965541,1234,0.06258590753838345,-9.6415251734257,2.309482754084457,0.6962906220458768,1.1124445753585315,2.3698100326062455,0.816391047975315,1.3114049089090023,2.1387163946743777,1643,1602848269.965541,4321,0.40524691343307495,1.135056495666504,2.0139501094818115,3.536756753921509,4.812589645385742,5.634300231933594
,,133749.997143,1.0844433307647705,0.0,0.0,0.0,0.0,0.0,0.0,0.0,0.0,0.0,0.0,0.0,20822.0,-0.02,0.01,-1.01,-1.4,-1.71,-0.24,-12.0,47.11,-54.31,20832.0,-0.0,0.0,-1.01,-1.46,-1.65,-0.24,-10.35,46.81,-54.76,1646,1602848269.985593,1234,0.6431967086863344,-9.96109875680096,2.1730162577395458,0.038490460783031644,1.7976993277864706,2.1630684358205112,0.1807978512035595,1.7268777499884416,2.167878857559667,1645,1602848269.985593,4321,0.26832258701324463,1.1115411520004272,2.0673646926879883,3.6498000621795654,4.859027862548828,5.997602939605713
,,133750.072557,1.1598596572875977,0.0,0.0,0.0,0.0,0.0,0.0,0.0,0.0,0.0,0.0,0.0,20898.0,-0.01,0.0,-1.02,-1.46,-1.71,-0.3,-10.2,47.11,-54.61,20908.0,-0.01,0.01,-1.02,-1.4,-1.71,-0.18,-9.9,47.41,-54.91,1654,1602848270.65526,1234,0.12228497814612249,-9.941062445377417,2.7622850208219925,0.42634400346179535,1.075671132724735,2.5057299436321134,0.23578083511359216,1.7314441628150221,2.44473174651561,1653,1602848270.65526,4321,0.48346707224845886,1.6601316928863525,2.5944674015045166,3.2498931884765625,4.983613967895508,5.2539873123168945
,,133750.092763,1.1800734996795654,0.0,0.0,0.0,0.0,0.0,0.0,0.0,0.0,0.0,0.0,0.0,20918.0,-0.0,0.01,-1.0,-1.46,-1.59,-0.3,-10.8,46.21,-55.06,20928.0,0.0,0.0,-1.01,-1.4,-1.52,-0.24,-11.4,47.26,-54.16,1656,1602848270.85606,1234,0.8706253924436033,-9.320385866214096,2.999055366547184,0.6239315609343563,1.753206542344345,2.496756670610833,0.6339910261300751,1.1998742058707252,2.6330266703235394,1655,1602848270.85606,4321,0.38661566376686096,1.639126181602478,2.0004310607910156,3.2439427375793457,4.821938991546631,5.331202507019043
,,133750.113362,1.2007043361663818,0.0,0.0,0.0,0.0,0.0,0.0,0.0,0.0,0.0,0.0,0.0,20938.0,0.0,0.01,-1.01,-1.4,-1.83,-0.18,-9.9,47.71,-54.91,20948.0,0.0,0.01,-1.01,-1.46,-1.83,-0.18,-12.45,48.31,-54.16,1657,1602848270.95577,1234,0.8666543110041218,-9.806980340492622,2.852957490586002,0.9861329614184473,1.962917900266898,2.6449076737150894,0.9625034273039244,1.1776623754654167,2.929291873386664,1656,1602848270.95577,4321,0.6523514986038208,1.89188551902771,2.3539023399353027,3.035273313522339,4.667004108428955,5.243729114532471
,,133750.132895,1.2202227115631104,0.0,0.0,0.0,0.0,0.0,0.0,0.0,0.0,0.0,0.0,0.0,20958.0,-0.01,0.02,-1.02,-1.4,-1.59,0.0,-11.4,46.81,-55.51,20967.0,-0.01,0.01,-1.0,-1.4,-1.59,-0.18,-11.25,47.41,-55.36,1659,1602848270.116992,1234,0.6941846079475298,-9.554407044768686,2.3109618405492003,0.20169035946604785,1.248251998702706,2.676045172250313,0.4172863843224991,1.947089141340394,2.033795040192083,1658,1602848270.116992,4321,0.34059369564056396,1.8927366733551025,2.3507485389709473,3.325937271118164,4.235107898712158,5.482812881469727
,,133750.152525,1.2398407459259033,0.0,0.0,0.0,0.0,0.0,0.0,0.0,0.0,0.0,0.0,0.0,20977.0,-0.0,0.01,-1.01,-1.46,-1.83,-0.18,-11.1,46.81,-54.76,20987.0,-0.01,0.01,-1.01,-1.46,-1.71,-0.12,-11.25,45.61,-54.61,1661,1602848270.138986,1234,0.18681066407780422,-9.125584061612923,2.616390244369191,0.7653193983820996,1.8043753166968912,2.700606131306105,0.4228749750317189,1.1757111982798043,2.784912528810373,1660,1602848270.138986,4321,0.7852314710617065,1.9218950271606445,2.9378440380096436,3.450021743774414,4.516263961791992,5.685937881469727
,,133750.172005,1.2593026161193848,0.0,0.0,0.0,0.0,0.0,0.0,0.0,0.0,0.0,0.0,0.0,20997.0,0.01,0.01,-1.02,-1.34,-1.71,-0.24,-10.95,47.11,-54.91,21007.0,-0.01,0.01,-1.0,-1.59,-1.65,-0.3,-11.25,47.11,-56.26,1664,1602848270.165535,1234,0.5665111642734761,-9.882576146176199,2.3827624413495445,0.7547927048800667,1.040304673018698,2.7158870035990774,0.5153290808553264,1.8679337081520604,2.3119899247373374,1663,1602848270.165535,4321,0.9544357061386108,1.4524940252304077,2.1007275581359863,3.6891913414001465,4.201409339904785,5.850824356079102
,,133750.192926,1.2802529335021973,0.0,0.0,0.0,0.0,0.0,0.0,0.0,0.0,0.0,0.0,0.0,21017.0,-0.01,0.01,-1.01,-1.46,-1.77,-0.18,-10.95,46.06,-55.36,21027.0,-0.01,0.01,-1.01,-1.4,-1.71,-0.12,-11.85,47.26,-55.06,1665,1602848270.175638,1234,0.2501292828649041,-9.181225419725536,2.962803330631342,0.7569432968516828,1.9401072389253744,2.306191737331433,0.2566188801571708,1.9778364489021185,2.565637002303951,1664,1602848270.175638,4321,0.5239670276641846,1.863924503326416,2.325920581817627,3.735051155090332,4.226728439331055,5.146442413330078
,,133750.263425,1.3507556915283203,0.0,0.0,0.0,0.0,0.0,0.0,0.0,0.0,0.0,0.0,0.0,21088.0,0.01,0.0,-1.01,-1.46,-1.71,-0.18,-9.15,47.41,-52.96,21098.0,-0.01,0.01,-1.02,-1.4,-1.77,-0.12,-10.2,47.11,-54.61,1672,1602848270.245604,1234,0.2590099183901995,-9.574911498356819,2.719053495752414,0.03566003320487143,1.9429153974696387,2.9886692797320613,0.2704809059651596,1.5417978190904145,2.6789489686263077,1671,1602848270.245604,4321,0.528886079788208,1.8909891843795776,2.557790756225586,3.6640238761901855,4.815194606781006,5.686501979827881
,,133750.283276,1.3706042766571045,0.0,0.0,0.0,0.0,0.0,0.0,0.0,0.0,0.0,0.0,0.0,21107.0,-0.01,0.01,-1.0,-1.46,-1.59,-0.12,-11.25,46.36,-54.91,21117.0,-0.0,0.01,-1.01,-1.34,-1.71,-0.12,-10.8,47.56,-54.76,1674,1602848270.265619,1234,0.12436717299788358,-9.864965502455147,2.644292624374057,0.8910313023401936,1.8044973902620218,2.8838354261569283,0.4369333205117769,1.574587063316669,2.0382568930779317,1673,1602848270.265619,4321,0.6181246042251587,1.828993558883667,2.9951794147491455,3.898862600326538,4.9735307693481445,5.084139823913574
,,133750.302247,1.389549970626831,0.0,0.0,0.0,0.0,0.0,0.0,0.0,0.0,0.0,0.0,0.0,21127.0,-0.01,0.0,-1.0,-1.46,-1.83,-0.18,-11.25,46.36,-56.26,21137.0,-0.01,0.01,-1.0,-1.52,-1.77,-0.18,-11.4,46.81,-54.76,1677,1602848270.295576,1234,0.548158570964145,-9.983460554674723,2.30679295327271,0.2509306603571745,1.58046434450439,2.685197095515985,0.6767423676538451,1.2557696025171925,2.8360884159380206,1676,1602848270.295576,4321,0.6432417631149292,1.1447938680648804,2.6094095706939697,3.8858482837677,4.085883617401123,5.614090919494629
,,133750.322344,1.4096484184265137,0.0,0.0,0.0,0.0,0.0,0.0,0.0,0.0,0.0,0.0,0.0,21147.0,-0.01,0.01,-1.0,-1.4,-1.71,-0.18,-10.65,46.66,-55.66,21157.0,0.0,0.01,-1.01,-1.28,-1.65,-0.18,-12.3,47.11,-56.71,1679,1602848270.315645,1234,0.4771939566220964,-9.362017840867747,2.075031930725248,0.5448777838354518,1.8396445186112496,2.298768329467405,0.048482837643225474,1.9697483682764272,2.317718916534832,1678,1602848270.315645,4321,0.32629072666168213,1.8405957221984863,2.495157480239868,3.674403190612793,4.935952663421631,5.405422210693359
,,133750.342987,1.4303257465362549,0.0,0.0,0.0,0.0,0.0,0.0,0.0,0.0,0.0,0.0,0.0,21167.0,-0.0,0.01,-1.01,-1.46,-1.59,-0.3,-10.05,47.56,-55.51,21177.0,0.0,0.01,-1.0,-1.4,-1.71,-0.18,-9.6,46.66,-54.91,1680,1602848270.325534,1234,0.33120189509515185,-9.034009483474241,2.6001017211499047,0.2247542184652731,1.4817181984571632,2.045367477042819,0.2818135577748788,1.3269571928184283,2.628863305017993,1679,1602848270.325534,4321,0.34615692496299744,1.5119400024414062,2.108161687850952,3.182553768157959,4.290830612182617,5.675216197967529
,,133750.362745,1.4500718116760254,0.0,0.0,0.0,0.0,0.0,0.0,0.0,0.0,0.0,0.0,0.0,21187.0,-0.01,0.01,-1.01,-1.4,-1.59,-0.24,-10.8,45.76,-54.76,21197.0,0.01,0.01,-1.02,-1.59,-1.71,-0.12,-11.1,46.21,-56.11,1682,1602848270.345615,1234,0.33594558954852916,-9.93407728194854,2.607482198067688,0.35271838819931733,1.1295321717263196,2.536234943377517,0.19914785718748007,1.788492490160408,2.6471982574557877,1681,1602848270.345615,4321,0.3360847234725952,1.3275772333145142,2.0206730365753174,3.720026969909668,4.955026626586914,5.435415267944336
,,133750.38318,1.4705071449279785,0.0,0.0,0.0,0.0,0.0,0.0,0.0,0.0,0.0,0.0,0.0,21207.0,-0.0,0.01,-1.01,-1.52,-1.65,-0.3,-10.35,48.31,-54.76,21217.0,-0.0,0.01,-1.01,-1.46,-1.52,-0.18,-11.85,46.51,-55.51,1684,1602848270.366402,1234,0.2682239719146604,-9.460747734278998,2.11044175897672,0.46523827606133794,1.9210443450501067,2.7683807869331236,0.5552163015206298,1.9672793004608453,2.252267306086654,1683,1602848270.366402,4321,0.42816290259361267,1.5777791738510132,2.2878174781799316,3.1451504230499268,4.969012260437012,5.984711647033691
,,133750.52171,1.609027624130249,0.0,0.0,0.0,0.0,0.0,0.0,0.0,0.0,0.0,0.0,0.0,21281.0,-0.01,0.01,-1.0,-1.52,-1.71,-0.18,-9.3,48.31,-54.46,21356.0,-0.01,0.0,-1.02,-1.46,-1.65,-0.18,-12.15,46.81,-55.51,1698,1602848270.505599,1234,0.9812065572207972,-9.82805235015305,2.2470958970586983,0.4691705467303199,1.2778541831083283,2.6893344639592587,0.4057712273864723,1.4801797742638922,2.171019896383032,1697,1602848270.505599,4321,0.6068942546844482,1.0097390413284302,2.248720645904541,3.0256426334381104,4.474769592285156,5.242295742034912
,,133750.542767,1.6300852298736572,0.0,0.0,0.0,0.0,0.0,0.0,0.0,0.0,0.0,0.0,0.0,21367.0,-0.01,0.0,-1.01,-1.52,-1.71,-0.18,-11.25,47.11,-55.66,21377.0,-0.0,0.02,-1.01,-1.4,-1.77,-0.3,-11.85,46.81,-55.06,1700,1602848270.52562,1234,0.0811340641667474,-9.281401266976076,2.518786367246266,0.17871402547113402,1.8068860004369398,2.191392120991538,0.2676884567119213,1.839707443348943,2.006434328494368,1699,1602848270.52562,4321,0.49605461955070496,1.1095292568206787,2.247311592102051,3.849562168121338,4.449710369110107,5.681005001068115
,,133750.562649,1.6499664783477783,0.0,0.0,0.0,0.0,0.0,0.0,0.0,0.0,0.0,0.0,0.0,21387.0,-0.0,0.02,-1.01,-1.34,-1.71,-0.24,-11.25,48.16,-54.31,21397.0,0.0,0.01,-1.01,-1.34,-1.77,-0.12,-12.0,46.36,-54.61,1702,1602848270.545622,1234,0.7016394587838564,-9.643448724747271,2.478006338659305,0.9592554653702264,1.9807828003574657,2.2782542741510263,0.3185704257782912,1.4605299061624812,2.8858783898036227,1701,1602848270.545622,4321,0.3397047519683838,1.8848191499710083,2.81624698638916,3.2611172199249268,4.3662004470825195,5.412404537200928
,,133750.583446,1.6707825660705566,0.0,0.0,0.0,0.0,0.0,0.0,0.0,0.0,0.0,0.0,0.0,21407.0,-0.0,0.0,-1.0,-1.46,-1.65,-0.24,-11.4,46.81,-54.16,21417.0,-0.0,0.01,-0.99,-1.46,-1.71,-0.3,-12.0,47.11,-54.91,1704,1602848270.565608,1234,0.36933022848612007,-9.235396409787505,2.2432996314468614,0.9034882421532812,1.4723993837212899,2.5295560000057424,0.3954375571450618,1.7308821763178226,2.5720532665457805,1703,1602848270.565608,4321,0.07497110217809677,1.8936504125595093,2.823350429534912,3.9809913635253906,4.6518707275390625,5.5077948570251465
,,133750.602519,1.6898255348205566,0.0,0.0,0.0,0.0,0.0,0.0,0.0,0.0,0.0,0.0,0.0,21427.0,-0.0,0.01,-1.02,-1.46,-1.65,-0.12,-12.15,46.81,-55.51,21437.0,-0.0,0.0,-1.0,-1.46,-1.71,-0.12,-12.0,48.76,-54.31,1707,1602848270.595562,1234,0.7061679993764407,-9.341856750740384,2.0136610396348775,0.5722645986613878,1.3304854778981494,2.5771687236312646,0.8131877367503773,1.1551323147316614,2.132134912760624,1706,1602848270.595562,4321,0.4264715909957886,1.740389347076416,2.8614964485168457,3.4226014614105225,4.2863450050354,5.229409694671631
,,133750.621981,1.7092819213867188,0.0,0.0,0.0,0.0,0.0,0.0,0.0,0.0,0.0,0.0,0.0,21446.0,-0.01,0.01,-1.0,-1.52,-1.71,-0.24,-11.25,47.71,-55.36,21457.0,-0.0,0.01,-1.01,-1.4,-1.77,-0.37,-10.65,46.66,-54.61,1709,1602848270.615525,1234,0.58258963485381,-9.566406507707011,2.4991193678976207,0.8703651486177484,1.6947484973765663,2.4543752430034527,0.9370899043914637,1.5817084792679637,2.77823682971957,1708,1602848270.615525,4321,0.9786957502365112,1.6440191268920898,2.672938346862793,3.0898525714874268,4.131371974945068,5.705615043640137
,,133750.641858,1.7291584014892578,0.0,0.0,0.0,0.0,0.0,0.0,0.0,0.0,0.0,0.0,0.0,21466.0,-0.01,0.0,-1.01,-1.59,-1.65,-0.12,-10.65,47.41,-55.66,21477.0,-0.01,0.01,-1.02,-1.28,-1.71,-0.18,-9.9,46.06,-55.36,1711,1602848270.635658,1234,0.650593643962555,-9.41276848716421,2.0546810878047523,0.5399173897219667,1.5386575566617258,2.9194340754915995,0.9338826303095721,1.610172377380712,2.168270561985328,1710,1602848270.635658,4321,0.4660053849220276,1.6483489274978638,2.968308210372925,3.935593605041504,4.710723876953125,5.6997575759887695
,,133750.716719,1.8040552139282227,0.0,0.0,0.0,0.0,0.0,0.0,0.0,0.0,0.0,0.0,0.0,21541.0,0.01,0.01,-1.0,-1.28,-1.65,-0.24,-9.3,47.26,-53.41,21551.0,-0.01,0.0,-1.0,-1.46,-1.65,-0.18,-10.65,48.76,-55.36,1717,1602848270.695701,1234,0.6901696566579013,-9.739848641795628,2.750508070728025,0.3503492732756026,1.983458524029892,2.0690520605097418,0.3239689376054523,1.5234236047206826,2.1183163874815807,1716,1602848270.695701,4321,0.7893423438072205,1.2297734022140503,2.859989643096924,3.1890881061553955,4.0999884605407715,5.911375045776367
,,133750.735414,1.8227429389953613,0.0,0.0,0.0,0.0,0.0,0.0,0.0,0.0,0.0,0.0,0.0,21560.0,-0.0,0.01,-1.01,-1.4,-1.83,-0.18,-10.05,46.81,-54.76,21570.0,0.0,0.0,-1.02,-1.4,-1.71,0.0,-10.8,47.56,-54.46,1719,1602848270.716458,1234,0.04240775060993596,-9.683048055801034,2.528498965388733,0.7078392123393916,1.7260826680013261,2.5314144382645023,0.3048694343791698,1.407263956762161,2.9329535585306967,1718,1602848270.716458,4321,0.9910663962364197,1.5828760862350464,2.195624351501465,3.8197686672210693,4.60520076751709,5.928780555725098
,,133750.754421,1.8417284488677979,0.0,0.0,0.0,0.0,0.0,0.0,0.0,0.0,0.0,0.0,0.0,21579.0,0.0,0.0,-1.0,-1.34,-1.65,-0.12,-11.1,48.61,-55.51,21588.0,0.0,0.01,-1.01,-1.46,-1.71,-0.24,-12.45,48.31,-55.51,1721,1602848270.73959,1234,0.43622399672221346,-9.171164899085712,2.2990860367968953,0.30717068437996065,1.7829098603143239,2.2670514084091327,0.7650468399921488,1.255380143415736,2.447366285448201,1720,1602848270.73959,4321,0.781650722026825,1.0896717309951782,2.1940033435821533,3.8759822845458984,4.255884170532227,5.069596767425537
,,133750.772485,1.8598065376281738,0.0,0.0,0.0,0.0,0.0,0.0,0.0,0.0,0.0,0.0,0.0,21598.0,-0.01,0.01,-1.01,-1.4,-1.65,-0.18,-11.1,48.61,-54.76,21607.0,-0.0,0.01,-1.02,-1.4,-1.77,-0.24,-11.4,46.51,-54.76,1724,1602848270.765529,1234,0.9780859588288993,-9.120395600633097,2.1371870336229097,0.7515982779227582,1.452723702980128,2.188373746410822,0.6468609374891982,1.8407474103597758,2.954813519470392,1723,1602848270.765529,4321,0.20084956288337708,1.9954506158828735,2.720658779144287,3.405366897583008,4.085395336151123,5.736746788024902
,,133750.792058,1.8793857097625732,0.0,0.0,0.0,0.0,0.0,0.0,0.0,0.0,0.0,0.0,0.0,21617.0,-0.0,0.01,-1.02,-1.34,-1.59,-0.18,-12.0,47.71,-55.36,21626.0,-0.0,0.01,-1.02,-1.4,-1.77,-0.24,-11.1,47.56,-55.06,1725,1602848270.775661,1234,0.31583726850998695,-9.78122871084485,2.2305561814918073,0.2851599769630322,1.2238152039060868,2.6288606722643864,0.7810789349611686,1.2492794173687614,2.5273336255022736,1724,1602848270.775661,4321,0.3377209007740021,1.5762253999710083,2.7653660774230957,3.9420220851898193,4.139640808105469,5.020234107971191
,,133750.810193,1.897495985031128,0.0,0.0,0.0,0.0,0.0,0.0,0.0,0.0,0.0,0.0,0.0,21636.0,-0.01,0.01,-1.01,-1.52,-1.71,-0.24,-10.2,47.11,-57.01,21645.0,-0.02,0.01,-1.02,-1.34,-1.71,-0.18,-10.2,47.11,-57.01,1727,1602848270.795831,1234,0.9843081023469562,-9.891739026435973,2.0957375718819136,0.6671967506775327,1.5879800054311481,2.2041270938080175,0.7101182012113659,1.879612754516016,2.0631180035762298,1726,1602848270.795831,4321,0.7593628764152527,1.0067212581634521,2.345017433166504,3.5842249393463135,4.43612003326416,5.145622730255127
,,133750.829131,1.9164402484893799,0.0,0.0,0.0,0.0,0.0,0.0,0.0,0.0,0.0,0.0,0.0,21654.0,0.0,0.0,-1.01,-1.46,-1.71,-0.18,-11.4,46.81,-55.81,21664.0,-0.0,0.0,-1.01,-1.4,-1.59,-0.18,-10.95,46.66,-54.31,1729,1602848270.815643,1234,0.3006236901424466,-9.166568130136007,2.2455400167811055,0.3834853727445824,1.0783897491405718,2.1092133174133587,0.7861568527202965,1.4920973005996205,2.062845099845445,1728,1602848270.815643,4321,0.4874047040939331,1.9802162647247314,2.62514591217041,3.3874306678771973,4.2686357498168945,5.7216901779174805
,,133750.900683,1.9879865646362305,0.0,0.0,0.0,0.0,0.0,0.0,0.0,0.0,0.0,0.0,0.0,21726.0,0.0,0.01,-1.01,-1.34,-1.83,-0.12,-10.35,47.26,-53.11,21735.0,-0.01,0.0,-1.0,-1.28,-1.83,-0.18,-10.35,47.26,-53.11,1737,1602848270.895564,1234,0.10196020078359336,-9.55057653364982,2.569404167374011,0.19548273663582916,1.3499550709807493,2.9891666364424454,0.9784731014602257,1.7105327568552517,2.462898337158425,1736,1602848270.895564,4321,0.6355626583099365,1.2534310817718506,2.3379480838775635,3.0191538333892822,4.767369270324707,5.725507736206055
,,133750.91972,2.0070347785949707,0.0,0.0,0.0,0.0,0.0,0.0,0.0,0.0,0.0,0.0,0.0,21745.0,0.0,0.01,-1.0,-1.52,-1.77,-0.12,-10.65,48.16,-55.96,21754.0,-0.01,0.0,-1.01,-1.4,-1.65,-0.18,-10.2,46.66,-54.61,1738,1602848270.905597,1234,0.2563236778579284,-9.991782117674328,2.0027763015731863,0.8224378823818704,1.9528224749263376,2.0401120228241654,0.1690471290534813,1.1161774273780516,2.7558140552897425,1737,1602848270.905597,4321,0.12524007260799408,1.111176609992981,2.6402294635772705,3.7577590942382812,4.969144821166992,5.286116123199463
,,133750.939211,2.0265376567840576,0.0,0.0,0.0,0.0,0.0,0.0,0.0,0.0,0.0,0.0,0.0,21763.0,0.0,0.01,-1.0,-1.46,-1.71,-0.18,-11.7,47.11,-54.61,21773.0,0.0,0.01,-1.02,-1.46,-1.65,-0.24,-11.4,48.91,-55.81,1740,1602848270.925572,1234,0.6944873784510214,-9.925046992289396,2.343774512556406,0.12001504715970979,1.610519687435527,2.836082261585413,0.07854449806961816,1.9109746228577928,2.958185247672308,1739,1602848270.925572,4321,0.12034221738576889,1.9961193799972534,2.8260910511016846,3.6556830406188965,4.4686150550842285,5.607032775878906
,,133750.957582,2.044896364212036,0.0,0.0,0.0,0.0,0.0,0.0,0.0,0.0,0.0,0.0,0.0,21782.0,-0.01,0.0,-1.02,-1.34,-1.59,-0.18,-10.2,46.66,-53.86,21792.0,-0.01,0.02,-1.01,-1.34,-1.59,-0.18,-11.4,48.31,-55.81,1742,1602848270.945582,1234,0.1677554930047358,-9.754289840644025,2.64379987538664,0.2176689845690788,1.1945181791978203,2.8701591390501715,0.6679387593579231,1.2938492775966148,2.160385815768409,1741,1602848270.945582,4321,0.32215410470962524,1.9032025337219238,2.5056686401367188,3.455669403076172,4.656133651733398,5.963444709777832
,,133750.976264,2.063593864440918,0.0,0.0,0.0,0.0,0.0,0.0,0.0,0.0,0.0,0.0,0.0,21801.0,-0.0,0.01,-1.0,-1.46,-1.71,0.0,-12.15,46.81,-56.11,21811.0,-0.01,0.02,-1.0,-1.34,-1.77,-0.12,-11.7,47.41,-55.66,1744,1602848270.965578,1234,0.3875681991535028,-9.792501830634436,2.345785009118689,0.5910407316855006,1.4606667827065452,2.407265743027188,0.6570108826386504,1.2114175364459046,2.373875065693629,1743,1602848270.965578,4321,0.10792268067598343,1.1128361225128174,2.656216859817505,3.0546987056732178,4.818345546722412,5.450194358825684
,,133750.996094,2.0834312438964844,0.0,0.0,0.0,0.0,0.0,0.0,0.0,0.0,0.0,0.0,0.0,21820.0,-0.01,0.0,-1.0,-1.4,-1.83,-0.24,-11.7,46.66,-54.31,21830.0,-0.0,0.01,-1.0,-1.34,-1.71,-0.18,-12.0,46.66,-55.36,1746,1602848270.985608,1234,0.17248416471464434,-9.973983672622397,2.0149043106662425,0.2982257576380155,1.7471515633039274,2.2702925352324206,0.746121150101008,1.4421508799531924,2.453416472421311,1745,1602848270.985608,4321,0.8630820512771606,1.9470173120498657,2.5165929794311523,3.4312963485717773,4.209499835968018,5.994536399841309
,,133751.014449,2.1017954349517822,0.0,0.0,0.0,0.0,0.0,0.0,0.0,0.0,0.0,0.0,0.0,21839.0,-0.0,0.01,-1.02,-1.46,-1.59,-0.24,-10.8,48.31,-55.06,21848.0,-0.01,0.01,-1.0,-1.46,-1.65,-0.3,-11.7,47.41,-53.86,1747,1602848270.995687,1234,0.2881344263530936,-9.361914487668532,2.4639840792338816,0.42997093887878624,1.66124123406397,2.5496111684320635,0.23030739900223907,1.87481450175183,2.4401888793824495,1746,1602848270.995687,4321,0.442027747631073,1.7533541917800903,2.4804036617279053,3.5214273929595947,4.911807537078857,5.911392688751221
,,133751.086309,2.173619508743286,0.0,0.0,0.0,0.0,0.0,0.0,0.0,0.0,0.0,0.0,0.0,21911.0,-0.0,0.0,-1.02,-1.46,-1.71,-0.18,-9.75,47.86,-54.76,21921.0,-0.0,0.01,-1.01,-1.52,-1.71,-0.24,-10.65,47.41,-54.31,1755,1602848271.75854,1234,0.6885073194636951,-9.47304599544266,2.2372374945317954,0.5050684699483081,1.3401893395739388,2.1855634753955346,0.9785616051602212,1.406071273651924,2.9214773627849002,1754,1602848271.75854,4321,0.5345136523246765,1.0880351066589355,2.195296049118042,3.209754705429077,4.443033695220947,5.410725116729736
,,133751.105805,2.1931326389312744,0.0,0.0,0.0,0.0,0.0,0.0,0.0,0.0,0.0,0.0,0.0,21930.0,-0.01,0.01,-1.0,-1.52,-1.71,-0.18,-10.05,47.26,-54.76,21940.0,-0.0,0.01,-1.0,-1.4,-1.71,-0.12,-11.7,48.16,-54.31,1757,1602848271.956,1234,0.7741168402906925,-9.425558059836645,2.6744169159466384,0.5885158695257572,1.4678258817467973,2.7632970197619913,0.21470473625024933,1.4525559491874007,2.9770670817588307,1756,1602848271.956,4321,0.038258541375398636,1.5070852041244507,2.553269624710083,3.5873525142669678,4.8993144035339355,5.495072364807129
,,133751.124659,2.211986541748047,0.0,0.0,0.0,0.0,0.0,0.0,0.0,0.0,0.0,0.0,0.0,21949.0,-0.0,0.01,-1.02,-1.52,-1.71,-0.24,-10.8,47.86,-55.51,21959.0,-0.01,0.01,-1.0,-1.28,-1.65,-0.3,-11.1,46.21,-56.41,1758,1602848271.105605,1234,0.025497882936254546,-9.882623839935208,2.7965667366891918,0.4597118944951831,1.612442112336009,2.518989056321738,0.9418282557417351,1.259122348362009,2.4370070768851386,1757,1602848271.105605,4321,0.46960026025772095,1.2564421892166138,2.733717441558838,3.5237035751342773,4.016631126403809,5.831313133239746
,,133751.143215,2.2305285930633545,0.0,0.0,0.0,0.0,0.0,0.0,0.0,0.0,0.0,0.0,0.0,21968.0,-0.0,0.01,-1.0,-1.28,-1.65,-0.37,-12.0,47.71,-55.36,21977.0,-0.01,0.01,-1.02,-1.46,-1.65,-0.37,-11.25,47.71,-55.96,1760,1602848271.12562,1234,0.543311733215082,-9.792401829381658,2.2432409362220325,0.9449250057730539,1.887960969515169,2.2213450812052353,0.3985959923881507,1.6397464728541022,2.1342457819310314,1759,1602848271.12562,4321,0.40557271242141724,1.823732614517212,2.9909846782684326,3.8035519123077393,4.953775882720947,5.415007591247559
,,133751.162134,2.249451160430908,0.0,0.0,0.0,0.0,0.0,0.0,0.0,0.0,0.0,0.0,0.0,21987.0,-0.0,0.01,-1.01,-1.28,-1.71,-0.3,-11.7,46.66,-54.31,21996.0,-0.0,0.01,-1.02,-1.46,-1.65,-0.18,-11.4,48.31,-55.81,1762,1602848271.145583,1234,0.8358943918981411,-9.933886279973882,2.5289597104018093,0.6764300353388957,1.4920866485661937,2.5128452142538036,0.22284725329012978,1.0964319782769838,2.422670567417235,1761,1602848271.145583,4321,0.7201195955276489,1.6240668296813965,2.819129228591919,3.8506178855895996,4.681096076965332,5.24619197845459
,,133751.181616,2.2689502239227295,0.0,0.0,0.0,0.0,0.0,0.0,0.0,0.0,0.0,0.0,0.0,22006.0,0.0,0.01,-1.02,-1.4,-1.65,-0.24,-10.35,48.61,-56.11,22015.0,0.0,0.01,-1.01,-1.46,-1.77,-0.3,-11.1,46.81,-55.81,1764,1602848271.165652,1234,0.09824285151671075,-9.749591011447487,2.9043112990467606,0.4654171215380757,1.029390701819049,2.96416408595931,0.788650297697021,1.9521043338313802,2.416474255731406,1763,1602848271.165652,4321,0.7767361998558044,1.5608114004135132,2.5493693351745605,3.1275086402893066,4.170840263366699,5.581312656402588
,,133751.199586,2.286890983581543,0.0,0.0,0.0,0.0,0.0,0.0,0.0,0.0,0.0,0.0,0.0,22025.0,-0.01,0.02,-1.01,-1.4,-1.65,-0.18,-11.1,46.81,-55.81,22034.0,-0.0,0.02,-1.0,-1.46,-1.71,-0.24,-11.25,46.36,-55.36,1766,1602848271.185646,1234,0.4604291564633145,-9.624066317904127,2.7254199301513427,0.9607293465986239,1.9697161985547618,2.689816944010974,0.3569005451423447,1.7399740696620853,2.375729948824445,1765,1602848271.185646,4321,0.002493258100003004,1.707769513130188,2.976499319076538,3.134838104248047,4.832109451293945,5.234263896942139
,,133751.272314,2.3596127033233643,0.0,0.0,0.0,0.0,0.0,0.0,0.0,0.0,0.0,0.0,0.0,22097.0,-0.0,0.0,-1.02,-1.52,-1.71,-0.24,-10.35,47.56,-54.76,22107.0,-0.0,0.0,-1.01,-1.34,-1.59,-0.18,-11.4,47.86,-54.76,1774,1602848271.265568,1234,0.24100980083854062,-9.897763113162958,2.958425783135212,0.4448757742428425,1.1617456922091578,2.783363810487963,0.37979515183981516,1.8363656687443886,2.6332106643881374,1773,1602848271.265568,4321,0.1747490018606186,1.062084436416626,2.8294618129730225,3.3247294425964355,4.529434680938721,5.424466133117676
,,133751.292634,2.379941940307617,0.0,0.0,0.0,0.0,0.0,0.0,0.0,0.0,0.0,0.0,0.0,22117.0,-0.01,0.01,-1.0,-1.52,-1.71,-0.12,-10.05,47.26,-56.41,22127.0,-0.0,0.01,-1.01,-1.59,-1.71,-0.18,-11.7,48.16,-54.61,1776,1602848271.285605,1234,0.1941529680675963,-9.9763323275133,2.270088331715342,0.779434335936631,1.0638213597388928,2.4414516651776146,0.1863845641611106,1.5373188763263557,2.690742538526088,1775,1602848271.285605,4321,0.19815649092197418,1.688737392425537,2.173762798309326,3.959709405899048,4.842989921569824,5.5829033851623535
,,133751.312315,2.3996164798736572,0.0,0.0,0.0,0.0,0.0,0.0,0.0,0.0,0.0,0.0,0.0,22137.0,0.0,0.01,-1.01,-1.4,-1.71,-0.18,-11.7,46.36,-54.91,22147.0,-0.0,0.01,-1.0,-1.34,-1.71,-0.24,-12.15,46.21,-55.81,1778,1602848271.305537,1234,0.18421069063344475,-9.06155728749456,2.960092719670138,0.47425996933358494,1.2062180900763648,2.9711073418141316,0.007305929545600165,1.7254085662674816,2.8629085086749333,1777,1602848271.305537,4321,0.3064407706260681,1.447904348373413,2.896855115890503,3.7418458461761475,4.5786824226379395,5.493419170379639
,,133751.332829,2.4201624393463135,0.0,0.0,0.0,0.0,0.0,0.0,0.0,0.0,0.0,0.0,0.0,22157.0,0.0,0.0,-1.01,-1.4,-1.71,-0.12,-11.1,46.81,-54.46,22167.0,0.0,0.01,-1.0,-1.52,-1.71,-0.12,-10.95,47.41,-54.91,1779,1602848271.315532,1234,0.650132170048847,-9.361595612861223,2.0954739616480396,0.05167819549290775,1.1530997343642069,2.929336014973745,0.042388554035100556,1.217018615794633,2.390844426215968,1778,1602848271.315532,4321,0.4127788841724396,1.2541344165802002,2.3824551105499268,3.0873777866363525,4.227517127990723,5.642952919006348
,,133751.352066,2.4393696784973145,0.0,0.0,0.0,0.0,0.0,0.0,0.0,0.0,0.0,0.0,0.0,22177.0,-0.0,0.01,-1.01,-1.4,-1.65,-0.18,-12.0,47.11,-53.56,22187.0,-0.0,0.0,-1.02,-1.4,-1.65,-0.24,-10.95,48.16,-54.91,1782,1602848271.345559,1234,0.030846948725635537,-9.725182051241724,2.3795951535029154,0.18442865854029444,1.7677752596276934,2.0862174507496944,0.24089091084830327,1.726770579918154,2.239277488231171,1781,1602848271.345559,4321,0.2529473602771759,1.0340079069137573,2.7342617511749268,3.4686808586120605,4.5990753173828125,5.794686317443848
,,133751.372599,2.459932327270508,0.0,0.0,0.0,0.0,0.0,0.0,0.0,0.0,0.0,0.0,0.0,22197.0,0.0,0.01,-1.01,-1.4,-1.71,-0.18,-12.3,46.36,-54.61,22206.0,-0.01,0.01,-1.0,-1.28,-1.65,-0.3,-11.25,46.36,-54.91,1783,1602848271.355635,1234,0.8718239839992751,-9.436704172446827,2.2418012482962473,0.3795298076509448,1.3065188218783965,2.762031279029997,0.29039588675135086,1.5146171073198316,2.654777626088757,1782,1602848271.355635,4321,0.41654130816459656,1.7235759496688843,2.1596367359161377,3.244913101196289,4.280250549316406,5.8971943855285645
,,133751.392213,2.479556083679199,0.0,0.0,0.0,0.0,0.0,0.0,0.0,0.0,0.0,0.0,0.0,22216.0,-0.0,0.01,-1.01,-1.34,-1.71,-0.12,-10.65,47.11,-55.36,22226.0,-0.0,0.01,-1.0,-1.46,-1.65,-0.12,-10.8,46.51,-55.81,1785,1602848271.375631,1234,0.4843228187449965,-9.045576645484893,2.970937388429456,0.0021064322993921136,1.5974419681801222,2.4300868329563783,0.7940471218902193,1.1869903809629871,2.2163547370086953,1784,1602848271.375631,4321,0.17207932472229004,1.1829568147659302,2.1371328830718994,3.60367488861084,4.386957168579102,5.5240373611450195
,,133751.465983,2.5532877445220947,0.0,0.0,0.0,0.0,0.0,0.0,0.0,0.0,0.0,0.0,0.0,22290.0,-0.01,0.01,-1.02,-1.4,-1.71,-0.24,-10.05,48.31,-55.06,22300.0,-0.0,0.01,-1.02,-1.4,-1.59,-0.18,-12.75,47.41,-54.61,1793,1602848271.455569,1234,0.9876973395683669,-9.556933852974884,2.8233565493918755,0.39106422375004046,1.7663166896871303,2.740626380753309,0.7153016819304201,1.4038298786810022,2.7340143725064845,1792,1602848271.455569,4321,0.716616690158844,1.2450263500213623,2.7257556915283203,3.4515700340270996,4.156704425811768,5.743839263916016
,,133751.48578,2.573087453842163,0.0,0.0,0.0,0.0,0.0,0.0,0.0,0.0,0.0,0.0,0.0,22310.0,0.0,0.0,-1.01,-1.52,-1.65,-0.12,-11.1,47.56,-53.41,22320.0,-0.01,0.0,-1.02,-1.46,-1.59,-0.24,-11.4,47.86,-55.51,1795,1602848271.47556,1234,0.33039772043064153,-9.285168300705111,2.574828252320178,0.8490043160497207,1.549231181988842,2.426973776375693,0.41830830746673453,1.0420424271919957,2.485053872080384,1794,1602848271.47556,4321,0.6304754018783569,1.545304775238037,2.9560482501983643,3.008953332901001,4.372027397155762,5.266926288604736
,,133751.505528,2.5928282737731934,0.0,0.0,0.0,0.0,0.0,0.0,0.0,0.0,0.0,0.0,0.0,22330.0,-0.0,0.0,-1.0,-1.46,-1.71,-0.12,-11.4,47.26,-55.06,22340.0,0.0,0.01,-1.02,-1.4,-1.65,-0.12,-12.0,48.16,-55.36,1797,1602848271.495543,1234,0.390457015212169,-9.792299711804358,2.858686260577208,0.3598753930434,1.1517332028597727,2.2907419553502506,0.6472020794934533,1.50975846928461,2.2579866230003214,1796,1602848271.495543,4321,0.27805206179618835,1.043218731880188,2.0347514152526855,3.8968653678894043,4.505103588104248,5.747337341308594
,,133751.52622,2.613546848297119,0.0,0.0,0.0,0.0,0.0,0.0,0.0,0.0,0.0,0.0,0.0,22350.0,-0.01,0.01,-1.0,-1.46,-1.77,-0.24,-11.4,45.76,-55.51,22360.0,-0.0,0.01,-1.01,-1.52,-1.59,-0.24,-12.45,48.31,-55.51,1799,1602848271.515541,1234,0.6514959429893962,-9.38724902278288,2.668321088281509,0.47394080285931894,1.4891955454611185,2.654637503644631,0.5697347903289424,1.1110593018145032,2.31480069065806,1798,1602848271.515541,4321,0.3648276925086975,1.1350191831588745,2.1189992427825928,3.34898042678833,4.6415605545043945,5.242687225341797
,,133751.546195,2.6335229873657227,0.0,0.0,0.0,0.0,0.0,0.0,0.0,0.0,0.0,0.0,0.0,22370.0,-0.01,0.01,-1.01,-1.4,-1.52,-0.3,-12.15,47.26,-53.71,22380.0,-0.0,0.01,-1.01,-1.46,-1.77,-0.24,-12.0,47.41,-53.86,1800,1602848271.525602,1234,0.022722511289212433,-9.859300685117493,2.206952855476843,0.9194700045551732,1.9659639836722291,2.5346798721183594,0.055063879079498945,1.6963555357355689,2.539659371897815,1799,1602848271.525602,4321,0.30947205424308777,1.6981374025344849,2.247260332107544,3.9150822162628174,4.0683913230896,5.88782262802124
,,133751.565466,2.65277099609375,0.0,0.0,0.0,0.0,0.0,0.0,0.0,0.0,0.0,0.0,0.0,22390.0,-0.01,0.01,-1.01,-1.34,-1.71,-0.24,-10.2,47.71,-55.66,22400.0,-0.0,0.01,-1.0,-1.46,-1.65,-0.3,-11.4,46.81,-54.76,1803,1602848271.555601,1234,0.8971981710970734,-9.338201323677962,2.242752266973332,0.7563251008919432,1.085404778145914,2.4958552760353223,0.36491614804631667,1.5737116546858319,2.8016741232896125,1802,1602848271.555601,4321,0.8079069256782532,1.7081135511398315,2.994968891143799,3.157817840576172,4.946739196777344,5.645284652709961
,,133751.586115,2.673447847366333,0.0,0.0,0.0,0.0,0.0,0.0,0.0,0.0,0.0,0.0,0.0,22410.0,0.0,0.01,-1.02,-1.46,-1.71,-0.18,-11.1,47.86,-55.51,22420.0,-0.0,0.01,-1.0,-1.52,-1.65,-0.24,-10.2,46.66,-53.86,1805,1602848271.575627,1234,0.7046746540003647,-9.447007792055297,2.565098768228122,0.6982432433094657,1.1519143867581065,2.8539333074518494,0.9486411872732802,1.1907946240695475,2.506156909818876,1804,1602848271.575627,4321,0.6285068988800049,1.5625954866409302,2.8770687580108643,3.656890392303467,4.586767196655273,5.219751834869385
,,133751.658115,2.7454144954681396,0.0,0.0,0.0,0.0,0.0,0.0,0.0,0.0,0.0,0.0,0.0,22483.0,-0.0,0.01,-1.01,-1.4,-1.65,-0.3,-11.25,46.66,-54.61,22493.0,-0.01,0.01,-1.0,-1.46,-1.71,-0.24,-9.75,47.56,-54.46,1812,1602848271.645545,1234,0.8401295252198737,-9.411725698746993,2.4062969320378698,0.512632613625029,1.863851642452381,2.8127257756453448,0.07004896071627842,1.5824963415877258,2.7147591196751666,1811,1602848271.645545,4321,0.24183975160121918,1.0859419107437134,2.9016222953796387,3.6813719272613525,4.900386333465576,5.77911901473999
,,133751.678691,2.7660281658172607,0.0,0.0,0.0,0.0,0.0,0.0,0.0,0.0,0.0,0.0,0.0,22503.0,0.0,-0.0,-1.01,-1.34,-1.59,-0.18,-11.4,48.31,-55.06,22513.0,-0.0,0.01,-1.01,-1.52,-1.71,0.0,-10.95,47.11,-54.31,1814,1602848271.665538,1234,0.8704062486418682,-9.828152923833397,2.6684853426946438,0.48408960852494254,1.3798317691233113,2.2439094450382377,0.6471932289722055,1.71723462838359,2.765805754527812,1813,1602848271.665538,4321,0.4023650288581848,1.8159282207489014,2.532087564468384,3.766124963760376,4.603427410125732,5.608364582061768
