name,date,time,time_since_start,vicon_sequence,vicon_time_stamp,vicon_frame_id,vicon_child_frame_id,vicon_translation_x,vicon_translation_y,vicon_translation_z,vicon_rotation_x,vicon_rotation_y,vicon_rotation_z,vicon_rotation_w,int_imu_time_stamp,int_imu_acc_x,int_imu_acc_y,int_imu_acc_z,int_imu_gyro_x,int_imu_gyro_y,int_imu_gyro_z,int_imu_mag_x,int_imu_mag_y,int_imu_mag_z,ext_imu_time_stamp,ext_imu_acc_x,ext_imu_acc_y,ext_imu_acc_z,ext_imu_gyro_x,ext_imu_gyro_y,ext_imu_gyro_z,ext_imu_mag_x,ext_imu_mag_y,ext_imu_mag_z,dji_imu_sequence,dji_imu_time_stamp,dji_imu_frame_id,dji_imu_orientation_x,dji_imu_orientation_y,dji_imu_orientation_z,dji_imu_orientation_w,dji_imu_ang_vel_x,dji_imu_ang_vel_y,dji_imu_ang_vel_z,dji_imu_lin_acc_x,dji_imu_lin_acc_y,dji_imu_lin_acc_z,rc_sequence,rc_time_stamp,rc_frame_id,rc_roll,rc_pitch,rc_yaw,rc_throttle,rc_mode,rc_landing_gear
/home/wc18ny/Desktop/VibrationTest/serial_test3.csv,20201022,101413.16673,3.0994415283203125e-05,1619,1603354453.15589,vicon,object name,0.9687138313770688,1.4966142597149057,1.0,2.09191686517362,1.0,2.0,3.8933778167051374,1549466.0,0.02,-0.03,-1.02,0.06,0.06,0.0,14.7,61.07,-65.42,1549475.0,0.01,-0.02,-1.01,0.06,-0.12,0.0,14.7,61.07,-65.42,1619,1603354453.157581,1234,0.32355837352451144,-9.97711794808887,2.934411688263413,3.830458336778374,0.5434471481544813,1.2460902875335698,2.1909256166223243,0.8039056179488863,1.6751677796146136,2.848365207400048,1619,1603354453.157581,4321,0.5496014952659607,1.275172233581543,2.573129177093506,3.787578821182251,4.3389716148376465,5.527665615081787
,,101413.17151,0.004807949066162109,1620,1603354453.165806,vicon,object name,0.44658691526076955,1.0294821594087042,1.0,2.8933891418693496,1.0,2.0,3.7537812931067975,1549484.0,0.03,-0.03,-1.02,0.0,-0.12,0.0,13.95,60.02,-65.12,1549492.0,0.02,-0.01,-1.01,0.06,-0.12,-0.12,15.9,59.86,-64.97,1619,1603354453.157581,1234,0.32355837352451144,-9.97711794808887,2.934411688263413,3.830458336778374,0.5434471481544813,1.2460902875335698,2.1909256166223243,0.8039056179488863,1.6751677796146136,2.848365207400048,1619,1603354453.157581,4321,0.5496014952659607,1.275172233581543,2.573129177093506,3.787578821182251,4.3389716148376465,5.527665615081787
,,101413.190303,0.02359914779663086,1622,1603354453.185818,vicon,object name,0.5269916718521782,1.945115526571192,1.0,2.2528182999767035,1.0,2.0,3.1753411904081625,1549501.0,0.02,-0.02,-1.01,-0.06,-0.06,0.06,15.0,59.71,-64.37,1549510.0,0.03,-0.02,-1.03,0.06,0.0,0.0,12.6,60.02,-65.87,1621,1603354453.177574,1234,0.4022289257204218,-9.37961393925547,2.063987433703481,3.2265405131910248,0.192693958899812,1.016239772950589,2.4522082804797645,0.02960408879622456,1.5840044915086295,2.955516414282644,1621,1603354453.177574,4321,0.6205259561538696,1.547104001045227,2.1509811878204346,3.3622541427612305,4.555879592895508,5.179348468780518
,,101413.213777,0.047066688537597656,1624,1603354453.205765,vicon,object name,0.12028731505348811,1.2263917069148875,1.0,2.5745546910990407,1.0,2.0,3.306465655577046,1549518.0,0.03,-0.01,-1.02,0.0,0.0,-0.06,13.95,61.07,-64.07,1549527.0,0.02,-0.02,-1.02,0.0,-0.06,-0.06,14.4,60.92,-65.27,1624,1603354453.207565,1234,0.17398679572864229,-9.399763790426002,2.48670213627664,3.2312115305828844,0.15167387153959921,1.072950229300055,2.4561206171164183,0.6264991175711515,1.4495948348746603,2.645310829340929,1624,1603354453.207565,4321,0.5272765159606934,1.7089909315109253,2.5918924808502197,3.0118207931518555,4.5506744384765625,5.008690357208252
,,101413.228801,0.06209063529968262,1626,1603354453.225811,vicon,object name,0.29006804923013096,1.8005722019799841,1.0,2.1285031390716687,1.0,2.0,3.381656442626093,1549535.0,0.03,-0.02,-1.02,0.0,0.0,-0.06,14.4,60.92,-65.27,1549544.0,0.02,-0.01,-1.03,0.0,0.0,0.0,13.65,59.41,-64.82,1625,1603354453.217556,1234,0.23268918256781723,-9.718121698908192,2.4996425169201357,3.6148023570385925,0.8854187859407467,1.3587012631619506,2.0722106785567678,0.8985405406455613,1.9455490576504118,2.9682554519618733,1625,1603354453.217556,4321,0.9358915090560913,1.7336111068725586,2.4548110961914062,3.669858455657959,4.810808181762695,5.64301061630249
,,101413.248774,0.08206391334533691,1628,1603354453.245789,vicon,object name,0.3969941694591088,1.1989567293126266,1.0,2.67257439187537,1.0,2.0,3.616194829923306,1549552.0,0.03,-0.02,-1.01,-0.06,-0.12,0.0,14.25,60.47,-65.87,1549561.0,0.02,-0.02,-1.02,-0.06,-0.06,0.0,14.4,58.81,-64.22,1627,1603354453.237573,1234,0.2925159697300602,-9.489886858266804,2.714643836344123,3.202978496055329,0.9546658220921858,1.0563805541627367,2.8713068894209877,0.5391017601052566,1.1032858711448954,2.8021852489005212,1627,1603354453.237573,4321,0.9060502052307129,1.0017282962799072,2.810826063156128,3.8259429931640625,4.219662666320801,5.885354042053223
,,101413.269009,0.10230350494384766,1630,1603354453.265782,vicon,object name,0.5125480458027868,1.179622797848224,1.0,2.115343602630243,1.0,2.0,3.1155474016297386,1549569.0,0.02,-0.01,-1.01,-0.06,-0.06,-0.12,15.75,61.52,-64.07,1549614.0,0.02,-0.02,-1.02,-0.06,-0.06,0.0,15.75,60.02,-63.77,1629,1603354453.257565,1234,0.20499847064521748,-9.746477801964751,2.117333533941164,3.481106699824773,0.7684784942127737,1.0868859301951688,2.5832625468892836,0.9585826064027694,1.0249665205899468,2.965745983259321,1629,1603354453.257565,4321,0.545609712600708,1.3143279552459717,2.316955327987671,3.320896863937378,4.823936462402344,5.9998698234558105
,,101413.289091,0.12238526344299316,1632,1603354453.285817,vicon,object name,0.2761193585556745,1.9430439621197635,1.0,2.9606179621275137,1.0,2.0,3.0751561975978117,1549623.0,0.02,-0.02,-1.01,0.0,0.06,-0.06,14.85,61.22,-64.22,1549632.0,0.02,-0.01,-1.02,-0.12,-0.12,0.0,14.7,60.77,-66.47,1631,1603354453.277527,1234,0.26710658996433945,-9.742056230815447,2.013732517352824,3.1808254018437547,0.16708439600502267,1.8994051870586457,2.09806176041977,0.9352891538742608,1.2548209034881777,2.69337629208042,1631,1603354453.277527,4321,0.35264304280281067,1.7255758047103882,2.9812164306640625,3.217741012573242,4.269118785858154,5.315673828125
,,101413.308976,0.14226841926574707,1634,1603354453.305771,vicon,object name,0.44155815163977274,1.7071877698402083,1.0,2.3092485719017675,1.0,2.0,3.6183079651110828,1549641.0,0.02,-0.03,-1.01,-0.06,-0.06,-0.18,13.65,61.07,-64.37,1549650.0,0.02,-0.01,-1.02,0.0,-0.06,-0.12,12.15,60.77,-65.12,1633,1603354453.297538,1234,0.5367068578802253,-9.322295163126764,2.301088289685005,3.7686484555518485,0.45208963541274094,1.1301821059577395,2.5891586830468105,0.6901433067002862,1.2444225252606116,2.712739371639084,1633,1603354453.297538,4321,0.3754984438419342,1.8021713495254517,2.9192559719085693,3.1772468090057373,4.214966773986816,5.02325963973999
,,101413.333165,0.1664583683013916,1636,1603354453.325792,vicon,object name,0.8963955361537022,1.8940979052152291,1.0,2.1939302442759425,1.0,2.0,3.4485473274692695,1549659.0,0.02,-0.01,-1.01,-0.06,-0.18,-0.12,12.9,60.02,-65.12,1549669.0,0.02,-0.01,-1.02,0.0,-0.12,0.06,14.85,59.86,-65.27,1636,1603354453.327518,1234,0.30171298700368676,-9.47504955666746,2.6223316067137015,3.593249751277968,0.8062680539371336,1.1409903706274291,2.221852144903027,0.0027850742605930456,1.6923853187521531,2.397298789553208,1636,1603354453.327518,4321,0.15413568913936615,1.0875122547149658,2.434703826904297,3.125889778137207,4.198849201202393,5.425297737121582
,,101413.348968,0.18225741386413574,1638,1603354453.345786,vicon,object name,0.1297743411484693,1.3931057701424097,1.0,2.7839873358718057,1.0,2.0,3.0650269941606867,1549678.0,0.02,-0.01,-1.03,0.18,0.06,0.06,13.95,59.41,-64.37,1549687.0,0.03,-0.01,-1.01,0.18,0.06,0.0,13.65,58.66,-65.12,1637,1603354453.337523,1234,0.30671793776977996,-9.739073499566324,2.840051365029099,3.52003160641567,0.5270056758895094,1.850655722586767,2.064410135479155,0.6019764775568692,1.6624473960308226,2.8471454455605736,1637,1603354453.337523,4321,0.813524603843689,1.7465633153915405,2.4324235916137695,3.596984624862671,4.9313178062438965,5.22322940826416
,,101413.373062,0.20638537406921387,1640,1603354453.365884,vicon,object name,0.16177913087711693,1.3996864068793955,1.0,2.530444435772253,1.0,2.0,3.5823007779649405,1549696.0,0.03,-0.02,-1.02,0.12,0.0,-0.06,13.65,58.66,-65.12,1549705.0,0.02,-0.02,-1.01,0.0,0.18,0.06,14.1,60.17,-66.62,1639,1603354453.357546,1234,0.43918947188930957,-9.48781884362536,2.6892167970657725,3.115169163911741,0.010584866662977532,1.2277836296426914,2.7539504181513523,0.5901710422421983,1.2677844467355193,2.2188031365532654,1639,1603354453.357546,4321,0.3342195749282837,1.4170960187911987,2.492253065109253,3.4763031005859375,4.975460529327393,5.273947715759277
,,101413.393533,0.22686266899108887,1642,1603354453.385886,vicon,object name,0.05755556257922256,1.665193148432726,1.0,2.7241417615993435,1.0,2.0,3.2046767976646606,1549714.0,0.02,-0.02,-1.01,0.0,-0.12,0.0,14.1,59.56,-64.67,1549723.0,0.03,-0.01,-1.01,-0.18,-0.06,-0.12,13.95,59.71,-65.87,1641,1603354453.378812,1234,0.9656490364525478,-9.652181871323108,2.8460221539842423,3.1266175288319795,0.9091601919028698,1.1215629786561307,2.218968636189678,0.5591219488922599,1.0718473070224133,2.6795525016221307,1641,1603354453.378812,4321,0.3783642053604126,1.030897855758667,2.139927864074707,3.2098288536071777,4.188953399658203,5.82035493850708
,,101413.409942,0.24323701858520508,1644,1603354453.405869,vicon,object name,0.0325800887994776,1.634174305870765,1.0,2.9194242262840993,1.0,2.0,3.592486807489721,1549732.0,0.02,-0.03,-1.02,0.0,0.0,0.06,14.25,60.77,-64.82,1549777.0,0.03,-0.02,-1.02,-0.12,-0.24,-0.12,16.8,59.71,-62.72,1643,1603354453.399719,1234,0.07488524809306563,-9.034587039742462,2.3947953498158236,3.3204208494145107,0.558132201398973,1.467466309294089,2.390668359737754,0.9088854255984598,1.9995930184749355,2.918081154757953,1643,1603354453.399719,4321,0.8298158645629883,1.705011248588562,2.8664662837982178,3.763526201248169,4.245612621307373,5.1745076179504395
,,101413.429108,0.262408971786499,1646,1603354453.425789,vicon,object name,0.6015437009418704,1.1630258702982428,1.0,2.737057276931648,1.0,2.0,3.020417785058017,1549787.0,0.02,-0.02,-1.0,-0.12,-0.18,-0.12,14.25,60.47,-65.42,1549796.0,0.03,-0.02,-1.03,0.0,0.06,-0.24,14.25,60.47,-65.42,1645,1603354453.417567,1234,0.31249312130691764,-9.915170789081786,2.4552019547080164,3.331943598932967,0.613729112990961,1.2302359113167214,2.4930610472946286,0.9818979455466497,1.0715043255695287,2.99555799223055,1645,1603354453.417567,4321,0.5450199842453003,1.735325813293457,2.599228858947754,3.7042746543884277,4.66584587097168,5.139896869659424
,,101413.449029,0.28232240676879883,1648,1603354453.445894,vicon,object name,0.8775328286068151,1.914246724801636,1.0,2.8639253025432856,1.0,2.0,3.7952739747710207,1549805.0,0.02,-0.02,-1.02,-0.06,-0.12,-0.06,15.3,58.66,-64.82,1549814.0,0.03,-0.01,-1.02,-0.12,-0.06,-0.06,14.4,59.56,-66.32,1647,1603354453.437592,1234,0.9586918293747758,-9.611018384051661,2.1370611606775998,3.2708243213319212,0.7946206052552167,1.236771746799104,2.9459375253718356,0.9761118763897556,1.4901053257980998,2.8173597617792656,1647,1603354453.437592,4321,0.8274397253990173,1.3879512548446655,2.8904943466186523,3.676955461502075,4.071328639984131,5.706031799316406
,,101413.468841,0.30213212966918945,1650,1603354453.465785,vicon,object name,0.675568873220639,1.2590359086145961,1.0,2.2659958387190655,1.0,2.0,3.957562515053775,1549823.0,0.02,-0.01,-1.02,-0.06,-0.06,-0.06,13.8,58.51,-65.27,1549832.0,0.02,-0.01,-1.02,-0.06,-0.12,-0.12,14.4,59.86,-63.92,1649,1603354453.457532,1234,0.25397938143580523,-9.167088882448425,2.954966119880008,3.025631645071428,0.2589216962216139,1.9486710530995068,2.7197781736964424,0.23859315756896637,1.2025701294291822,2.548042515348964,1649,1603354453.457532,4321,0.6385890245437622,1.3835954666137695,2.2250425815582275,3.442676067352295,4.268767833709717,5.5512166023254395
,,101413.49035,0.3236410617828369,1652,1603354453.485782,vicon,object name,0.044780007534129807,1.937412185508264,1.0,2.9057009436431347,1.0,2.0,3.4703400005601495,1549842.0,0.02,-0.02,-1.01,0.0,0.06,0.0,14.25,60.02,-64.07,1549850.0,0.02,-0.02,-1.01,0.06,0.0,0.0,15.15,60.62,-64.97,1651,1603354453.477556,1234,0.4589123070918141,-9.397932575646701,2.6585472364523572,3.662162033364327,0.2741698525833798,1.2778607979668464,2.6631561345338826,0.054998262189095426,1.8100575688494338,2.261326182401167,1651,1603354453.477556,4321,0.251515656709671,1.8371409177780151,2.2559220790863037,3.2630980014801025,4.340332508087158,5.989892482757568
,,101413.509173,0.34246301651000977,1654,1603354453.505884,vicon,object name,0.3002418962650407,1.8836235221453537,1.0,2.4047178285302984,1.0,2.0,3.689622818693482,1549859.0,0.03,-0.02,-1.01,0.06,-0.06,-0.06,14.4,59.56,-65.27,1549869.0,0.02,-0.02,-1.02,0.18,0.0,0.0,15.15,61.67,-64.22,1653,1603354453.497554,1234,0.2642270393492715,-9.352196930050038,2.481250989017906,3.458337533434646,0.28582719834610815,1.8024381045068285,2.2215447882926744,0.42022281409791384,1.2115314890967201,2.2560854754687236,1653,1603354453.497554,4321,0.2036074697971344,1.7978729009628296,2.2697360515594482,3.4028666019439697,4.762563705444336,5.165896892547607
,,101413.537061,0.3703892230987549,1656,1603354453.525888,vicon,object name,0.9380820960577013,1.953913956981126,1.0,2.7674231145844237,1.0,2.0,3.712066438688939,1549877.0,0.03,-0.02,-1.02,-0.06,-0.06,0.0,13.35,60.62,-64.97,1549886.0,0.03,-0.02,-1.01,0.0,0.06,-0.12,13.95,59.41,-64.37,1655,1603354453.517622,1234,0.28022046504077613,-9.322254810028635,2.9403353421073155,3.9914531883136126,0.8116895904178628,1.6504126786120348,2.734790223453521,0.8602625089439034,1.6681147984804627,2.5092704088286304,1655,1603354453.517622,4321,0.5642501711845398,1.5493240356445312,2.805875062942505,3.0183768272399902,4.148098468780518,5.677812099456787
,,101413.550213,0.3835256099700928,1658,1603354453.545814,vicon,object name,0.5474137289096144,1.7877111901886074,1.0,2.9312019429647633,1.0,2.0,3.9155951533119175,1549895.0,0.02,-0.02,-1.03,0.12,0.06,0.0,13.95,59.41,-64.37,1549941.0,0.02,-0.02,-1.02,0.0,-0.06,-0.12,16.2,61.22,-64.67,1657,1603354453.540426,1234,0.6834184789699977,-9.205356420707218,2.836527964005279,3.915555303003985,0.2978934815639318,1.6159579169692004,2.2252796289099877,0.12927407161225057,1.4446934223215264,2.551358139598005,1657,1603354453.540426,4321,0.6999203562736511,1.3729914426803589,2.9992382526397705,3.1852033138275146,4.889812469482422,5.992176532745361
,,101413.569366,0.40265941619873047,1660,1603354453.565832,vicon,object name,0.7971243062215676,1.732283512690433,1.0,2.2889125300289197,1.0,2.0,3.0422737432048703,1549950.0,0.02,-0.02,-1.02,0.0,-0.12,0.0,14.7,60.02,-64.82,1549958.0,0.03,-0.02,-1.02,0.06,0.0,-0.06,13.65,60.77,-65.42,1659,1603354453.557621,1234,0.736474224817324,-9.344743360933727,2.7619370586968204,3.6323816710169927,0.5959638009853384,1.9292311458211922,2.009286796856915,0.37058201046987194,1.7955446918936835,2.4941084158904676,1659,1603354453.557621,4321,0.23558944463729858,1.8083524703979492,2.4063570499420166,3.0041117668151855,4.932860851287842,5.480337619781494
,,101413.589332,0.42262697219848633,1662,1603354453.585797,vicon,object name,0.1366785272147235,1.974771307410291,1.0,2.806643376386926,1.0,2.0,3.8946452550140354,1549967.0,0.03,-0.03,-1.01,0.0,-0.06,0.0,13.95,58.96,-65.12,1549976.0,0.02,-0.01,-1.02,-0.06,-0.06,-0.06,15.15,59.56,-65.12,1661,1603354453.577548,1234,0.4972301881654938,-9.642254196494788,2.5987417689797314,3.6495679152265152,0.6327629771006714,1.7154549143579345,2.453911075511372,0.7707721920823616,1.1872281407717242,2.078980899265005,1661,1603354453.577548,4321,0.05527982488274574,1.3742213249206543,2.5083706378936768,3.8501780033111572,4.110489845275879,5.0563225746154785
,,101413.609111,0.44240307807922363,1664,1603354453.605924,vicon,object name,0.32357007548267336,1.6297965986050222,1.0,2.888927138620896,1.0,2.0,3.1123626994345153,1549986.0,0.03,-0.02,-1.01,0.0,0.0,-0.06,15.15,59.56,-64.67,1549994.0,0.03,-0.03,-1.01,-0.12,-0.06,-0.18,13.8,59.86,-65.27,1663,1603354453.597541,1234,0.022562355759736308,-9.526251841355673,2.351144665972861,3.0222936706779366,0.13065169906138097,1.227399755602216,2.6744871448528937,0.7408086446981416,1.7775090617031704,2.658894058189455,1663,1603354453.597541,4321,0.5296493768692017,1.0982383489608765,2.4539570808410645,3.3463566303253174,4.273265361785889,5.792617321014404
,,101413.633944,0.4672660827636719,1665,1603354453.615928,vicon,object name,0.14753986922505613,1.7748403291655044,1.0,2.925420045958341,1.0,2.0,3.213792678323578,1550004.0,0.03,-0.02,-1.01,-0.12,-0.12,-0.06,15.0,58.66,-64.82,1550013.0,0.03,-0.02,-1.02,-0.12,-0.06,0.0,15.3,61.07,-64.37,1665,1603354453.617674,1234,0.4386477593290944,-9.717514667662154,2.2650173027948233,3.150457361971302,0.6266436254282678,1.9891802718898113,2.206773293491914,0.1633380271690018,1.812853745188667,2.284283006143757,1665,1603354453.617674,4321,0.9857739210128784,1.003686547279358,2.5054986476898193,3.84926438331604,4.694190502166748,5.37044620513916
,,101413.65141,0.48471808433532715,1668,1603354453.645836,vicon,object name,0.11476269636204206,1.0735803291860948,1.0,2.481589246893254,1.0,2.0,3.3886364760270835,1550022.0,0.03,-0.02,-1.01,-0.06,-0.12,-0.12,13.35,60.62,-64.22,1550031.0,0.02,-0.01,-1.02,-0.06,-0.12,0.0,13.8,59.11,-65.57,1667,1603354453.64037,1234,0.7727273173702612,-9.290975450070764,2.945538693308712,3.431564196699315,0.4427015894685956,1.6549619063441066,2.6605840611952853,0.758003403694317,1.492499499525533,2.1482178367489952,1667,1603354453.64037,4321,0.05095488578081131,1.092345118522644,2.5628914833068848,3.386042833328247,4.416913032531738,5.6283183097839355
,,101413.669991,0.5032954216003418,1670,1603354453.665809,vicon,object name,0.22562129777441065,1.4763830668227251,1.0,2.335852818128095,1.0,2.0,3.2671719009641462,1550040.0,0.02,-0.01,-1.02,-0.06,-0.18,-0.12,14.25,60.02,-65.12,1550049.0,0.03,-0.02,-1.02,-0.18,-0.12,-0.12,13.2,58.66,-65.42,1669,1603354453.657543,1234,0.4805437138010906,-9.213250805350365,2.2673400391280527,3.166895430023703,0.024359070970553898,1.6483201902224578,2.7783436998620714,0.7511181365092098,1.706881747390761,2.104678071057254,1669,1603354453.657543,4321,0.9492408633232117,1.6939114332199097,2.0054500102996826,3.63201642036438,4.234525203704834,5.558628082275391
,,101413.689045,0.5223371982574463,1672,1603354453.685795,vicon,object name,0.8752787701459426,1.728972087105226,1.0,2.368781051307466,1.0,2.0,3.9990010930871653,1550058.0,0.03,-0.02,-1.01,0.0,0.0,0.06,14.85,59.11,-65.57,1550100.0,0.02,-0.02,-1.01,0.0,-0.06,-0.06,15.3,60.02,-64.07,1671,1603354453.677527,1234,0.6831807028447993,-9.468198350470075,2.711650299210259,3.849922364829246,0.8607830209636097,1.0958529348745483,2.1875392201226687,0.46262370172328515,1.4921500338696927,2.5882286318852996,1671,1603354453.677527,4321,0.8367294073104858,1.094053864479065,2.799121856689453,3.272204637527466,4.558510780334473,5.053379058837891
,,101413.709065,0.5423543453216553,1674,1603354453.705807,vicon,object name,0.39496331757791514,1.8120347474809209,1.0,2.2148969999060424,1.0,2.0,3.903140885317365,1550109.0,0.03,-0.01,-1.02,0.06,0.12,-0.06,14.85,59.56,-65.57,1550118.0,0.03,-0.01,-1.01,0.06,0.06,-0.12,14.1,59.56,-66.02,1673,1603354453.697567,1234,0.8506997957268269,-9.647851347852626,2.121107847212249,3.7484934130748755,0.1096755459949984,1.1690910733022428,2.7821151502642527,0.7958398002044086,1.8354163926373899,2.8126731280303985,1673,1603354453.697567,4321,0.23310784995555878,1.9290860891342163,2.6339614391326904,3.2311291694641113,4.058427810668945,5.3130083084106445
,,101413.733373,0.5667085647583008,1676,1603354453.72584,vicon,object name,0.15311286253851253,1.9509363582516692,1.0,2.737109401697029,1.0,2.0,3.624196405443621,1550128.0,0.03,-0.02,-1.01,0.0,0.0,0.0,14.85,58.81,-64.97,1550136.0,0.03,-0.02,-1.02,0.12,0.0,-0.06,15.0,60.47,-64.97,1675,1603354453.717545,1234,0.8086353119094655,-9.29689804829761,2.132075508524313,3.739448172040766,0.21864377736659768,1.7434254345103604,2.0270205044190583,0.8538828973058639,1.945252332465201,2.8214373028179978,1675,1603354453.717545,4321,0.588716447353363,1.1667715311050415,2.891791820526123,3.771641254425049,4.511337757110596,5.950875759124756
,,101413.753075,0.5863850116729736,1678,1603354453.745937,vicon,object name,0.1681804350567625,1.5266385888296825,1.0,2.0682666709942534,1.0,2.0,3.335770617649658,1550145.0,0.02,-0.02,-1.0,0.06,0.0,0.0,15.0,60.47,-65.12,1550154.0,0.03,-0.02,-1.01,-0.12,-0.12,0.06,13.65,59.71,-64.82,1677,1603354453.739816,1234,0.11582226631696557,-9.503022360609098,2.7074159395426802,3.2538358458361385,0.2353301250992582,1.2010557990717778,2.35636808590254,0.593851697130419,1.572091545702612,2.4079072191211583,1677,1603354453.739816,4321,0.004716381896287203,1.6449370384216309,2.6091365814208984,3.5555710792541504,4.86855936050415,5.762931823730469
,,101413.769344,0.6026372909545898,1680,1603354453.76583,vicon,object name,0.19822042181261046,1.8388303491059834,1.0,2.8194063763970076,1.0,2.0,3.8882190073473737,1550163.0,0.02,-0.02,-1.01,0.06,0.0,0.0,12.75,60.17,-64.67,1550172.0,0.02,-0.02,-1.01,-0.12,-0.18,-0.06,13.2,59.71,-63.77,1679,1603354453.757791,1234,0.3275789602027416,-9.130466240073025,2.2321812442213282,3.77314289333913,0.7802128845498164,1.9888507546160197,2.7995952139308455,0.7752010918083168,1.5215792742008194,2.9297706717489898,1679,1603354453.757791,4321,0.32676661014556885,1.6872072219848633,2.0973596572875977,3.298609495162964,4.642490863800049,5.963751316070557
,,101413.788814,0.6221046447753906,1682,1603354453.785761,vicon,object name,0.004965694426152578,1.2171045126853826,1.0,2.96364260795145,1.0,2.0,3.1591435336097167,1550181.0,0.03,-0.02,-1.02,-0.12,-0.06,-0.12,14.4,60.62,-64.97,1559816.0,0.03,-0.02,-1.01,0.0,0.0,0.0,14.7,61.07,-65.42,1681,1603354453.777557,1234,0.36158474866029355,-9.109675515313677,2.5755744287101243,3.1049032797268374,0.13753820683188256,1.5890551183313217,2.9494466259038443,0.6548915300148276,1.1414436701387736,2.7655096579728053,1681,1603354453.777557,4321,0.5018921494483948,1.6655038595199585,2.1303153038024902,3.033527374267578,4.622093200683594,5.815186023712158
,,101413.809361,0.6426630020141602,1684,1603354453.805751,vicon,object name,0.8709298078586803,1.6499874524352451,1.0,2.7182906356323415,1.0,2.0,3.279844728913437,1559825.0,0.02,-0.02,-1.02,0.0,0.0,0.0,15.0,61.07,-63.47,1559833.0,0.03,-0.02,-1.03,0.0,0.0,0.0,13.8,58.81,-65.27,1683,1603354453.797511,1234,0.22280700333264059,-9.128627746766668,2.513646476885819,3.0650885808143435,0.8689093405276107,1.2147676820727802,2.195663180484284,0.5030563853969521,1.6299698309558281,2.949197109393836,1683,1603354453.797511,4321,0.3611696660518646,1.7856920957565308,2.2920100688934326,3.730958938598633,4.395603656768799,5.325291633605957
,,101413.829168,0.6624586582183838,1686,1603354453.825852,vicon,object name,0.24853305583765528,1.4719959652858563,1.0,2.630276664712395,1.0,2.0,3.027573044686922,1559842.0,0.04,-0.02,-1.02,0.0,0.0,-0.06,14.85,60.17,-65.27,1559851.0,0.02,-0.02,-1.02,-0.06,-0.18,0.0,14.4,59.56,-64.22,1685,1603354453.817534,1234,0.45522991713497896,-9.319861449796612,2.565444284968577,3.324885618416426,0.3763068998835871,1.3222985858446237,2.9247589356507797,0.4886401844872261,1.5656539180926008,2.0001324106803997,1685,1603354453.817534,4321,0.38682839274406433,1.7189255952835083,2.7140660285949707,3.2904396057128906,4.947204113006592,5.769426345825195
,,101413.849035,0.6823270320892334,1688,1603354453.845892,vicon,object name,0.9513567357629849,1.887810999965799,1.0,2.6837054487358896,1.0,2.0,3.5990621111002175,1559860.0,0.03,-0.01,-1.01,0.06,0.06,0.06,15.0,59.41,-64.07,1559869.0,0.02,-0.01,-1.02,0.0,-0.06,0.06,14.25,60.02,-66.47,1687,1603354453.837532,1234,0.6749654838015713,-9.139060833957144,2.5330150612821236,3.5310660441068396,0.0914456248452391,1.124160588033496,2.0056489887827373,0.25048939986398755,1.1717328525742072,2.741619823712103,1687,1603354453.837532,4321,0.9106334447860718,1.734086036682129,2.1979193687438965,3.291171073913574,4.348703384399414,5.689466953277588
,,101413.869159,0.7024509906768799,1690,1603354453.865771,vicon,object name,0.9710581403310442,1.773154042094129,1.0,2.3367282190522127,1.0,2.0,3.9856764398130053,1559878.0,0.03,-0.02,-1.01,-0.06,-0.12,0.12,13.95,58.66,-65.12,1559887.0,0.02,-0.01,-1.02,0.0,0.0,-0.06,14.4,59.86,-65.57,1689,1603354453.857543,1234,0.7597731052396625,-9.862039409098802,2.3910270408712715,3.6665417613024265,0.5730667336973865,1.373595144254789,2.7233687867126295,0.9045713778986051,1.0583636144185462,2.21683850051678,1689,1603354453.857543,4321,0.04983062297105789,1.690048098564148,2.6802990436553955,3.140749454498291,4.134627819061279,5.080849647521973
,,101413.889107,0.7224030494689941,1692,1603354453.885766,vicon,object name,0.09989037212817498,1.3352538852360198,1.0,2.422871324893069,1.0,2.0,3.0628214420969417,1559896.0,0.03,-0.02,-1.01,-0.06,-0.06,0.0,14.4,59.86,-65.57,1559905.0,0.03,-0.02,-1.02,0.0,-0.06,0.0,14.4,60.92,-64.97,1691,1603354453.877521,1234,0.8314014110220684,-9.67738079161212,2.0231561027329796,3.844090282591735,0.9066898751194722,1.9442613546914047,2.0584169042953784,0.8262814364440585,1.553658358248234,2.6005760367007538,1691,1603354453.877521,4321,0.9588711857795715,1.916929841041565,2.910503625869751,3.1667418479919434,4.477871894836426,5.588597774505615
,,101413.911276,0.7445669174194336,1694,1603354453.905787,vicon,object name,0.6680728190795752,1.593796028268041,1.0,2.1273429124725567,1.0,2.0,3.530857582138059,1559913.0,0.03,-0.02,-1.01,-0.06,-0.12,-0.06,15.15,60.17,-64.67,1559957.0,0.02,-0.02,-1.02,0.0,0.0,-0.06,16.2,59.86,-64.67,1694,1603354453.907543,1234,0.27369391842518564,-9.04082884304994,2.8141671979418454,3.2805307388906124,0.7351540214984602,1.6242926103066901,2.51709106691179,0.9291844296644322,1.276130923462381,2.373868411639594,1694,1603354453.907543,4321,0.9026113152503967,1.343797206878662,2.9427762031555176,3.2996041774749756,4.819179534912109,5.449469089508057
,,101413.929318,0.7627387046813965,1696,1603354453.925758,vicon,object name,0.857180299416327,1.999012323304886,1.0,2.8563419907529095,1.0,2.0,3.5811533949151606,1559966.0,0.03,-0.02,-1.0,0.0,0.06,-0.12,14.1,58.81,-63.92,1559975.0,0.02,-0.02,-1.01,0.06,0.0,0.06,13.05,59.56,-64.97,1695,1603354453.917581,1234,0.07343284765208469,-9.40244904000092,2.4844728318157663,3.445328713638411,0.32268018021774214,1.2775388727214982,2.145874222069809,0.8525288999862716,1.6406481839425235,2.512244257876462,1695,1603354453.917581,4321,0.4661053419113159,1.6392265558242798,2.9648964405059814,3.780733585357666,4.825019359588623,5.424570083618164
,,101413.949128,0.7824249267578125,1698,1603354453.945877,vicon,object name,0.14417304523240948,1.9239459724894572,1.0,2.482671651155389,1.0,2.0,3.4457126860500664,1559984.0,0.02,-0.01,-1.01,-0.06,-0.06,0.0,14.1,59.86,-66.32,1559993.0,0.02,-0.02,-1.02,0.0,0.06,-0.12,15.75,60.47,-64.82,1697,1603354453.937586,1234,0.48697188138175673,-9.296434007201817,2.849472243889216,3.829019714024102,0.5873440743762645,1.6868586112202415,2.432831275473936,0.07258406700851716,1.7473123399514634,2.1195746002616196,1697,1603354453.937586,4321,0.5480068325996399,1.4993314743041992,2.1863961219787598,3.0066659450531006,4.055992126464844,5.873328685760498
,,101413.974384,0.8077514171600342,1700,1603354453.965927,vicon,object name,0.5676722119061323,1.7874430199933151,1.0,2.9003331731788933,1.0,2.0,3.3931073825554163,1560002.0,0.03,-0.02,-1.03,-0.06,-0.12,-0.06,15.75,58.66,-65.42,1560011.0,0.02,-0.02,-1.02,-0.12,-0.12,0.0,14.25,60.02,-64.07,1699,1603354453.957645,1234,0.6810812311831533,-9.561532331690518,2.2463627977088154,3.7213202605934663,0.1988756451751421,1.5087951082024686,2.7085405934193765,0.6554151370326452,1.5627881158948143,2.209589971929921,1699,1603354453.957645,4321,0.591503381729126,1.6554611921310425,2.454228639602661,3.648535966873169,4.815784454345703,5.84776496887207
,,101413.993317,0.8266470432281494,1701,1603354453.975947,vicon,object name,0.5040577016495669,1.453015686457447,1.0,2.6612183544945864,1.0,2.0,3.176445387331634,1560020.0,0.02,-0.02,-1.01,-0.12,-0.12,-0.06,13.35,60.17,-64.97,1560029.0,0.02,-0.02,-1.03,-0.06,-0.06,-0.06,14.25,59.71,-66.17,1701,1603354453.978999,1234,0.024226107408128916,-9.872318553083506,2.854900466575759,3.030227014838878,0.17756191362908236,1.2344701175506105,2.765859267740673,0.020907256458327694,1.6400536107318398,2.478678678634751,1701,1603354453.978999,4321,0.10927501320838928,1.3572560548782349,2.869875431060791,3.430934190750122,4.621886253356934,5.052099704742432
,,101414.010001,0.8433213233947754,1704,1603354454.5866,vicon,object name,0.4125775217389943,1.8171870035960813,1.0,2.461690285541902,1.0,2.0,3.7112553232797425,1560038.0,0.02,-0.01,-1.02,0.12,-0.06,-0.06,14.4,59.56,-64.67,1560048.0,0.02,-0.02,-1.02,-0.06,-0.06,-0.12,15.75,61.07,-64.37,1703,1603354454.1148,1234,0.8324873763461961,-9.635569413467353,2.650807398910123,3.2257065687447644,0.3636427242275442,1.4241125653431925,2.4932177713001877,0.10788474429889094,1.9508649987380313,2.5675385669704305,1703,1603354454.1148,4321,0.40968817472457886,1.3426190614700317,2.9304728507995605,3.2153494358062744,4.929028511047363,5.603280067443848
,,101414.029267,0.862558126449585,1706,1603354454.25793,vicon,object name,0.16028045674197333,1.0695048607326498,1.0,2.262845625645278,1.0,2.0,3.0764639786424572,1560057.0,0.03,-0.01,-1.01,-0.06,-0.12,-0.06,15.75,61.07,-64.37,1560066.0,0.03,-0.03,-1.02,-0.06,0.0,0.06,13.95,60.77,-66.17,1705,1603354454.17593,1234,0.89723760454668,-9.457380806948532,2.5831637804936927,3.397781595373909,0.4627236774733735,1.6468800222269744,2.5424064835565834,0.4507446518754533,1.8318610535998998,2.5210729841028514,1705,1603354454.17593,4321,0.9030340909957886,1.6697214841842651,2.981206178665161,3.3595399856567383,4.842970848083496,5.386321067810059
,,101414.074852,0.9081437587738037,1710,1603354454.65792,vicon,object name,0.9904691098067947,1.1490326491668963,1.0,2.523412875927301,1.0,2.0,3.4597263852016,1560075.0,0.02,-0.02,-1.01,-0.06,0.0,-0.12,14.7,60.02,-65.12,1560120.0,0.03,-0.02,-1.02,-0.06,-0.06,-0.06,16.35,60.47,-63.77,1710,1603354454.67553,1234,0.5659088129145773,-9.647129948758629,2.6780877077112035,3.010357298981107,0.5411754362354099,1.285258331908444,2.081054364775081,0.3074870200730607,1.1243622774687811,2.997643501732642,1710,1603354454.67553,4321,0.9234818816184998,1.0802621841430664,2.0143842697143555,3.1589620113372803,4.8102545738220215,5.1671247482299805
,,101414.093251,0.9265434741973877,1712,1603354454.85883,vicon,object name,0.1281193206385257,1.215742886879465,1.0,2.1973304146081896,1.0,2.0,3.411603905135667,1560129.0,0.02,-0.02,-1.01,-0.06,-0.12,0.06,14.25,60.77,-63.77,1560138.0,0.02,-0.02,-1.01,-0.06,-0.06,-0.12,15.45,61.22,-64.67,1712,1603354454.87581,1234,0.1226543006313362,-9.537938521345342,2.9746886030243007,3.7116253670215453,0.13179270616626937,1.2379165508442358,2.701722524663602,0.05085597096205319,1.3697023558773114,2.2501917154620594,1712,1603354454.87581,4321,0.5979797840118408,1.9509563446044922,2.530958890914917,3.8578622341156006,4.108081340789795,5.2932634353637695
,,101414.111416,0.9447064399719238,1714,1603354454.105744,vicon,object name,0.42382923040072595,1.2406414037685454,1.0,2.6315747589175267,1.0,2.0,3.5328152486458007,1560148.0,0.02,-0.03,-1.02,-0.06,-0.18,-0.12,15.3,58.96,-66.17,1560157.0,0.03,-0.02,-1.01,-0.06,-0.12,0.0,15.3,58.96,-66.17,1714,1603354454.107548,1234,0.285383224046454,-9.517821212170448,2.9296538071749403,3.0134378714964587,0.16396093812433343,1.1875840738469305,2.324887998486402,0.025179875158308773,1.634514387182274,2.8912709762890705,1714,1603354454.107548,4321,0.41552969813346863,1.3872960805892944,2.7326200008392334,3.372352361679077,4.828217506408691,5.842132091522217
,,101414.129788,0.9630827903747559,1716,1603354454.125792,vicon,object name,0.4166123671912998,1.274534371765557,1.0,2.117519788939614,1.0,2.0,3.0424967016837097,1560166.0,0.02,-0.01,-1.02,-0.12,-0.12,-0.06,13.95,58.96,-64.37,1560175.0,0.02,-0.02,-1.01,-0.06,-0.12,-0.06,14.85,60.92,-64.67,1715,1603354454.117553,1234,0.5136378510785797,-9.339909534892312,2.898232376217625,3.9673701430883845,0.42692534527500814,1.9358704882190678,2.5583684902139527,0.20122116137895762,1.549163019052974,2.8118419287803045,1715,1603354454.117553,4321,0.8779885768890381,1.5873935222625732,2.8540470600128174,3.449455499649048,4.317438125610352,5.007818698883057
,,101414.147963,0.9812564849853516,1717,1603354454.13578,vicon,object name,0.138350466899697,1.277691217178375,1.0,2.8005423400548564,1.0,2.0,3.8618804193031115,1560184.0,0.03,-0.02,-1.01,-0.18,-0.12,0.0,15.3,61.07,-63.77,1560193.0,0.03,-0.02,-1.01,-0.06,-0.06,-0.12,14.1,59.86,-64.67,1717,1603354454.137564,1234,0.37206705528751627,-9.23260343961779,2.1933786690430397,3.1235093946464927,0.00800716320614192,1.5611770058816843,2.355189170153281,0.07561421263204993,1.7416124596075484,2.549106526042082,1717,1603354454.137564,4321,0.8133967518806458,1.0941357612609863,2.8789424896240234,3.999873638153076,4.637552261352539,5.507484436035156
,,101414.166478,0.999772310256958,1719,1603354454.155777,vicon,object name,0.9905289883287699,1.0999664491410228,1.0,2.5909459301340316,1.0,2.0,3.4061153719052224,1560202.0,0.04,-0.01,-1.0,-0.06,-0.06,0.18,12.9,58.66,-64.82,1560212.0,0.03,-0.01,-1.01,-0.24,-0.18,-0.12,14.1,58.06,-64.97,1719,1603354454.157528,1234,0.29221840026406354,-9.39647776125361,2.927214499977755,3.235868816918005,0.3075569613728182,1.7697949476411639,2.6960618569682353,0.24865829534263273,1.1794345675389117,2.1395441023361084,1719,1603354454.157528,4321,0.17660459876060486,1.9222924709320068,2.495096445083618,3.9019737243652344,4.255161762237549,5.959681034088135
,,101414.184523,1.0178146362304688,1721,1603354454.175833,vicon,object name,0.3595067612281847,1.3037111109566502,1.0,2.857784195945625,1.0,2.0,3.4476513483679314,1560221.0,0.03,-0.0,-1.02,-0.12,-0.12,0.06,14.4,60.62,-65.27,1560230.0,0.02,-0.02,-1.01,0.0,0.0,0.06,14.85,59.86,-64.97,1721,1603354454.177575,1234,0.5008493508655689,-9.764015144665713,2.2357079164494307,3.4681574739454044,0.06404069172270022,1.102161585588214,2.0437244623672695,0.649081035949507,1.2788898825072725,2.8478682023968798,1721,1603354454.177575,4321,0.6264240145683289,1.879656434059143,2.042670965194702,3.906022310256958,4.359140872955322,5.965315341949463
,,101414.237875,1.0711772441864014,1726,1603354454.226,vicon,object name,0.8797516306505048,1.602092804050982,1.0,2.409203198138872,1.0,2.0,3.997585396923281,1560239.0,0.02,-0.01,-1.02,0.06,0.12,-0.06,15.0,60.02,-64.82,1560283.0,0.02,-0.01,-1.01,0.06,0.06,0.0,15.9,58.81,-63.62,1725,1603354454.217592,1234,0.041346409891456326,-9.64672094180001,2.0292952449874155,3.6853003314635107,0.41448614900129355,1.913960381324017,2.4343154611960256,0.5023202631132603,1.7810545171240735,2.771593639973741,1725,1603354454.217592,4321,0.5233681201934814,1.5954327583312988,2.759612560272217,3.791513681411743,4.792061805725098,5.5441789627075195
,,101414.255761,1.0890600681304932,1728,1603354454.245807,vicon,object name,0.6845118891679489,1.1040708902643004,1.0,2.6113714307916482,1.0,2.0,3.538492157328701,1560292.0,0.02,-0.01,-1.02,0.06,0.0,0.06,14.85,60.17,-65.27,1560301.0,0.02,-0.02,-1.01,-0.06,-0.18,0.0,16.05,60.47,-64.82,1728,1603354454.24759,1234,0.03232432951869402,-9.427220510571223,2.5081452340326464,3.985852057623715,0.30849356841074704,1.5493681149648038,2.959148257121028,0.44106227683861055,1.242259717819537,2.9867059683325943,1728,1603354454.24759,4321,0.35589271783828735,1.7994136810302734,2.404177665710449,3.28397798538208,4.28639554977417,5.480442523956299
,,101414.273723,1.1070146560668945,1730,1603354454.265816,vicon,object name,0.17570736711879564,1.8789230857475547,1.0,2.086957594403498,1.0,2.0,3.4540504215418295,1560310.0,0.02,-0.01,-1.02,-0.06,-0.18,-0.06,13.35,59.56,-65.57,1560319.0,0.02,-0.02,-1.02,0.0,0.0,-0.12,13.95,59.71,-64.07,1730,1603354454.267558,1234,0.5995507260936302,-9.517333519346485,2.0065607281019737,3.6284757377863563,0.47203882450500223,1.1082865562562954,2.8885244787342184,0.46053280553646514,1.3351055543553838,2.481631935763417,1730,1603354454.267558,4321,0.9526128768920898,1.7601209878921509,2.532762050628662,3.4900004863739014,4.132225513458252,5.688902854919434
,,101414.291796,1.1250882148742676,1732,1603354454.285791,vicon,object name,0.6847447753767939,1.332145608482867,1.0,2.499206271861987,1.0,2.0,3.576517765598165,1560328.0,0.03,-0.01,-1.0,0.0,-0.06,-0.12,13.8,61.67,-63.62,1560337.0,0.03,-0.01,-1.01,0.06,0.0,-0.06,13.8,61.67,-63.62,1732,1603354454.287603,1234,0.32284564148755535,-9.613783769761614,2.9276822716538837,3.0567347455167138,0.6438725178063873,1.8913753463055687,2.771838182405826,0.5474010030017208,1.6501004757207047,2.79338063912516,1732,1603354454.287603,4321,0.12095866352319717,1.057901382446289,2.8672258853912354,3.481550931930542,4.337743282318115,5.071970462799072
,,101414.310108,1.1433994770050049,1734,1603354454.305751,vicon,object name,0.17561842344993672,1.5154659856594899,1.0,2.811269896494695,1.0,2.0,3.4566962429194685,1560346.0,0.03,-0.02,-1.03,-0.06,-0.06,0.06,13.8,60.17,-66.32,1560355.0,0.03,-0.03,-1.02,-0.06,-0.12,0.0,12.9,59.71,-65.87,1733,1603354454.297512,1234,0.6609887077340942,-9.096138017964007,2.5962319728543255,3.0605399490166905,0.8421305121270467,1.3898666921722458,2.687360325140842,0.502094360648876,1.6498101715785825,2.9100554534318572,1733,1603354454.297512,4321,0.5653719902038574,1.3039555549621582,2.5272934436798096,3.1318678855895996,4.781208515167236,5.476011753082275
,,101414.328371,1.1616640090942383,1736,1603354454.325809,vicon,object name,0.6845091334670415,1.1112745267603579,1.0,2.7676125579010007,1.0,2.0,3.837950049916438,1560364.0,0.03,-0.02,-1.01,-0.06,-0.06,0.0,13.95,60.77,-65.12,1560373.0,0.03,-0.02,-1.01,-0.12,-0.06,-0.18,13.35,60.62,-65.57,1735,1603354454.31757,1234,0.525735232112657,-9.90952400270409,2.8928087986816418,3.4598374914113346,0.3569620071349633,1.340188078849497,2.4953705443583347,0.30406067605297626,1.834088030836878,2.6809934972869787,1735,1603354454.31757,4321,0.402188777923584,1.8240876197814941,2.179891586303711,3.8383865356445312,4.267122268676758,5.790013313293457
,,101414.346831,1.1801612377166748,1737,1603354454.335756,vicon,object name,0.9754311093163475,1.2645197068813603,1.0,2.552489936910815,1.0,2.0,3.4071993957993225,1560383.0,0.02,-0.01,-1.01,0.12,0.06,0.0,14.4,59.86,-64.67,1560392.0,0.03,-0.01,-1.02,0.0,0.0,0.0,13.8,60.62,-64.22,1737,1603354454.337537,1234,0.9720561548602157,-9.064701340864168,2.7767583561000944,3.6993691577256884,0.07606484505120759,1.383380123627865,2.063638352268427,0.5779338477523609,1.664012871085593,2.8668114073776976,1737,1603354454.337537,4321,0.44602149724960327,1.187111258506775,2.916463851928711,3.1644718647003174,4.428261756896973,5.2734785079956055
,,101414.400475,1.2337863445281982,1743,1603354454.395874,vicon,object name,0.10239562643206868,1.0626646534854918,1.0,2.355368549628403,1.0,2.0,3.4556863183347724,1560400.0,0.02,-0.01,-1.01,0.12,0.06,-0.06,14.7,59.71,-65.12,1560446.0,0.02,-0.0,-1.01,0.0,0.0,-0.12,15.45,58.06,-63.92,1742,1603354454.38762,1234,0.10219371773034036,-9.7357915709744,2.140248624586668,3.0795557829013758,0.3706428863796447,1.6596103708441494,2.4752194463839055,0.7818744828839569,1.6836581436615397,2.0266614084820795,1742,1603354454.38762,4321,0.9755248427391052,1.88682222366333,2.142890691757202,3.493818521499634,4.593799114227295,5.0219926834106445
,,101414.418941,1.2522532939910889,1744,1603354454.405799,vicon,object name,0.7994885845674709,1.6105922594683362,1.0,2.119407866470811,1.0,2.0,3.414309750366777,1560455.0,0.02,-0.01,-1.02,0.0,0.06,-0.06,14.85,59.56,-64.22,1560464.0,0.03,-0.01,-1.01,-0.06,-0.06,-0.06,13.8,60.92,-65.27,1744,1603354454.407594,1234,0.25400358204524287,-9.993049445490145,2.2933550490382952,3.888617098329565,0.7207111146215378,1.4905805721933865,2.9746171623002224,0.3568227253706707,1.4872234853159896,2.499388886270569,1744,1603354454.407594,4321,0.04399564117193222,1.131274938583374,2.5992307662963867,3.0998337268829346,4.3016180992126465,5.120348930358887
,,101414.436837,1.2701482772827148,1746,1603354454.425823,vicon,object name,0.8810928631769158,1.1829944410970554,1.0,2.1580303151166484,1.0,2.0,3.6019885216271357,1560473.0,0.03,-0.01,-1.02,-0.12,-0.06,0.12,14.25,59.41,-64.37,1560482.0,0.02,-0.01,-1.01,0.0,-0.06,0.06,13.05,58.51,-66.02,1746,1603354454.427553,1234,0.2393375975179236,-9.109577722889027,2.9230954239982228,3.6211838986707434,0.4176410566882507,1.4887949433951073,2.4476160259665707,0.31865465810806326,1.9552885178065247,2.669716110913848,1746,1603354454.427553,4321,0.5993057489395142,1.4567941427230835,2.770608901977539,3.7014896869659424,4.088644027709961,5.888184070587158
,,101414.454904,1.2882022857666016,1748,1603354454.445809,vicon,object name,0.059692090522573404,1.6604281160797134,1.0,2.071782321911551,1.0,2.0,3.3860523832708758,1560491.0,0.04,-0.01,-1.01,0.0,0.0,-0.18,13.65,60.02,-64.37,1560500.0,0.02,-0.01,-1.01,-0.06,-0.18,-0.18,13.95,60.02,-64.07,1748,1603354454.447573,1234,0.45715379429412817,-9.683345049543004,2.902886232258985,3.832837515187367,0.05936776634299035,1.691485233534903,2.9311179481631338,0.22469302581477402,1.0196792365823577,2.7158191079058875,1748,1603354454.447573,4321,0.7599440217018127,1.9118160009384155,2.5131723880767822,3.425975799560547,4.9185566902160645,5.276853084564209
,,101414.472939,1.3062353134155273,1750,1603354454.465778,vicon,object name,0.7021486206518177,1.402194695163548,1.0,2.676481425288208,1.0,2.0,3.6724591761777683,1560509.0,0.03,-0.01,-1.02,-0.06,-0.12,0.0,14.1,60.92,-64.67,1560518.0,0.02,-0.02,-1.01,0.0,-0.12,-0.12,14.25,60.02,-64.07,1750,1603354454.467561,1234,0.7190604704948019,-9.714579689253103,2.898399746029832,3.67667803084529,0.2790268129108433,1.6382890448464926,2.7322952392359063,0.4887131840999569,1.2950960761211017,2.5516808582388597,1750,1603354454.467561,4321,0.7426124811172485,1.9981427192687988,2.22082257270813,3.0482990741729736,4.36911678314209,5.869208812713623
,,101414.491146,1.3244423866271973,1752,1603354454.485816,vicon,object name,0.22576586844498303,1.5302126372393783,1.0,2.7960055131886987,1.0,2.0,3.4930080988910377,1560527.0,0.02,-0.01,-1.02,-0.06,0.0,-0.06,14.25,60.02,-64.07,1560536.0,0.02,-0.02,-1.0,0.12,-0.06,-0.06,13.65,59.71,-64.82,1751,1603354454.477552,1234,0.6895835712537265,-9.390968599799582,2.373404043369707,3.693716079465416,0.3656931915323437,1.195519024478656,2.8399151404830043,0.36383611625919454,1.7618160635274327,2.086044961624788,1751,1603354454.477552,4321,0.39707162976264954,1.4509118795394897,2.2538888454437256,3.531595230102539,4.416740894317627,5.0423994064331055
,,101414.510534,1.343855857849121,1753,1603354454.495886,vicon,object name,0.13546517753258003,1.5305731414465058,1.0,2.9481060253631854,1.0,2.0,3.1681012887036766,1560546.0,0.03,-0.02,-1.0,-0.06,-0.06,0.06,13.95,59.71,-64.07,1560555.0,0.02,-0.02,-1.01,-0.06,-0.06,0.0,14.4,59.86,-64.97,1753,1603354454.49759,1234,0.47643369333411634,-9.400460189294789,2.51800700380503,3.457596358858405,0.6161644678671998,1.6357499530426143,2.7291163434029393,0.5922726555847718,1.6757763571022237,2.4815614409864066,1753,1603354454.49759,4321,0.44226500391960144,1.9511141777038574,2.4248785972595215,3.5496811866760254,4.198204517364502,5.451471328735352
,,101414.56246,1.395756721496582,1759,1603354454.555857,vicon,object name,0.3016429884310814,1.5690718606761271,1.0,2.5196302243699717,1.0,2.0,3.093035217630047,1560564.0,0.02,-0.01,-1.02,0.06,0.0,0.0,14.85,58.51,-64.22,1560608.0,0.03,-0.03,-1.02,0.0,0.06,0.0,15.15,59.11,-64.67,1759,1603354454.55753,1234,0.1181919657430176,-9.252799866661235,2.4384178145154527,3.2294805032451688,0.11741831447645645,1.6754664592146973,2.3265141064794386,0.108823452839384,1.3549318968447328,2.4362194974134903,1759,1603354454.55753,4321,0.7621899843215942,1.2069780826568604,2.741119384765625,3.9976725578308105,4.022552490234375,5.1295552253723145
,,101414.580511,1.4138085842132568,1761,1603354454.575798,vicon,object name,0.626213918151911,1.281118861980219,1.0,2.1876075165464473,1.0,2.0,3.036754884433271,1560617.0,0.02,-0.02,-1.02,0.06,0.0,0.06,15.15,59.11,-64.67,1560626.0,0.03,-0.02,-1.01,-0.06,-0.12,0.0,13.8,58.51,-64.97,1760,1603354454.567555,1234,0.22345399049576842,-9.933440373999792,2.9697592646469513,3.8382287160273707,0.501829442662076,1.8449105940734265,2.4881518828579905,0.9249057945548697,1.9723993028420612,2.1037925689968087,1760,1603354454.567555,4321,0.49889445304870605,1.407153844833374,2.9311611652374268,3.678863286972046,4.680621147155762,5.70078706741333
,,101414.598305,1.431603193283081,1762,1603354454.585807,vicon,object name,0.6032738870301786,1.0588794523960483,1.0,2.3403597728679792,1.0,2.0,3.1879962583137966,1560635.0,0.02,-0.01,-1.02,0.0,0.12,0.0,15.0,60.47,-65.42,1560644.0,0.02,-0.03,-1.02,-0.06,0.0,0.0,14.7,59.71,-65.87,1762,1603354454.587568,1234,0.04528473062078553,-9.827000414333627,2.1624413314042887,3.670050052402889,0.059956028711939946,1.3137706120785628,2.1853068114304026,0.9463579684028394,1.0257461900768041,2.312453213701224,1762,1603354454.587568,4321,0.5543105602264404,1.4233074188232422,2.2883143424987793,3.4092679023742676,4.178198337554932,5.94010591506958
,,101414.616144,1.4494400024414062,1764,1603354454.60585,vicon,object name,0.08917153609057193,1.3669075702011586,1.0,2.4121157246257496,1.0,2.0,3.3092669045935477,1560653.0,0.03,-0.02,-1.02,0.0,0.0,0.0,14.4,60.62,-64.67,1560662.0,0.02,-0.02,-1.02,-0.12,-0.12,0.0,13.2,60.47,-65.12,1764,1603354454.607579,1234,0.8876840729728781,-9.708522483456575,2.2163403572372533,3.396871316724403,0.39207615201106594,1.0998746652670655,2.988664093945238,0.45514307024894574,1.259339766203496,2.9320739601934793,1764,1603354454.607579,4321,0.026406465098261833,1.5736868381500244,2.595543146133423,3.4837615489959717,4.813752174377441,5.980928421020508
,,101414.634228,1.467524528503418,1766,1603354454.625815,vicon,object name,0.1902466713501345,1.4154760066100325,1.0,2.9960872215261403,1.0,2.0,3.8564444388607053,1560671.0,0.02,-0.02,-1.02,-0.06,-0.18,0.0,13.8,60.62,-64.97,1560680.0,0.02,-0.03,-1.01,-0.06,-0.24,-0.06,14.25,60.02,-63.77,1766,1603354454.627572,1234,0.6594341426922178,-9.427440553573161,2.2550055397782467,3.807599781528945,0.24393381668031178,1.3555292906494576,2.803229216774168,0.8666449094860934,1.8106117690677708,2.362601238566601,1766,1603354454.627572,4321,0.12049990147352219,1.803586483001709,2.049133539199829,3.2096188068389893,4.464288234710693,5.719336032867432
,,101414.652794,1.4860913753509521,1768,1603354454.645798,vicon,object name,0.15811573780074817,1.5148874867255766,1.0,2.0719140487326486,1.0,2.0,3.0155983870607352,1560689.0,0.03,-0.02,-1.01,0.0,0.0,-0.12,14.25,60.47,-65.42,1560698.0,0.02,-0.02,-1.02,0.12,0.06,-0.24,15.15,59.56,-65.42,1768,1603354454.647591,1234,0.5867354200618125,-9.093385598184838,2.829250509115083,3.415173161837245,0.9267154431248688,1.0935709650476557,2.2795684538191234,0.35268231248372295,1.6531276857025152,2.978661152985996,1768,1603354454.647591,4321,0.10265136510133743,1.9099297523498535,2.3041625022888184,3.2268733978271484,4.914253234863281,5.174966812133789
,,101414.67051,1.5038154125213623,1770,1603354454.665845,vicon,object name,0.3456050270510761,1.348195366949592,1.0,2.58940032429697,1.0,2.0,3.146361253436704,1560707.0,0.02,-0.02,-1.01,0.0,0.06,0.0,15.15,59.56,-66.32,1560716.0,0.03,-0.02,-1.02,0.06,0.0,-0.06,12.6,59.71,-65.12,1769,1603354454.657557,1234,0.8013004992357553,-9.825809232283508,2.2035028551411235,3.164320876324141,0.0018601429469796704,1.2542146634718336,2.9589175660996876,0.5503144520629887,1.4755835456105482,2.545864847777589,1769,1603354454.657557,4321,0.16664941608905792,1.4752473831176758,2.123723030090332,3.120360851287842,4.329646587371826,5.245593547821045
,,101414.725405,1.5587146282196045,1775,1603354454.71594,vicon,object name,0.2553697883608663,1.8958787488655284,1.0,2.5543862220021314,1.0,2.0,3.4714321646406847,1560725.0,0.02,-0.01,-1.02,0.06,0.0,-0.06,14.1,57.76,-64.97,1560771.0,0.02,-0.02,-1.02,0.0,-0.06,-0.06,16.95,58.81,-64.22,1774,1603354454.707635,1234,0.913275733190327,-9.610914439628196,2.758622756890891,3.0742606391214897,0.8621108131124758,1.4035028982387594,2.2378041104551047,0.579975456723312,1.1489421045587402,2.456363357220721,1774,1603354454.707635,4321,0.4336598813533783,1.86854887008667,2.3016750812530518,3.9513187408447266,4.928533554077148,5.255804061889648
,,101414.743334,1.5766468048095703,1777,1603354454.73583,vicon,object name,0.9049224837916565,1.5208286249065934,1.0,2.1435360560952277,1.0,2.0,3.635088065152361,1560780.0,0.02,-0.02,-1.01,-0.12,0.06,-0.06,15.9,60.92,-63.62,1560789.0,0.02,-0.02,-1.01,0.0,-0.06,0.0,13.8,59.11,-64.97,1776,1603354454.729529,1234,0.22197189868894363,-9.547620089716103,2.608139246101699,3.601011046591732,0.5325709316372905,1.9202271719951114,2.453392302246837,0.14109413582742425,1.9166939052823135,2.7068629237612813,1776,1603354454.729529,4321,0.49528229236602783,1.5835952758789062,2.412792444229126,3.824298620223999,4.492628574371338,5.774541854858398
,,101414.761264,1.5945656299591064,1779,1603354454.755817,vicon,object name,0.32510421940284706,1.7059313917767198,1.0,2.604895692556216,1.0,2.0,3.205329826183549,1560798.0,0.03,-0.02,-1.02,-0.18,-0.12,0.0,14.7,59.11,-64.97,1560807.0,0.02,-0.02,-1.01,-0.06,-0.06,0.0,14.7,59.71,-64.82,1778,1603354454.747643,1234,0.6892473366373817,-9.279288793087849,2.1630538466103726,3.715014049414604,0.33908049782422844,1.9303969440586521,2.2661124083233393,0.36270101459449455,1.5996127591504883,2.1066927237672983,1778,1603354454.747643,4321,0.9040368795394897,1.7932740449905396,2.8510565757751465,3.2071611881256104,4.809699535369873,5.103948593139648
,,101414.779812,1.6131205558776855,1781,1603354454.775896,vicon,object name,0.08668940546875392,1.0060402586889663,1.0,2.2846515504782134,1.0,2.0,3.2032257841662366,1560816.0,0.02,-0.02,-1.0,0.0,0.0,0.0,14.7,59.71,-65.42,1560824.0,0.03,-0.02,-1.01,-0.06,-0.06,-0.06,13.65,60.77,-66.17,1780,1603354454.76761,1234,0.8110506960439783,-9.701393845077169,2.1584136077593956,3.868617322597391,0.8821804188334803,1.0786394217204354,2.5667414903247616,0.998331693957168,1.5233239024792593,2.2316838012556945,1780,1603354454.76761,4321,0.0687800720334053,1.0747966766357422,2.144956588745117,3.283348321914673,4.480930805206299,5.489160060882568
,,101414.797577,1.6308777332305908,1782,1603354454.785861,vicon,object name,0.8442562599706269,1.3964070384385803,1.0,2.9611267762218336,1.0,2.0,3.353006682199169,1560834.0,0.03,-0.02,-1.01,0.06,0.12,0.06,15.15,60.17,-64.97,1560843.0,0.03,-0.03,-1.01,-0.06,-0.06,0.06,14.7,60.47,-64.37,1782,1603354454.78758,1234,0.8621742238706317,-9.16738310132475,2.1921606206275133,3.0112099176494898,0.2439633329621369,1.4459728297492997,2.4509506038914965,0.17756357855630112,1.1312212281590384,2.4459309906778266,1782,1603354454.78758,4321,0.6048597693443298,1.2306677103042603,2.310708522796631,3.591057538986206,4.726592063903809,5.4546403884887695
,,101414.815733,1.649040699005127,1784,1603354454.805878,vicon,object name,0.994294800114239,1.1127596841395382,1.0,2.8717419483026965,1.0,2.0,3.8638057567793527,1560852.0,0.02,-0.02,-1.01,0.0,0.06,-0.06,15.75,60.47,-65.12,1560861.0,0.02,-0.02,-1.02,-0.12,-0.18,-0.12,14.85,59.56,-66.32,1784,1603354454.807565,1234,0.27043681266925756,-9.975569112715046,2.905297528274264,3.9196907676261237,0.298110655534113,1.1593630517746112,2.2708648420301443,0.8972639261029276,1.6447915867722545,2.361045856970056,1784,1603354454.807565,4321,0.11265336722135544,1.8372033834457397,2.631044864654541,3.6029956340789795,4.311130046844482,5.524794578552246
,,101414.835497,1.6688458919525146,1785,1603354454.815955,vicon,object name,0.7305993722859648,1.6525739371800707,1.0,2.1940632597106386,1.0,2.0,3.577102825106021,1560870.0,0.02,-0.02,-1.02,-0.06,-0.06,0.0,12.0,59.11,-65.57,1560879.0,0.02,-0.02,-1.02,0.0,0.0,-0.06,13.95,60.02,-65.12,1785,1603354454.817611,1234,0.5771546478624072,-9.242267227904609,2.5404197513314166,3.3591237303892,0.09948262489712423,1.36442436206081,2.7043430292162967,0.009130607287279546,1.0279292886921474,2.5348034686941974,1784,1603354454.807565,4321,0.11265336722135544,1.8372033834457397,2.631044864654541,3.6029956340789795,4.311130046844482,5.524794578552246
,,101414.887536,1.720834732055664,1791,1603354454.875802,vicon,object name,0.7724041256486835,1.3734059997455699,1.0,2.4069599308460976,1.0,2.0,3.034802997404589,1560888.0,0.02,-0.01,-1.02,-0.06,-0.06,-0.06,13.35,59.86,-64.67,1560933.0,0.02,-0.02,-1.02,-0.06,-0.06,-0.06,15.15,59.56,-63.32,1791,1603354454.877549,1234,0.07751748594240138,-9.593889056888186,2.9340824071913008,3.796580411403626,0.5578586636290682,1.0508788789188703,2.575222500829425,0.3984747776960157,1.4338162089872246,2.475098520738901,1791,1603354454.877549,4321,0.47311532497406006,1.5971981287002563,2.3422439098358154,3.774676561355591,4.062228679656982,5.149259090423584
,,101414.905755,1.7390520572662354,1793,1603354454.895801,vicon,object name,0.3724031440085407,1.3032886707196463,1.0,2.1857071897065286,1.0,2.0,3.7767747243952283,1560942.0,0.02,-0.02,-1.01,-0.06,-0.06,0.0,14.7,61.52,-65.12,1560951.0,0.03,-0.03,-1.02,-0.24,-0.24,-0.12,13.2,59.41,-65.87,1793,1603354454.897573,1234,0.2224830109117213,-9.478997289845362,2.8993811341475197,3.0597331525112037,0.5368204144865066,1.0684818502481899,2.2376303577888965,0.17754175448822285,1.4748317770175183,2.101944346593693,1793,1603354454.897573,4321,0.7121473550796509,1.4655729532241821,2.2966487407684326,3.4573144912719727,4.718604564666748,5.019665241241455
,,101414.924741,1.7580878734588623,1794,1603354454.905763,vicon,object name,0.8144585131457414,1.72859084588714,1.0,2.541319978324606,1.0,2.0,3.8999033835042956,1560960.0,0.03,-0.01,-1.02,-0.06,-0.06,-0.06,14.85,59.86,-64.97,1560970.0,0.02,-0.02,-1.01,0.12,0.0,-0.12,14.7,59.71,-64.07,1794,1603354454.907535,1234,0.08969695422825164,-9.941532485522522,2.012626177528487,3.8893642225134006,0.8875080114430245,1.7587362105710658,2.5993562746300247,0.882257602531749,1.9428042998874948,2.8974375221198536,1794,1603354454.907535,4321,0.41026628017425537,1.9328922033309937,2.435753583908081,3.0059924125671387,4.186914443969727,5.224887847900391
,,101414.942786,1.776090383529663,1797,1603354454.935953,vicon,object name,0.1821064653778306,1.9569463951206902,1.0,2.5513837405875965,1.0,2.0,3.1605371486772085,1560979.0,0.02,-0.01,-1.01,0.0,0.0,0.06,13.2,60.02,-63.77,1560988.0,0.02,-0.02,-1.01,-0.12,-0.06,0.06,13.2,60.02,-63.77,1795,1603354454.917682,1234,0.9358744389676179,-9.947723519062611,2.378203161172423,3.0032976270482843,0.033045207762237405,1.9330053950399275,2.709599083490751,0.8714194000531394,1.140528940638028,2.96277782136571,1795,1603354454.917682,4321,0.020660320296883583,1.6649900674819946,2.6954615116119385,3.5081260204315186,4.517123699188232,5.4419145584106445
,,101414.959958,1.7932562828063965,1799,1603354454.955806,vicon,object name,0.9024480648129971,1.9280117179853802,1.0,2.27358897737564,1.0,2.0,3.867152537408956,1560997.0,0.02,-0.03,-1.02,-0.18,-0.12,0.0,14.7,60.47,-66.47,1561006.0,0.02,-0.02,-1.01,0.0,0.0,-0.06,14.1,59.86,-65.57,1798,1603354454.94948,1234,0.1059271140343071,-9.681112450857803,2.7294813133913602,3.2285513391924763,0.20292467348912602,1.330638663631754,2.0144018887214576,0.5889192684314333,1.9076291179763296,2.3401993466376045,1798,1603354454.94948,4321,0.5635145306587219,1.3883192539215088,2.099571943283081,3.590517997741699,4.173216342926025,5.680873394012451
,,101414.979593,1.812922477722168,1800,1603354454.965884,vicon,object name,0.9540630648002031,1.9351777052462844,1.0,2.4261208161171566,1.0,2.0,3.560935402307127,1561015.0,0.02,-0.01,-1.01,0.0,-0.12,-0.12,13.65,59.71,-65.87,1561024.0,0.03,-0.01,-1.01,0.06,0.12,-0.06,13.8,59.86,-65.27,1799,1603354454.957569,1234,0.9315864387663941,-9.436023013755447,2.7581738448048196,3.270541454801249,0.5081956265284142,1.2886834210403284,2.113094298049742,0.21022289267716687,1.0165323852162902,2.20503741000036,1799,1603354454.957569,4321,0.6973208785057068,1.7849087715148926,2.262928009033203,3.2489981651306152,4.498144626617432,5.256459712982178
,,101414.998055,1.8313939571380615,1802,1603354454.985928,vicon,object name,0.7435895256047045,1.7216949737620943,1.0,2.493209835300633,1.0,2.0,3.1619715523386827,1561033.0,0.02,-0.01,-1.02,0.0,-0.06,-0.06,13.8,59.11,-64.97,1561042.0,0.01,-0.02,-1.01,-0.06,0.06,-0.06,14.25,60.47,-64.82,1801,1603354454.982006,1234,0.25811434168357994,-9.884612015488582,2.7508309206007002,3.259723511713292,0.3994079182224156,1.8276869242374336,2.4291839103562487,0.2972022790605443,1.6101634817741068,2.311778323878089,1800,1603354454.967642,4321,0.1467900425195694,1.6858627796173096,2.599349021911621,3.0975465774536133,4.096201419830322,5.537562370300293
,,101415.112895,1.9461984634399414,1814,1603354455.105815,vicon,object name,0.6490760607694317,1.0698655465201399,1.0,2.237787397699733,1.0,2.0,3.696524435308653,1561051.0,0.02,-0.02,-1.01,0.0,0.06,0.0,15.0,60.47,-64.82,1561158.0,0.03,-0.03,-1.03,-0.06,-0.06,-0.06,14.7,60.47,-64.82,1811,1603354455.100209,1234,0.06814815156608545,-9.328677633824771,2.9619210007923344,3.2021545834913017,0.07134428882500365,1.4553881799886104,2.0195198479855265,0.12882865713554026,1.8285719728335241,2.7741635871289567,1811,1603354455.100209,4321,0.3907928764820099,1.6455739736557007,2.4583659172058105,3.8854169845581055,4.186963081359863,5.0393266677856445
,,101415.132314,1.96561861038208,1816,1603354455.125818,vicon,object name,0.6183060291148714,1.6929992497679303,1.0,2.8516470744383224,1.0,2.0,3.1966426008819173,1561169.0,0.02,-0.02,-1.01,0.0,0.0,-0.06,13.2,60.47,-65.42,1561178.0,0.03,-0.02,-1.02,-0.18,-0.06,0.0,13.65,60.02,-66.17,1813,1603354455.120246,1234,0.9388034810966251,-9.834061270303863,2.6031349833532955,3.4542506251884393,0.3874512009218388,1.2260206252886303,2.235144040548793,0.31364678714000804,1.5340923012983476,2.774707897188671,1813,1603354455.120246,4321,0.19075259566307068,1.3822988271713257,2.7196850776672363,3.5943872928619385,4.255705833435059,5.259525299072266
,,101415.153169,1.9864718914031982,1818,1603354455.145855,vicon,object name,0.3109374657544428,1.8051633975934664,1.0,2.159162374839113,1.0,2.0,3.523420957302406,1561188.0,0.03,-0.01,-1.01,-0.18,-0.12,0.0,12.9,60.02,-65.42,1561198.0,0.03,-0.02,-1.02,-0.24,-0.12,-0.12,13.2,58.96,-64.37,1815,1603354455.140182,1234,0.6016755647719324,-9.465331787124033,2.141227628255976,3.6556286384859087,0.5127671458353459,1.4094919143733837,2.8775579187932925,0.5117834410674158,1.9693097411415799,2.8659200042453246,1815,1603354455.140182,4321,0.6224597096443176,1.0086578130722046,2.644622802734375,3.087949514389038,4.883452892303467,5.471029758453369
,,101415.172857,2.0061607360839844,1820,1603354455.165843,vicon,object name,0.5739034548487908,1.6468845898659763,1.0,2.922812559022913,1.0,2.0,3.8381166863954412,1561208.0,0.02,-0.01,-1.03,-0.24,-0.12,0.0,12.9,60.02,-65.12,1561218.0,0.02,-0.01,-1.01,-0.12,0.0,-0.06,13.65,59.41,-66.17,1817,1603354455.160221,1234,0.6457284073149505,-9.887702109284735,2.0794162106948533,3.7430115101249894,0.45229358478043313,1.6973237264028178,2.6522568849583035,0.6435202338878452,1.9079540846349947,2.297584319249207,1817,1603354455.160221,4321,0.5228606462478638,1.4621459245681763,2.214432954788208,3.5108633041381836,4.848150253295898,5.550572872161865
,,101415.192748,2.0260517597198486,1822,1603354455.185842,vicon,object name,0.6777118527279435,1.257516862073242,1.0,2.0680475339901356,1.0,2.0,3.752174631909276,1561229.0,0.02,-0.01,-1.02,-0.18,-0.06,0.0,15.15,60.17,-64.67,1561238.0,0.03,-0.01,-1.02,-0.06,-0.12,-0.12,14.1,59.56,-64.22,1819,1603354455.180214,1234,0.43090999074372704,-9.587489928905262,2.1572149372130243,3.233563951457523,0.7215608333137625,1.2559122969381336,2.4205481761263163,0.18708238136845878,1.9101476223923315,2.225242342074158,1819,1603354455.180214,4321,0.15379752218723297,1.2836474180221558,2.6209945678710938,3.1788065433502197,4.946861743927002,5.238082408905029
