name,date,time,time_since_start,vicon_sequence,vicon_time_stamp,vicon_frame_id,vicon_child_frame_id,vicon_translation_x,vicon_translation_y,vicon_translation_z,vicon_rotation_x,vicon_rotation_y,vicon_rotation_z,vicon_rotation_w,int_imu_time_stamp,int_imu_acc_x,int_imu_acc_y,int_imu_acc_z,int_imu_gyro_x,int_imu_gyro_y,int_imu_gyro_z,int_imu_mag_x,int_imu_mag_y,int_imu_mag_z,ext_imu_time_stamp,ext_imu_acc_x,ext_imu_acc_y,ext_imu_acc_z,ext_imu_gyro_x,ext_imu_gyro_y,ext_imu_gyro_z,ext_imu_mag_x,ext_imu_mag_y,ext_imu_mag_z,dji_imu_sequence,dji_imu_time_stamp,dji_imu_frame_id,dji_imu_orientation_x,dji_imu_orientation_y,dji_imu_orientation_z,dji_imu_orientation_w,dji_imu_ang_vel_x,dji_imu_ang_vel_y,dji_imu_ang_vel_z,dji_imu_lin_acc_x,dji_imu_lin_acc_y,dji_imu_lin_acc_z,rc_sequence,rc_time_stamp,rc_frame_id,rc_roll,rc_pitch,rc_yaw,rc_throttle,rc_mode,rc_landing_gear
/home/wc18ny/Desktop/VibrationTest/serial_test2.csv,20201022,100956.471517,5.7220458984375e-05,0.0,0.0,0.0,0.0,0.0,0.0,0.0,0.0,0.0,0.0,0.0,1290005.0,0.02,-0.02,-1.02,0.06,0.0,0.0,13.8,59.86,-64.67,1290014.0,0.02,-0.02,-1.02,-0.06,-0.12,-0.06,14.7,60.02,-65.12,0.0,0.0,0.0,0.0,0.0,0.0,0.0,0.0,0.0,0.0,0.0,0.0,0.0,0.0,0.0,0.0,0.0,0.0,0.0,0.0,0.0,0.0
,,100956.47795,0.006487369537353516,0.0,0.0,0.0,0.0,0.0,0.0,0.0,0.0,0.0,0.0,0.0,1290024.0,0.02,-0.03,-1.02,0.18,0.0,0.0,13.95,60.47,-64.82,1290032.0,0.03,-0.02,-1.02,-0.06,-0.06,0.06,13.95,59.71,-65.42,0.0,0.0,0.0,0.0,0.0,0.0,0.0,0.0,0.0,0.0,0.0,0.0,0.0,0.0,0.0,0.0,0.0,0.0,0.0,0.0,0.0,0.0
,,100956.495576,0.024103403091430664,0.0,0.0,0.0,0.0,0.0,0.0,0.0,0.0,0.0,0.0,0.0,1290077.0,0.02,-0.02,-1.01,-0.12,-0.12,0.06,14.4,61.67,-63.62,1290152.0,0.03,-0.02,-1.03,-0.06,-0.06,-0.12,15.75,60.77,-64.07,0.0,0.0,0.0,0.0,0.0,0.0,0.0,0.0,0.0,0.0,0.0,0.0,0.0,0.0,0.0,0.0,0.0,0.0,0.0,0.0,0.0,0.0
,,100956.514901,0.043415069580078125,0.0,0.0,0.0,0.0,0.0,0.0,0.0,0.0,0.0,0.0,0.0,1290161.0,0.02,-0.02,-1.02,-0.12,0.06,-0.06,13.65,61.07,-64.82,1290172.0,0.02,-0.02,-1.02,-0.12,-0.12,0.0,15.15,58.06,-64.97,0.0,0.0,0.0,0.0,0.0,0.0,0.0,0.0,0.0,0.0,0.0,0.0,0.0,0.0,0.0,0.0,0.0,0.0,0.0,0.0,0.0,0.0
,,100956.537203,0.06571578979492188,0.0,0.0,0.0,0.0,0.0,0.0,0.0,0.0,0.0,0.0,0.0,1290181.0,0.02,-0.01,-1.03,-0.06,0.0,-0.12,15.45,60.17,-64.67,1290191.0,0.03,-0.02,-1.01,-0.18,-0.18,-0.12,13.8,59.11,-63.92,0.0,0.0,0.0,0.0,0.0,0.0,0.0,0.0,0.0,0.0,0.0,0.0,0.0,0.0,0.0,0.0,0.0,0.0,0.0,0.0,0.0,0.0
,,100956.558257,0.08679938316345215,0.0,0.0,0.0,0.0,0.0,0.0,0.0,0.0,0.0,0.0,0.0,1290201.0,0.03,-0.01,-1.02,-0.24,-0.12,-0.12,13.95,59.71,-65.87,1290211.0,0.03,-0.01,-1.02,-0.37,-0.06,-0.06,14.85,59.86,-64.22,0.0,0.0,0.0,0.0,0.0,0.0,0.0,0.0,0.0,0.0,0.0,0.0,0.0,0.0,0.0,0.0,0.0,0.0,0.0,0.0,0.0,0.0
,,100956.578808,0.10736346244812012,0.0,0.0,0.0,0.0,0.0,0.0,0.0,0.0,0.0,0.0,0.0,1290221.0,0.02,-0.01,-1.02,-0.24,-0.12,-0.24,15.45,59.11,-64.97,1290232.0,0.01,-0.01,-1.02,-0.12,-0.12,-0.12,12.6,59.71,-64.07,0.0,0.0,0.0,0.0,0.0,0.0,0.0,0.0,0.0,0.0,0.0,0.0,0.0,0.0,0.0,0.0,0.0,0.0,0.0,0.0,0.0,0.0
,,100956.600268,0.12881159782409668,0.0,0.0,0.0,0.0,0.0,0.0,0.0,0.0,0.0,0.0,0.0,1290241.0,0.02,-0.01,-1.02,-0.18,-0.18,-0.18,15.75,59.71,-64.07,1290252.0,0.02,-0.02,-1.02,-0.06,-0.18,-0.06,15.3,61.07,-66.17,0.0,0.0,0.0,0.0,0.0,0.0,0.0,0.0,0.0,0.0,0.0,0.0,0.0,0.0,0.0,0.0,0.0,0.0,0.0,0.0,0.0,0.0
,,100956.615993,0.1445164680480957,0.0,0.0,0.0,0.0,0.0,0.0,0.0,0.0,0.0,0.0,0.0,1290261.0,0.02,-0.01,-1.02,-0.06,-0.06,-0.06,15.9,60.62,-63.62,1290271.0,0.01,-0.01,-1.02,-0.06,-0.12,-0.06,13.8,59.86,-64.67,0.0,0.0,0.0,0.0,0.0,0.0,0.0,0.0,0.0,0.0,0.0,0.0,0.0,0.0,0.0,0.0,0.0,0.0,0.0,0.0,0.0,0.0
,,100956.635937,0.16448140144348145,0.0,0.0,0.0,0.0,0.0,0.0,0.0,0.0,0.0,0.0,0.0,1290314.0,0.02,-0.02,-1.01,0.0,0.0,0.06,15.3,59.71,-64.07,1290323.0,0.03,-0.01,-1.02,0.0,0.0,-0.06,14.85,60.92,-64.22,0.0,0.0,0.0,0.0,0.0,0.0,0.0,0.0,0.0,0.0,0.0,0.0,0.0,0.0,0.0,0.0,0.0,0.0,0.0,0.0,0.0,0.0
,,100956.657255,0.18579673767089844,0.0,0.0,0.0,0.0,0.0,0.0,0.0,0.0,0.0,0.0,0.0,1290331.0,0.02,-0.02,-1.01,0.0,0.0,-0.06,14.1,58.81,-65.57,1290340.0,0.03,-0.02,-1.02,-0.12,-0.12,0.06,14.1,58.81,-65.57,0.0,0.0,0.0,0.0,0.0,0.0,0.0,0.0,0.0,0.0,0.0,0.0,0.0,0.0,0.0,0.0,0.0,0.0,0.0,0.0,0.0,0.0
,,100956.677034,0.2055668830871582,0.0,0.0,0.0,0.0,0.0,0.0,0.0,0.0,0.0,0.0,0.0,1290349.0,0.03,-0.02,-1.03,-0.12,-0.18,0.0,14.7,59.71,-64.07,1290357.0,0.03,-0.01,-1.01,-0.18,-0.18,-0.06,13.65,60.02,-65.42,0.0,0.0,0.0,0.0,0.0,0.0,0.0,0.0,0.0,0.0,0.0,0.0,0.0,0.0,0.0,0.0,0.0,0.0,0.0,0.0,0.0,0.0
,,100956.694203,0.2227191925048828,0.0,0.0,0.0,0.0,0.0,0.0,0.0,0.0,0.0,0.0,0.0,1290366.0,0.02,-0.01,-1.01,-0.12,-0.12,-0.12,14.7,59.71,-65.87,1290375.0,0.03,-0.01,-1.01,-0.24,-0.24,-0.12,13.05,60.17,-65.27,0.0,0.0,0.0,0.0,0.0,0.0,0.0,0.0,0.0,0.0,0.0,0.0,0.0,0.0,0.0,0.0,0.0,0.0,0.0,0.0,0.0,0.0
,,100956.716068,0.24461126327514648,0.0,0.0,0.0,0.0,0.0,0.0,0.0,0.0,0.0,0.0,0.0,1290384.0,0.02,-0.02,-1.02,-0.12,-0.12,0.0,14.4,60.62,-64.97,1290392.0,0.02,-0.02,-1.01,-0.18,-0.06,-0.06,13.05,59.86,-64.22,0.0,0.0,0.0,0.0,0.0,0.0,0.0,0.0,0.0,0.0,0.0,0.0,0.0,0.0,0.0,0.0,0.0,0.0,0.0,0.0,0.0,0.0
,,100956.736279,0.26482486724853516,0.0,0.0,0.0,0.0,0.0,0.0,0.0,0.0,0.0,0.0,0.0,1290401.0,0.02,-0.02,-1.03,-0.12,-0.06,-0.06,15.15,60.17,-64.22,1290410.0,0.01,-0.02,-1.0,-0.06,-0.06,-0.06,15.15,60.17,-64.67,0.0,0.0,0.0,0.0,0.0,0.0,0.0,0.0,0.0,0.0,0.0,0.0,0.0,0.0,0.0,0.0,0.0,0.0,0.0,0.0,0.0,0.0
,,100956.757202,0.28575801849365234,0.0,0.0,0.0,0.0,0.0,0.0,0.0,0.0,0.0,0.0,0.0,1290419.0,0.03,-0.01,-1.03,-0.06,-0.06,-0.06,16.5,59.11,-63.62,1290427.0,0.02,-0.01,-1.02,-0.06,-0.06,-0.06,15.0,59.71,-64.37,0.0,0.0,0.0,0.0,0.0,0.0,0.0,0.0,0.0,0.0,0.0,0.0,0.0,0.0,0.0,0.0,0.0,0.0,0.0,0.0,0.0,0.0
,,100956.77642,0.30495309829711914,0.0,0.0,0.0,0.0,0.0,0.0,0.0,0.0,0.0,0.0,0.0,1290471.0,0.02,-0.01,-1.01,-0.06,-0.06,-0.06,14.1,59.86,-63.92,1290480.0,0.02,-0.02,-1.01,0.18,0.0,-0.06,15.45,60.62,-63.62,0.0,0.0,0.0,0.0,0.0,0.0,0.0,0.0,0.0,0.0,0.0,0.0,0.0,0.0,0.0,0.0,0.0,0.0,0.0,0.0,0.0,0.0
,,100956.796029,0.32456326484680176,0.0,0.0,0.0,0.0,0.0,0.0,0.0,0.0,0.0,0.0,0.0,1290488.0,0.01,-0.01,-1.02,0.0,0.12,-0.18,13.35,59.56,-62.87,1290497.0,0.03,-0.02,-1.02,-0.06,-0.06,-0.06,14.85,60.92,-64.22,0.0,0.0,0.0,0.0,0.0,0.0,0.0,0.0,0.0,0.0,0.0,0.0,0.0,0.0,0.0,0.0,0.0,0.0,0.0,0.0,0.0,0.0
,,100956.818363,0.3469395637512207,0.0,0.0,0.0,0.0,0.0,0.0,0.0,0.0,0.0,0.0,0.0,1290506.0,0.02,-0.02,-1.02,0.12,0.0,-0.12,13.2,59.41,-65.42,1290514.0,0.03,-0.02,-1.02,-0.12,-0.24,-0.12,15.0,60.02,-64.82,0.0,0.0,0.0,0.0,0.0,0.0,0.0,0.0,0.0,0.0,0.0,0.0,0.0,0.0,0.0,0.0,0.0,0.0,0.0,0.0,0.0,0.0
,,100956.836948,0.36548876762390137,0.0,0.0,0.0,0.0,0.0,0.0,0.0,0.0,0.0,0.0,0.0,1290523.0,0.03,-0.01,-1.02,-0.06,-0.12,0.0,15.15,59.86,-65.27,1290532.0,0.02,-0.02,-1.02,0.0,0.0,-0.18,14.7,62.12,-65.42,0.0,0.0,0.0,0.0,0.0,0.0,0.0,0.0,0.0,0.0,0.0,0.0,0.0,0.0,0.0,0.0,0.0,0.0,0.0,0.0,0.0,0.0
,,100956.857189,0.38573241233825684,0.0,0.0,0.0,0.0,0.0,0.0,0.0,0.0,0.0,0.0,0.0,1290540.0,0.02,-0.02,-1.01,-0.06,-0.24,0.0,14.7,62.12,-65.42,1290549.0,0.03,-0.02,-1.01,0.06,0.0,-0.12,14.1,59.86,-66.32,0.0,0.0,0.0,0.0,0.0,0.0,0.0,0.0,0.0,0.0,0.0,0.0,0.0,0.0,0.0,0.0,0.0,0.0,0.0,0.0,0.0,0.0
,,100956.878791,0.4073488712310791,0.0,0.0,0.0,0.0,0.0,0.0,0.0,0.0,0.0,0.0,0.0,1290558.0,0.02,-0.02,-1.01,0.0,0.12,0.06,14.25,58.96,-64.37,1290566.0,0.02,-0.02,-1.02,0.06,0.06,-0.06,15.9,60.17,-65.57,0.0,0.0,0.0,0.0,0.0,0.0,0.0,0.0,0.0,0.0,0.0,0.0,0.0,0.0,0.0,0.0,0.0,0.0,0.0,0.0,0.0,0.0
,,100956.898559,0.4271111488342285,0.0,0.0,0.0,0.0,0.0,0.0,0.0,0.0,0.0,0.0,0.0,1290575.0,0.02,-0.02,-1.02,0.06,0.06,0.0,14.25,60.02,-65.12,1290584.0,0.02,-0.02,-1.02,-0.06,-0.06,0.0,16.05,60.47,-65.12,0.0,0.0,0.0,0.0,0.0,0.0,0.0,0.0,0.0,0.0,0.0,0.0,0.0,0.0,0.0,0.0,0.0,0.0,0.0,0.0,0.0,0.0
,,100956.917623,0.44617605209350586,0.0,0.0,0.0,0.0,0.0,0.0,0.0,0.0,0.0,0.0,0.0,1290630.0,0.03,-0.02,-1.02,-0.06,-0.18,0.0,17.25,60.17,-64.22,1290638.0,0.01,-0.02,-1.01,0.06,-0.06,-0.06,14.4,59.11,-63.92,0.0,0.0,0.0,0.0,0.0,0.0,0.0,0.0,0.0,0.0,0.0,0.0,0.0,0.0,0.0,0.0,0.0,0.0,0.0,0.0,0.0,0.0
,,100956.937305,0.4658474922180176,0.0,0.0,0.0,0.0,0.0,0.0,0.0,0.0,0.0,0.0,0.0,1290647.0,0.01,-0.01,-1.01,-0.06,-0.06,-0.06,14.1,60.17,-62.87,1290656.0,0.02,-0.02,-1.03,0.06,0.0,-0.06,14.25,61.52,-64.37,0.0,0.0,0.0,0.0,0.0,0.0,0.0,0.0,0.0,0.0,0.0,0.0,0.0,0.0,0.0,0.0,0.0,0.0,0.0,0.0,0.0,0.0
,,100956.957194,0.4857470989227295,0.0,0.0,0.0,0.0,0.0,0.0,0.0,0.0,0.0,0.0,0.0,1290665.0,0.02,-0.02,-1.01,0.0,0.06,-0.06,13.95,59.41,-64.07,1290673.0,0.02,-0.02,-1.02,0.0,0.06,0.06,15.75,60.47,-65.12,0.0,0.0,0.0,0.0,0.0,0.0,0.0,0.0,0.0,0.0,0.0,0.0,0.0,0.0,0.0,0.0,0.0,0.0,0.0,0.0,0.0,0.0
,,100956.977813,0.5063567161560059,0.0,0.0,0.0,0.0,0.0,0.0,0.0,0.0,0.0,0.0,0.0,1290682.0,0.03,-0.02,-1.02,0.06,0.0,-0.06,14.4,59.56,-64.97,1290690.0,0.03,-0.01,-1.02,0.12,-0.06,-0.06,14.4,59.56,-64.97,0.0,0.0,0.0,0.0,0.0,0.0,0.0,0.0,0.0,0.0,0.0,0.0,0.0,0.0,0.0,0.0,0.0,0.0,0.0,0.0,0.0,0.0
,,100956.997615,0.5261673927307129,0.0,0.0,0.0,0.0,0.0,0.0,0.0,0.0,0.0,0.0,0.0,1290699.0,0.03,-0.01,-1.02,0.06,0.0,-0.06,14.4,60.17,-64.67,1290708.0,0.02,-0.02,-1.01,-0.18,-0.18,0.0,14.4,60.62,-64.67,0.0,0.0,0.0,0.0,0.0,0.0,0.0,0.0,0.0,0.0,0.0,0.0,0.0,0.0,0.0,0.0,0.0,0.0,0.0,0.0,0.0,0.0
,,100957.018219,0.546762228012085,0.0,0.0,0.0,0.0,0.0,0.0,0.0,0.0,0.0,0.0,0.0,1290716.0,0.03,-0.01,-1.01,0.0,-0.18,-0.12,14.1,59.86,-64.67,1290725.0,0.02,-0.02,-1.01,0.0,0.06,-0.18,14.25,60.77,-65.12,0.0,0.0,0.0,0.0,0.0,0.0,0.0,0.0,0.0,0.0,0.0,0.0,0.0,0.0,0.0,0.0,0.0,0.0,0.0,0.0,0.0,0.0
,,100957.038387,0.5669670104980469,0.0,0.0,0.0,0.0,0.0,0.0,0.0,0.0,0.0,0.0,0.0,1290734.0,0.03,-0.02,-1.03,0.06,0.12,-0.06,15.9,58.81,-64.97,1290743.0,0.02,-0.02,-1.03,0.0,0.06,-0.06,14.85,58.51,-64.22,0.0,0.0,0.0,0.0,0.0,0.0,0.0,0.0,0.0,0.0,0.0,0.0,0.0,0.0,0.0,0.0,0.0,0.0,0.0,0.0,0.0,0.0
,,100957.057777,0.586320161819458,0.0,0.0,0.0,0.0,0.0,0.0,0.0,0.0,0.0,0.0,0.0,1290785.0,0.03,-0.02,-1.02,0.0,-0.06,-0.18,15.75,59.71,-63.02,1290793.0,0.02,-0.02,-1.02,-0.06,-0.06,-0.06,14.1,60.92,-65.27,0.0,0.0,0.0,0.0,0.0,0.0,0.0,0.0,0.0,0.0,0.0,0.0,0.0,0.0,0.0,0.0,0.0,0.0,0.0,0.0,0.0,0.0
,,100957.077608,0.6061534881591797,0.0,0.0,0.0,0.0,0.0,0.0,0.0,0.0,0.0,0.0,0.0,1290802.0,0.03,-0.01,-1.02,-0.06,-0.06,0.12,14.4,59.86,-64.97,1290811.0,0.02,-0.01,-1.02,0.12,0.0,-0.06,14.4,59.86,-64.97,0.0,0.0,0.0,0.0,0.0,0.0,0.0,0.0,0.0,0.0,0.0,0.0,0.0,0.0,0.0,0.0,0.0,0.0,0.0,0.0,0.0,0.0
,,100957.127039,0.6556005477905273,0.0,0.0,0.0,0.0,0.0,0.0,0.0,0.0,0.0,0.0,0.0,1303092.0,0.02,-0.01,-1.02,-0.06,-0.24,-0.06,13.65,61.52,-63.77,1303134.0,0.02,-0.02,-1.02,-0.06,-0.24,0.0,14.25,60.02,-64.37,0.0,0.0,0.0,0.0,0.0,0.0,0.0,0.0,0.0,0.0,0.0,0.0,0.0,0.0,0.0,0.0,0.0,0.0,0.0,0.0,0.0,0.0
,,100957.144088,0.6726424694061279,0.0,0.0,0.0,0.0,0.0,0.0,0.0,0.0,0.0,0.0,0.0,1303143.0,0.02,-0.02,-1.02,0.0,-0.06,-0.06,14.7,60.77,-64.82,1303152.0,0.02,-0.02,-1.01,-0.06,-0.06,0.06,12.3,60.92,-66.62,0.0,0.0,0.0,0.0,0.0,0.0,0.0,0.0,0.0,0.0,0.0,0.0,0.0,0.0,0.0,0.0,0.0,0.0,0.0,0.0,0.0,0.0
,,100957.161789,0.690335750579834,0.0,0.0,0.0,0.0,0.0,0.0,0.0,0.0,0.0,0.0,0.0,1303160.0,0.03,-0.03,-1.02,-0.06,-0.12,-0.12,12.3,60.92,-66.62,1303169.0,0.03,-0.03,-1.03,-0.12,-0.12,-0.12,13.65,58.66,-66.47,0.0,0.0,0.0,0.0,0.0,0.0,0.0,0.0,0.0,0.0,0.0,0.0,0.0,0.0,0.0,0.0,0.0,0.0,0.0,0.0,0.0,0.0
,,100957.179259,0.7078073024749756,0.0,0.0,0.0,0.0,0.0,0.0,0.0,0.0,0.0,0.0,0.0,1303178.0,0.02,-0.02,-1.02,-0.24,-0.12,-0.06,14.25,58.36,-64.07,1303187.0,0.02,-0.02,-1.02,-0.18,-0.18,0.06,14.1,60.17,-64.67,0.0,0.0,0.0,0.0,0.0,0.0,0.0,0.0,0.0,0.0,0.0,0.0,0.0,0.0,0.0,0.0,0.0,0.0,0.0,0.0,0.0,0.0
,,100957.196508,0.7250528335571289,0.0,0.0,0.0,0.0,0.0,0.0,0.0,0.0,0.0,0.0,0.0,1303196.0,0.03,-0.01,-1.04,-0.24,-0.06,0.0,13.95,60.47,-65.87,1303204.0,0.03,-0.01,-1.01,-0.06,0.0,-0.12,13.2,59.71,-64.37,0.0,0.0,0.0,0.0,0.0,0.0,0.0,0.0,0.0,0.0,0.0,0.0,0.0,0.0,0.0,0.0,0.0,0.0,0.0,0.0,0.0,0.0
,,100957.214068,0.7426142692565918,0.0,0.0,0.0,0.0,0.0,0.0,0.0,0.0,0.0,0.0,0.0,1303213.0,0.02,-0.01,-1.01,-0.24,-0.12,-0.12,15.0,60.47,-64.82,1303222.0,0.03,-0.0,-1.02,-0.12,-0.18,0.0,15.0,59.71,-66.47,0.0,0.0,0.0,0.0,0.0,0.0,0.0,0.0,0.0,0.0,0.0,0.0,0.0,0.0,0.0,0.0,0.0,0.0,0.0,0.0,0.0,0.0
,,100957.231335,0.759878396987915,0.0,0.0,0.0,0.0,0.0,0.0,0.0,0.0,0.0,0.0,0.0,1303230.0,0.02,-0.01,-1.02,-0.12,-0.18,-0.12,15.0,59.71,-66.47,1303239.0,0.02,-0.01,-1.02,-0.06,-0.12,0.0,14.1,59.56,-65.57,0.0,0.0,0.0,0.0,0.0,0.0,0.0,0.0,0.0,0.0,0.0,0.0,0.0,0.0,0.0,0.0,0.0,0.0,0.0,0.0,0.0,0.0
,,100957.284884,0.8134524822235107,0.0,0.0,0.0,0.0,0.0,0.0,0.0,0.0,0.0,0.0,0.0,1303248.0,0.02,-0.01,-1.01,0.06,0.0,0.06,13.8,59.86,-65.27,1303291.0,0.02,-0.01,-1.02,-0.06,-0.12,-0.12,15.45,60.17,-63.62,0.0,0.0,0.0,0.0,0.0,0.0,0.0,0.0,0.0,0.0,0.0,0.0,0.0,0.0,0.0,0.0,0.0,0.0,0.0,0.0,0.0,0.0
,,100957.299984,0.8285226821899414,0.0,0.0,0.0,0.0,0.0,0.0,0.0,0.0,0.0,0.0,0.0,1303299.0,0.02,-0.01,-1.01,0.0,0.06,0.0,15.75,59.71,-64.82,1303308.0,0.02,-0.02,-1.01,0.0,-0.06,0.0,13.8,59.11,-63.32,0.0,0.0,0.0,0.0,0.0,0.0,0.0,0.0,0.0,0.0,0.0,0.0,0.0,0.0,0.0,0.0,0.0,0.0,0.0,0.0,0.0,0.0
,,100957.318442,0.8470010757446289,0.0,0.0,0.0,0.0,0.0,0.0,0.0,0.0,0.0,0.0,0.0,1303316.0,0.02,-0.02,-1.02,0.18,0.0,0.12,15.75,60.77,-65.12,1303325.0,0.03,-0.02,-1.02,0.18,0.18,-0.06,13.95,60.47,-66.17,0.0,0.0,0.0,0.0,0.0,0.0,0.0,0.0,0.0,0.0,0.0,0.0,0.0,0.0,0.0,0.0,0.0,0.0,0.0,0.0,0.0,0.0
,,100957.335236,0.8637800216674805,0.0,0.0,0.0,0.0,0.0,0.0,0.0,0.0,0.0,0.0,0.0,1303334.0,0.02,-0.02,-1.02,0.24,0.12,-0.06,13.95,58.66,-63.77,1303343.0,0.03,-0.02,-1.02,0.18,0.0,0.0,13.35,59.11,-65.57,0.0,0.0,0.0,0.0,0.0,0.0,0.0,0.0,0.0,0.0,0.0,0.0,0.0,0.0,0.0,0.0,0.0,0.0,0.0,0.0,0.0,0.0
,,100957.352288,0.8808410167694092,0.0,0.0,0.0,0.0,0.0,0.0,0.0,0.0,0.0,0.0,0.0,1303351.0,0.03,-0.02,-1.02,-0.06,-0.24,-0.06,13.35,59.11,-65.57,1303360.0,0.02,-0.02,-1.01,-0.12,-0.06,-0.06,13.35,59.11,-65.27,0.0,0.0,0.0,0.0,0.0,0.0,0.0,0.0,0.0,0.0,0.0,0.0,0.0,0.0,0.0,0.0,0.0,0.0,0.0,0.0,0.0,0.0
,,100957.36976,0.8983063697814941,0.0,0.0,0.0,0.0,0.0,0.0,0.0,0.0,0.0,0.0,0.0,1303369.0,0.03,-0.03,-1.0,0.0,0.0,-0.18,14.1,59.56,-66.62,1303377.0,0.02,-0.03,-1.01,-0.06,-0.06,0.0,13.35,60.62,-64.22,0.0,0.0,0.0,0.0,0.0,0.0,0.0,0.0,0.0,0.0,0.0,0.0,0.0,0.0,0.0,0.0,0.0,0.0,0.0,0.0,0.0,0.0
,,100957.387249,0.9157965183258057,0.0,0.0,0.0,0.0,0.0,0.0,0.0,0.0,0.0,0.0,0.0,1303386.0,0.03,-0.02,-1.02,-0.06,-0.06,-0.06,14.7,59.71,-65.42,1303395.0,0.02,-0.02,-1.02,-0.24,-0.06,-0.06,14.1,59.56,-64.97,0.0,0.0,0.0,0.0,0.0,0.0,0.0,0.0,0.0,0.0,0.0,0.0,0.0,0.0,0.0,0.0,0.0,0.0,0.0,0.0,0.0,0.0
,,100957.438554,0.9670989513397217,0.0,0.0,0.0,0.0,0.0,0.0,0.0,0.0,0.0,0.0,0.0,1303403.0,0.02,-0.02,-1.03,-0.24,-0.12,0.0,14.4,60.62,-63.32,1303446.0,0.01,-0.02,-1.01,-0.06,-0.18,0.0,14.85,58.81,-62.87,0.0,0.0,0.0,0.0,0.0,0.0,0.0,0.0,0.0,0.0,0.0,0.0,0.0,0.0,0.0,0.0,0.0,0.0,0.0,0.0,0.0,0.0
,,100957.45592,0.9844615459442139,0.0,0.0,0.0,0.0,0.0,0.0,0.0,0.0,0.0,0.0,0.0,1303455.0,0.03,-0.01,-1.01,-0.06,-0.06,-0.06,15.45,61.22,-64.67,1303464.0,0.02,-0.02,-1.01,0.12,0.06,-0.06,13.65,60.47,-64.82,0.0,0.0,0.0,0.0,0.0,0.0,0.0,0.0,0.0,0.0,0.0,0.0,0.0,0.0,0.0,0.0,0.0,0.0,0.0,0.0,0.0,0.0
,,100957.473163,1.0017216205596924,0.0,0.0,0.0,0.0,0.0,0.0,0.0,0.0,0.0,0.0,0.0,1303472.0,0.02,-0.01,-1.02,-0.06,-0.06,0.0,13.65,60.47,-65.42,1303481.0,0.02,-0.02,-1.01,-0.06,-0.06,0.0,13.65,60.47,-65.42,0.0,0.0,0.0,0.0,0.0,0.0,0.0,0.0,0.0,0.0,0.0,0.0,0.0,0.0,0.0,0.0,0.0,0.0,0.0,0.0,0.0,0.0
,,100957.4906,1.0191383361816406,0.0,0.0,0.0,0.0,0.0,0.0,0.0,0.0,0.0,0.0,0.0,1303489.0,0.02,-0.01,-1.01,0.06,-0.12,-0.12,14.1,60.17,-63.92,1303498.0,0.02,-0.02,-1.0,0.12,-0.06,-0.12,14.1,59.11,-66.02,0.0,0.0,0.0,0.0,0.0,0.0,0.0,0.0,0.0,0.0,0.0,0.0,0.0,0.0,0.0,0.0,0.0,0.0,0.0,0.0,0.0,0.0
,,100957.507813,1.0363655090332031,0.0,0.0,0.0,0.0,0.0,0.0,0.0,0.0,0.0,0.0,0.0,1303507.0,0.02,-0.01,-1.01,0.06,-0.06,0.0,13.35,59.11,-64.97,1303516.0,0.03,-0.02,-1.02,0.06,0.0,-0.12,14.25,58.96,-65.12,0.0,0.0,0.0,0.0,0.0,0.0,0.0,0.0,0.0,0.0,0.0,0.0,0.0,0.0,0.0,0.0,0.0,0.0,0.0,0.0,0.0,0.0
,,100957.525288,1.0538320541381836,0.0,0.0,0.0,0.0,0.0,0.0,0.0,0.0,0.0,0.0,0.0,1303524.0,0.02,-0.02,-1.01,0.18,-0.12,0.0,14.1,59.86,-64.22,1303533.0,0.02,-0.02,-1.02,-0.06,-0.06,-0.12,13.2,60.02,-64.37,0.0,0.0,0.0,0.0,0.0,0.0,0.0,0.0,0.0,0.0,0.0,0.0,0.0,0.0,0.0,0.0,0.0,0.0,0.0,0.0,0.0,0.0
,,100957.544431,1.0729613304138184,0.0,0.0,0.0,0.0,0.0,0.0,0.0,0.0,0.0,0.0,0.0,1303542.0,0.02,-0.03,-1.0,0.0,-0.12,-0.12,14.25,59.71,-63.77,1303550.0,0.03,-0.02,-1.02,-0.06,-0.06,0.06,14.25,59.71,-63.77,0.0,0.0,0.0,0.0,0.0,0.0,0.0,0.0,0.0,0.0,0.0,0.0,0.0,0.0,0.0,0.0,0.0,0.0,0.0,0.0,0.0,0.0
,,100957.594724,1.1232690811157227,0.0,0.0,0.0,0.0,0.0,0.0,0.0,0.0,0.0,0.0,0.0,1303559.0,0.03,-0.03,-1.01,0.0,0.0,-0.06,14.85,59.86,-65.27,1303602.0,0.02,-0.03,-1.01,0.0,0.0,-0.12,16.35,60.02,-64.07,0.0,0.0,0.0,0.0,0.0,0.0,0.0,0.0,0.0,0.0,0.0,0.0,0.0,0.0,0.0,0.0,0.0,0.0,0.0,0.0,0.0,0.0
,,100957.613071,1.141632318496704,0.0,0.0,0.0,0.0,0.0,0.0,0.0,0.0,0.0,0.0,0.0,1303611.0,0.02,-0.02,-1.01,0.0,0.0,0.06,16.35,60.02,-64.07,1303619.0,0.02,-0.02,-1.02,0.06,0.06,-0.12,14.25,59.71,-65.12,0.0,0.0,0.0,0.0,0.0,0.0,0.0,0.0,0.0,0.0,0.0,0.0,0.0,0.0,0.0,0.0,0.0,0.0,0.0,0.0,0.0,0.0
,,100957.629305,1.1578478813171387,0.0,0.0,0.0,0.0,0.0,0.0,0.0,0.0,0.0,0.0,0.0,1303628.0,0.02,-0.02,-1.02,-0.06,0.0,-0.06,14.1,60.92,-65.27,1303637.0,0.02,-0.02,-1.01,-0.06,-0.06,-0.12,13.2,58.96,-65.12,0.0,0.0,0.0,0.0,0.0,0.0,0.0,0.0,0.0,0.0,0.0,0.0,0.0,0.0,0.0,0.0,0.0,0.0,0.0,0.0,0.0,0.0
,,100957.646855,1.1754224300384521,0.0,0.0,0.0,0.0,0.0,0.0,0.0,0.0,0.0,0.0,0.0,1303646.0,0.02,-0.02,-1.02,-0.06,-0.06,0.0,13.8,59.11,-64.97,1303654.0,0.03,-0.01,-1.02,-0.18,-0.18,-0.12,14.25,60.47,-65.12,0.0,0.0,0.0,0.0,0.0,0.0,0.0,0.0,0.0,0.0,0.0,0.0,0.0,0.0,0.0,0.0,0.0,0.0,0.0,0.0,0.0,0.0
,,100957.664368,1.1929173469543457,0.0,0.0,0.0,0.0,0.0,0.0,0.0,0.0,0.0,0.0,0.0,1303663.0,0.01,-0.01,-1.01,-0.12,-0.18,-0.3,12.9,60.02,-64.82,1303672.0,0.02,-0.01,-1.03,0.0,-0.12,-0.06,14.25,59.71,-63.77,0.0,0.0,0.0,0.0,0.0,0.0,0.0,0.0,0.0,0.0,0.0,0.0,0.0,0.0,0.0,0.0,0.0,0.0,0.0,0.0,0.0,0.0
,,100957.681094,1.2096326351165771,0.0,0.0,0.0,0.0,0.0,0.0,0.0,0.0,0.0,0.0,0.0,1303680.0,0.02,-0.01,-1.02,-0.06,-0.12,0.0,14.25,59.71,-63.77,1303689.0,0.02,-0.01,-1.01,0.06,0.0,0.0,14.4,59.11,-64.67,0.0,0.0,0.0,0.0,0.0,0.0,0.0,0.0,0.0,0.0,0.0,0.0,0.0,0.0,0.0,0.0,0.0,0.0,0.0,0.0,0.0,0.0
,,100957.698534,1.2270872592926025,0.0,0.0,0.0,0.0,0.0,0.0,0.0,0.0,0.0,0.0,0.0,1303698.0,0.02,-0.02,-1.03,0.0,-0.12,0.0,13.05,58.81,-65.27,1303706.0,0.01,-0.02,-1.02,0.06,0.12,0.06,13.05,60.17,-66.02,0.0,0.0,0.0,0.0,0.0,0.0,0.0,0.0,0.0,0.0,0.0,0.0,0.0,0.0,0.0,0.0,0.0,0.0,0.0,0.0,0.0,0.0
,,100957.75032,1.2788739204406738,0.0,0.0,0.0,0.0,0.0,0.0,0.0,0.0,0.0,0.0,0.0,1303715.0,0.02,-0.02,-1.02,0.06,0.0,-0.06,15.45,59.56,-63.32,1303758.0,0.03,-0.02,-1.02,0.0,-0.06,-0.06,14.85,60.62,-64.22,0.0,0.0,0.0,0.0,0.0,0.0,0.0,0.0,0.0,0.0,0.0,0.0,0.0,0.0,0.0,0.0,0.0,0.0,0.0,0.0,0.0,0.0
,,100957.76757,1.2961091995239258,0.0,0.0,0.0,0.0,0.0,0.0,0.0,0.0,0.0,0.0,0.0,1303767.0,0.03,-0.02,-1.02,-0.12,-0.18,0.06,15.45,60.92,-63.62,1303775.0,0.02,-0.02,-1.02,0.24,0.0,0.06,15.0,60.47,-65.42,0.0,0.0,0.0,0.0,0.0,0.0,0.0,0.0,0.0,0.0,0.0,0.0,0.0,0.0,0.0,0.0,0.0,0.0,0.0,0.0,0.0,0.0
,,100957.784722,1.3132750988006592,0.0,0.0,0.0,0.0,0.0,0.0,0.0,0.0,0.0,0.0,0.0,1303784.0,0.02,-0.03,-1.02,0.18,0.0,-0.12,15.75,60.47,-64.37,1303793.0,0.02,-0.02,-1.01,0.0,0.0,0.0,13.2,60.02,-63.77,0.0,0.0,0.0,0.0,0.0,0.0,0.0,0.0,0.0,0.0,0.0,0.0,0.0,0.0,0.0,0.0,0.0,0.0,0.0,0.0,0.0,0.0
,,100957.801747,1.3302884101867676,0.0,0.0,0.0,0.0,0.0,0.0,0.0,0.0,0.0,0.0,0.0,1303801.0,0.02,-0.02,-1.02,0.0,0.0,0.0,13.2,60.02,-63.77,1303809.0,0.03,-0.01,-1.01,0.0,-0.12,-0.12,14.7,61.07,-64.07,0.0,0.0,0.0,0.0,0.0,0.0,0.0,0.0,0.0,0.0,0.0,0.0,0.0,0.0,0.0,0.0,0.0,0.0,0.0,0.0,0.0,0.0
,,100957.818772,1.3473145961761475,0.0,0.0,0.0,0.0,0.0,0.0,0.0,0.0,0.0,0.0,0.0,1303818.0,0.03,-0.02,-1.01,-0.12,-0.06,0.0,14.25,58.96,-65.87,1303826.0,0.02,-0.02,-1.01,0.0,-0.06,0.06,13.2,60.47,-64.82,0.0,0.0,0.0,0.0,0.0,0.0,0.0,0.0,0.0,0.0,0.0,0.0,0.0,0.0,0.0,0.0,0.0,0.0,0.0,0.0,0.0,0.0
,,100957.836324,1.3648765087127686,0.0,0.0,0.0,0.0,0.0,0.0,0.0,0.0,0.0,0.0,0.0,1303835.0,0.02,-0.01,-1.02,-0.06,-0.18,-0.06,14.1,60.92,-66.32,1303844.0,0.02,-0.01,-1.03,-0.12,-0.18,-0.12,13.95,59.41,-65.12,0.0,0.0,0.0,0.0,0.0,0.0,0.0,0.0,0.0,0.0,0.0,0.0,0.0,0.0,0.0,0.0,0.0,0.0,0.0,0.0,0.0,0.0
,,100957.85364,1.3821914196014404,0.0,0.0,0.0,0.0,0.0,0.0,0.0,0.0,0.0,0.0,0.0,1303853.0,0.02,-0.01,-1.0,-0.06,-0.06,-0.12,13.35,60.62,-64.97,1303861.0,0.02,-0.01,-1.01,0.0,0.06,-0.06,13.95,59.41,-65.12,0.0,0.0,0.0,0.0,0.0,0.0,0.0,0.0,0.0,0.0,0.0,0.0,0.0,0.0,0.0,0.0,0.0,0.0,0.0,0.0,0.0,0.0
,,100957.906127,1.4346833229064941,0.0,0.0,0.0,0.0,0.0,0.0,0.0,0.0,0.0,0.0,0.0,1303870.0,0.02,-0.02,-1.01,-0.06,-0.06,-0.06,13.95,59.41,-65.12,1303913.0,0.02,-0.01,-1.01,-0.06,-0.12,0.0,15.45,60.62,-63.62,0.0,0.0,0.0,0.0,0.0,0.0,0.0,0.0,0.0,0.0,0.0,0.0,0.0,0.0,0.0,0.0,0.0,0.0,0.0,0.0,0.0,0.0
,,100957.92325,1.4517934322357178,0.0,0.0,0.0,0.0,0.0,0.0,0.0,0.0,0.0,0.0,0.0,1303922.0,0.02,-0.02,-1.02,-0.12,-0.12,-0.06,16.2,59.11,-66.32,1303931.0,0.03,-0.02,-1.01,-0.06,-0.06,0.0,16.2,59.11,-66.32,0.0,0.0,0.0,0.0,0.0,0.0,0.0,0.0,0.0,0.0,0.0,0.0,0.0,0.0,0.0,0.0,0.0,0.0,0.0,0.0,0.0,0.0
,,100957.940424,1.468989372253418,0.0,0.0,0.0,0.0,0.0,0.0,0.0,0.0,0.0,0.0,0.0,1303939.0,0.03,-0.02,-1.01,0.0,0.0,-0.12,13.8,61.22,-64.97,1303948.0,0.02,-0.01,-1.01,-0.06,0.0,-0.06,14.1,59.56,-65.27,0.0,0.0,0.0,0.0,0.0,0.0,0.0,0.0,0.0,0.0,0.0,0.0,0.0,0.0,0.0,0.0,0.0,0.0,0.0,0.0,0.0,0.0
,,100957.957429,1.485975980758667,0.0,0.0,0.0,0.0,0.0,0.0,0.0,0.0,0.0,0.0,0.0,1303957.0,0.03,-0.02,-1.02,0.12,0.12,-0.06,13.35,58.51,-64.97,1303965.0,0.03,-0.02,-1.02,0.06,0.0,0.0,13.8,59.86,-64.67,0.0,0.0,0.0,0.0,0.0,0.0,0.0,0.0,0.0,0.0,0.0,0.0,0.0,0.0,0.0,0.0,0.0,0.0,0.0,0.0,0.0,0.0
,,100957.975172,1.503715991973877,0.0,0.0,0.0,0.0,0.0,0.0,0.0,0.0,0.0,0.0,0.0,1303974.0,0.03,-0.02,-1.02,-0.06,-0.3,-0.06,14.7,59.41,-64.37,1303983.0,0.02,-0.02,-1.02,0.12,0.0,-0.12,13.8,60.92,-64.22,0.0,0.0,0.0,0.0,0.0,0.0,0.0,0.0,0.0,0.0,0.0,0.0,0.0,0.0,0.0,0.0,0.0,0.0,0.0,0.0,0.0,0.0
,,100957.992711,1.5212645530700684,0.0,0.0,0.0,0.0,0.0,0.0,0.0,0.0,0.0,0.0,0.0,1303991.0,0.02,-0.02,-1.01,-0.12,-0.12,-0.06,14.1,60.92,-64.22,1304000.0,0.02,-0.02,-1.04,-0.12,-0.24,-0.06,14.1,58.51,-64.67,0.0,0.0,0.0,0.0,0.0,0.0,0.0,0.0,0.0,0.0,0.0,0.0,0.0,0.0,0.0,0.0,0.0,0.0,0.0,0.0,0.0,0.0
,,100958.01268,1.5412225723266602,0.0,0.0,0.0,0.0,0.0,0.0,0.0,0.0,0.0,0.0,0.0,1304009.0,0.03,-0.01,-1.02,-0.12,-0.06,0.06,14.4,61.22,-66.02,1304018.0,0.02,-0.02,-1.02,0.0,0.0,-0.06,14.7,62.12,-65.42,0.0,0.0,0.0,0.0,0.0,0.0,0.0,0.0,0.0,0.0,0.0,0.0,0.0,0.0,0.0,0.0,0.0,0.0,0.0,0.0,0.0,0.0
,,100958.059923,1.588468074798584,0.0,0.0,0.0,0.0,0.0,0.0,0.0,0.0,0.0,0.0,0.0,1304026.0,0.02,-0.01,-1.02,-0.12,-0.06,-0.06,13.2,58.66,-64.82,1304067.0,0.03,-0.01,-1.01,0.12,0.06,-0.12,16.2,57.76,-62.87,0.0,0.0,0.0,0.0,0.0,0.0,0.0,0.0,0.0,0.0,0.0,0.0,0.0,0.0,0.0,0.0,0.0,0.0,0.0,0.0,0.0,0.0
,,100958.07739,1.6059284210205078,0.0,0.0,0.0,0.0,0.0,0.0,0.0,0.0,0.0,0.0,0.0,1304076.0,0.03,-0.02,-1.01,-0.06,-0.06,0.06,13.65,60.77,-63.77,1304085.0,0.02,-0.02,-1.02,-0.12,-0.06,-0.12,15.45,60.17,-64.67,0.0,0.0,0.0,0.0,0.0,0.0,0.0,0.0,0.0,0.0,0.0,0.0,0.0,0.0,0.0,0.0,0.0,0.0,0.0,0.0,0.0,0.0
,,100958.095205,1.6237504482269287,0.0,0.0,0.0,0.0,0.0,0.0,0.0,0.0,0.0,0.0,0.0,1304094.0,0.02,-0.02,-1.01,-0.06,-0.06,-0.12,13.8,59.11,-64.97,1304102.0,0.02,-0.01,-1.02,-0.06,-0.12,-0.12,13.05,58.81,-63.92,0.0,0.0,0.0,0.0,0.0,0.0,0.0,0.0,0.0,0.0,0.0,0.0,0.0,0.0,0.0,0.0,0.0,0.0,0.0,0.0,0.0,0.0
,,100958.1123,1.640864372253418,0.0,0.0,0.0,0.0,0.0,0.0,0.0,0.0,0.0,0.0,0.0,1304111.0,0.02,-0.01,-1.02,-0.06,-0.06,-0.18,13.05,58.81,-63.92,1304120.0,0.02,-0.02,-1.01,-0.06,-0.18,-0.06,14.1,60.92,-64.67,0.0,0.0,0.0,0.0,0.0,0.0,0.0,0.0,0.0,0.0,0.0,0.0,0.0,0.0,0.0,0.0,0.0,0.0,0.0,0.0,0.0,0.0
,,100958.130029,1.658592700958252,0.0,0.0,0.0,0.0,0.0,0.0,0.0,0.0,0.0,0.0,0.0,1304129.0,0.02,-0.02,-1.01,-0.06,-0.06,-0.06,13.2,59.71,-64.82,1304137.0,0.02,-0.02,-1.02,-0.06,-0.06,-0.06,13.65,61.52,-64.07,0.0,0.0,0.0,0.0,0.0,0.0,0.0,0.0,0.0,0.0,0.0,0.0,0.0,0.0,0.0,0.0,0.0,0.0,0.0,0.0,0.0,0.0
,,100958.146995,1.675539493560791,0.0,0.0,0.0,0.0,0.0,0.0,0.0,0.0,0.0,0.0,0.0,1304146.0,0.01,-0.01,-1.02,-0.06,-0.06,-0.06,14.25,60.02,-65.42,1304155.0,0.02,-0.02,-1.02,0.0,-0.06,0.0,15.45,59.86,-64.22,0.0,0.0,0.0,0.0,0.0,0.0,0.0,0.0,0.0,0.0,0.0,0.0,0.0,0.0,0.0,0.0,0.0,0.0,0.0,0.0,0.0,0.0
,,100958.163955,1.6925020217895508,0.0,0.0,0.0,0.0,0.0,0.0,0.0,0.0,0.0,0.0,0.0,1304163.0,0.02,-0.01,-1.0,0.0,0.0,-0.06,14.7,59.71,-64.37,1304172.0,0.03,-0.02,-1.02,0.0,0.0,-0.06,13.2,60.02,-65.12,0.0,0.0,0.0,0.0,0.0,0.0,0.0,0.0,0.0,0.0,0.0,0.0,0.0,0.0,0.0,0.0,0.0,0.0,0.0,0.0,0.0,0.0
,,100958.214364,1.74293851852417,0.0,0.0,0.0,0.0,0.0,0.0,0.0,0.0,0.0,0.0,0.0,1304180.0,0.03,-0.02,-1.02,-0.06,-0.06,-0.06,13.2,60.02,-65.12,1304222.0,0.02,-0.01,-1.01,-0.06,-0.06,0.0,15.0,57.61,-62.72,0.0,0.0,0.0,0.0,0.0,0.0,0.0,0.0,0.0,0.0,0.0,0.0,0.0,0.0,0.0,0.0,0.0,0.0,0.0,0.0,0.0,0.0
,,100958.231898,1.7604529857635498,0.0,0.0,0.0,0.0,0.0,0.0,0.0,0.0,0.0,0.0,0.0,1304230.0,0.02,-0.02,-1.01,-0.06,-0.12,-0.12,15.0,57.61,-62.72,1304239.0,0.03,-0.02,-1.02,-0.06,-0.06,-0.12,14.7,60.02,-64.82,0.0,0.0,0.0,0.0,0.0,0.0,0.0,0.0,0.0,0.0,0.0,0.0,0.0,0.0,0.0,0.0,0.0,0.0,0.0,0.0,0.0,0.0
,,100958.249236,1.7777798175811768,0.0,0.0,0.0,0.0,0.0,0.0,0.0,0.0,0.0,0.0,0.0,1304248.0,0.02,-0.02,-1.01,-0.18,-0.12,-0.06,14.4,59.56,-66.02,1304257.0,0.02,-0.02,-1.02,-0.06,-0.06,0.06,14.85,60.17,-64.97,0.0,0.0,0.0,0.0,0.0,0.0,0.0,0.0,0.0,0.0,0.0,0.0,0.0,0.0,0.0,0.0,0.0,0.0,0.0,0.0,0.0,0.0
,,100958.266003,1.794553518295288,0.0,0.0,0.0,0.0,0.0,0.0,0.0,0.0,0.0,0.0,0.0,1304266.0,0.02,-0.01,-1.01,0.0,0.0,-0.12,15.15,58.06,-64.97,1304274.0,0.03,-0.02,-1.02,-0.06,-0.06,0.0,13.95,59.41,-64.82,0.0,0.0,0.0,0.0,0.0,0.0,0.0,0.0,0.0,0.0,0.0,0.0,0.0,0.0,0.0,0.0,0.0,0.0,0.0,0.0,0.0,0.0
,,100958.282983,1.8115174770355225,0.0,0.0,0.0,0.0,0.0,0.0,0.0,0.0,0.0,0.0,0.0,1304283.0,0.02,-0.01,-1.01,-0.06,-0.12,0.0,13.95,58.66,-64.37,1304291.0,0.03,-0.02,-1.02,0.0,0.0,0.06,14.25,60.47,-64.37,0.0,0.0,0.0,0.0,0.0,0.0,0.0,0.0,0.0,0.0,0.0,0.0,0.0,0.0,0.0,0.0,0.0,0.0,0.0,0.0,0.0,0.0
,,100958.300351,1.8288774490356445,0.0,0.0,0.0,0.0,0.0,0.0,0.0,0.0,0.0,0.0,0.0,1304300.0,0.03,-0.01,-1.02,0.06,0.06,-0.06,14.25,60.47,-66.17,1304309.0,0.02,-0.02,-1.01,0.0,0.0,0.06,14.4,59.56,-65.27,0.0,0.0,0.0,0.0,0.0,0.0,0.0,0.0,0.0,0.0,0.0,0.0,0.0,0.0,0.0,0.0,0.0,0.0,0.0,0.0,0.0,0.0
,,100958.317277,1.8458025455474854,0.0,0.0,0.0,0.0,0.0,0.0,0.0,0.0,0.0,0.0,0.0,1304317.0,0.02,-0.02,-1.02,0.0,-0.12,0.0,12.75,59.11,-64.97,1304326.0,0.03,-0.01,-1.02,0.06,-0.06,0.0,14.1,60.62,-64.67,0.0,0.0,0.0,0.0,0.0,0.0,0.0,0.0,0.0,0.0,0.0,0.0,0.0,0.0,0.0,0.0,0.0,0.0,0.0,0.0,0.0,0.0
,,100958.367721,1.8962669372558594,0.0,0.0,0.0,0.0,0.0,0.0,0.0,0.0,0.0,0.0,0.0,1304334.0,0.02,-0.03,-1.02,0.0,0.0,-0.06,13.95,60.02,-64.37,1304375.0,0.02,-0.02,-1.02,-0.06,-0.12,0.06,15.3,60.02,-64.37,0.0,0.0,0.0,0.0,0.0,0.0,0.0,0.0,0.0,0.0,0.0,0.0,0.0,0.0,0.0,0.0,0.0,0.0,0.0,0.0,0.0,0.0
,,100958.385074,1.9136202335357666,0.0,0.0,0.0,0.0,0.0,0.0,0.0,0.0,0.0,0.0,0.0,1304384.0,0.02,-0.01,-1.01,0.0,-0.06,0.06,14.4,60.62,-63.32,1304392.0,0.02,-0.03,-1.03,0.06,-0.06,-0.12,14.7,60.47,-63.47,0.0,0.0,0.0,0.0,0.0,0.0,0.0,0.0,0.0,0.0,0.0,0.0,0.0,0.0,0.0,0.0,0.0,0.0,0.0,0.0,0.0,0.0
,,100958.401962,1.9305033683776855,0.0,0.0,0.0,0.0,0.0,0.0,0.0,0.0,0.0,0.0,0.0,1304401.0,0.03,-0.01,-1.01,0.0,0.0,0.0,14.7,60.47,-63.47,1304410.0,0.03,-0.01,-1.02,0.06,0.06,0.0,13.05,59.86,-65.27,0.0,0.0,0.0,0.0,0.0,0.0,0.0,0.0,0.0,0.0,0.0,0.0,0.0,0.0,0.0,0.0,0.0,0.0,0.0,0.0,0.0,0.0
,,100958.418871,1.9474155902862549,0.0,0.0,0.0,0.0,0.0,0.0,0.0,0.0,0.0,0.0,0.0,1304418.0,0.03,-0.02,-1.02,0.0,-0.06,0.06,14.7,59.71,-66.17,1304427.0,0.02,-0.02,-1.02,0.0,0.0,0.12,13.65,60.77,-64.37,0.0,0.0,0.0,0.0,0.0,0.0,0.0,0.0,0.0,0.0,0.0,0.0,0.0,0.0,0.0,0.0,0.0,0.0,0.0,0.0,0.0,0.0
,,100958.436249,1.9648008346557617,0.0,0.0,0.0,0.0,0.0,0.0,0.0,0.0,0.0,0.0,0.0,1304435.0,0.03,-0.02,-1.02,-0.06,-0.18,0.0,14.4,61.22,-64.67,1304444.0,0.02,-0.02,-1.02,-0.06,-0.06,-0.12,14.1,60.92,-65.57,0.0,0.0,0.0,0.0,0.0,0.0,0.0,0.0,0.0,0.0,0.0,0.0,0.0,0.0,0.0,0.0,0.0,0.0,0.0,0.0,0.0,0.0
,,100958.453453,1.981990098953247,0.0,0.0,0.0,0.0,0.0,0.0,0.0,0.0,0.0,0.0,0.0,1304453.0,0.02,-0.02,-1.02,-0.12,-0.12,0.0,15.3,61.07,-64.07,1304461.0,0.02,-0.01,-1.02,0.06,0.0,-0.18,13.95,61.07,-64.07,0.0,0.0,0.0,0.0,0.0,0.0,0.0,0.0,0.0,0.0,0.0,0.0,0.0,0.0,0.0,0.0,0.0,0.0,0.0,0.0,0.0,0.0
,,100958.473737,2.002284288406372,0.0,0.0,0.0,0.0,0.0,0.0,0.0,0.0,0.0,0.0,0.0,1304470.0,0.03,-0.02,-1.0,0.0,0.0,-0.06,13.95,59.41,-64.37,1304478.0,0.03,-0.02,-1.03,-0.06,-0.06,-0.12,16.5,61.22,-66.02,0.0,0.0,0.0,0.0,0.0,0.0,0.0,0.0,0.0,0.0,0.0,0.0,0.0,0.0,0.0,0.0,0.0,0.0,0.0,0.0,0.0,0.0
,,100958.521692,2.0502476692199707,0.0,0.0,0.0,0.0,0.0,0.0,0.0,0.0,0.0,0.0,0.0,1304487.0,0.02,-0.03,-1.02,-0.06,-0.06,0.0,13.8,60.17,-64.67,1304529.0,0.03,-0.01,-1.02,-0.06,-0.06,0.0,15.75,60.02,-63.47,0.0,0.0,0.0,0.0,0.0,0.0,0.0,0.0,0.0,0.0,0.0,0.0,0.0,0.0,0.0,0.0,0.0,0.0,0.0,0.0,0.0,0.0
,,100958.539735,2.0682883262634277,0.0,0.0,0.0,0.0,0.0,0.0,0.0,0.0,0.0,0.0,0.0,1304538.0,0.02,-0.02,-1.01,-0.12,-0.18,-0.06,15.0,60.02,-63.77,1304547.0,0.02,-0.02,-1.0,0.0,-0.06,-0.06,14.7,60.77,-65.42,0.0,0.0,0.0,0.0,0.0,0.0,0.0,0.0,0.0,0.0,0.0,0.0,0.0,0.0,0.0,0.0,0.0,0.0,0.0,0.0,0.0,0.0
,,100958.557911,2.0864670276641846,0.0,0.0,0.0,0.0,0.0,0.0,0.0,0.0,0.0,0.0,0.0,1304557.0,0.03,-0.02,-1.02,-0.12,0.0,0.06,14.25,60.77,-65.87,1304566.0,0.03,-0.03,-1.02,-0.12,-0.06,0.0,15.9,59.56,-64.67,0.0,0.0,0.0,0.0,0.0,0.0,0.0,0.0,0.0,0.0,0.0,0.0,0.0,0.0,0.0,0.0,0.0,0.0,0.0,0.0,0.0,0.0
,,100958.575688,2.1042263507843018,0.0,0.0,0.0,0.0,0.0,0.0,0.0,0.0,0.0,0.0,0.0,1304575.0,0.02,-0.01,-1.02,0.06,0.0,0.12,11.85,59.71,-66.17,1304584.0,0.03,-0.03,-1.02,0.0,-0.06,-0.12,15.3,60.02,-64.82,0.0,0.0,0.0,0.0,0.0,0.0,0.0,0.0,0.0,0.0,0.0,0.0,0.0,0.0,0.0,0.0,0.0,0.0,0.0,0.0,0.0,0.0
,,100958.594011,2.1225643157958984,0.0,0.0,0.0,0.0,0.0,0.0,0.0,0.0,0.0,0.0,0.0,1304593.0,0.02,-0.02,-1.01,-0.06,-0.06,0.0,13.35,59.86,-64.97,1304602.0,0.03,-0.02,-1.0,-0.12,-0.12,0.0,14.7,60.47,-65.12,0.0,0.0,0.0,0.0,0.0,0.0,0.0,0.0,0.0,0.0,0.0,0.0,0.0,0.0,0.0,0.0,0.0,0.0,0.0,0.0,0.0,0.0
,,100958.611567,2.140119791030884,0.0,0.0,0.0,0.0,0.0,0.0,0.0,0.0,0.0,0.0,0.0,1304610.0,0.02,-0.02,-1.02,-0.06,-0.12,-0.06,14.7,60.47,-65.12,1304619.0,0.04,-0.02,-1.01,0.0,0.0,0.12,15.45,59.11,-62.57,0.0,0.0,0.0,0.0,0.0,0.0,0.0,0.0,0.0,0.0,0.0,0.0,0.0,0.0,0.0,0.0,0.0,0.0,0.0,0.0,0.0,0.0
,,100958.628773,2.157318592071533,0.0,0.0,0.0,0.0,0.0,0.0,0.0,0.0,0.0,0.0,0.0,1304627.0,0.02,-0.01,-1.02,-0.06,-0.12,0.0,14.1,60.17,-64.97,1304636.0,0.02,-0.02,-1.01,-0.06,-0.06,0.12,15.0,59.41,-64.82,0.0,0.0,0.0,0.0,0.0,0.0,0.0,0.0,0.0,0.0,0.0,0.0,0.0,0.0,0.0,0.0,0.0,0.0,0.0,0.0,0.0,0.0
,,100958.67913,2.2076849937438965,0.0,0.0,0.0,0.0,0.0,0.0,0.0,0.0,0.0,0.0,0.0,1304645.0,0.02,-0.02,-1.01,0.0,0.0,-0.12,12.6,60.47,-64.82,1304687.0,0.02,-0.03,-1.02,0.06,0.0,-0.06,15.0,59.71,-64.82,0.0,0.0,0.0,0.0,0.0,0.0,0.0,0.0,0.0,0.0,0.0,0.0,0.0,0.0,0.0,0.0,0.0,0.0,0.0,0.0,0.0,0.0
,,100958.697428,2.2259867191314697,0.0,0.0,0.0,0.0,0.0,0.0,0.0,0.0,0.0,0.0,0.0,1304696.0,0.03,-0.02,-1.0,-0.06,-0.12,0.0,14.25,60.02,-65.42,1304705.0,0.02,-0.01,-1.01,-0.06,-0.06,0.0,13.05,59.86,-66.02,0.0,0.0,0.0,0.0,0.0,0.0,0.0,0.0,0.0,0.0,0.0,0.0,0.0,0.0,0.0,0.0,0.0,0.0,0.0,0.0,0.0,0.0
,,100958.715369,2.243924617767334,0.0,0.0,0.0,0.0,0.0,0.0,0.0,0.0,0.0,0.0,0.0,1304714.0,0.03,-0.02,-1.01,0.06,0.06,0.0,14.25,60.47,-65.42,1304723.0,0.03,-0.02,-1.02,0.06,-0.06,0.06,15.3,60.77,-65.87,0.0,0.0,0.0,0.0,0.0,0.0,0.0,0.0,0.0,0.0,0.0,0.0,0.0,0.0,0.0,0.0,0.0,0.0,0.0,0.0,0.0,0.0
,,100958.732966,2.2615103721618652,0.0,0.0,0.0,0.0,0.0,0.0,0.0,0.0,0.0,0.0,0.0,1304732.0,0.02,-0.02,-1.01,-0.06,-0.12,0.06,14.25,60.47,-64.07,1304741.0,0.02,-0.01,-1.01,-0.06,-0.18,0.0,14.25,60.47,-64.07,0.0,0.0,0.0,0.0,0.0,0.0,0.0,0.0,0.0,0.0,0.0,0.0,0.0,0.0,0.0,0.0,0.0,0.0,0.0,0.0,0.0,0.0
,,100958.751108,2.2796456813812256,0.0,0.0,0.0,0.0,0.0,0.0,0.0,0.0,0.0,0.0,0.0,1304750.0,0.02,-0.01,-1.02,-0.06,-0.18,-0.12,14.4,62.42,-64.67,1304759.0,0.02,-0.02,-1.01,-0.06,-0.06,0.06,14.25,61.52,-65.12,0.0,0.0,0.0,0.0,0.0,0.0,0.0,0.0,0.0,0.0,0.0,0.0,0.0,0.0,0.0,0.0,0.0,0.0,0.0,0.0,0.0,0.0
,,100958.769241,2.2977664470672607,0.0,0.0,0.0,0.0,0.0,0.0,0.0,0.0,0.0,0.0,0.0,1304768.0,0.02,-0.03,-1.02,-0.06,-0.06,-0.06,13.8,61.22,-64.97,1304777.0,0.02,-0.03,-1.02,-0.06,-0.12,-0.06,13.2,59.71,-65.12,0.0,0.0,0.0,0.0,0.0,0.0,0.0,0.0,0.0,0.0,0.0,0.0,0.0,0.0,0.0,0.0,0.0,0.0,0.0,0.0,0.0,0.0
,,100958.78741,2.3159332275390625,0.0,0.0,0.0,0.0,0.0,0.0,0.0,0.0,0.0,0.0,0.0,1304786.0,0.02,-0.03,-1.02,-0.06,-0.06,-0.18,14.1,58.81,-63.92,1304796.0,0.02,-0.01,-1.0,-0.06,-0.12,0.06,14.85,58.51,-65.27,0.0,0.0,0.0,0.0,0.0,0.0,0.0,0.0,0.0,0.0,0.0,0.0,0.0,0.0,0.0,0.0,0.0,0.0,0.0,0.0,0.0,0.0
,,100958.839775,2.368344306945801,0.0,0.0,0.0,0.0,0.0,0.0,0.0,0.0,0.0,0.0,0.0,1304805.0,0.03,-0.02,-1.02,-0.12,-0.12,0.0,14.4,58.51,-63.92,1304847.0,0.03,-0.01,-1.02,-0.06,0.0,-0.06,15.0,60.77,-64.07,0.0,0.0,0.0,0.0,0.0,0.0,0.0,0.0,0.0,0.0,0.0,0.0,0.0,0.0,0.0,0.0,0.0,0.0,0.0,0.0,0.0,0.0
,,100958.857541,2.3860785961151123,0.0,0.0,0.0,0.0,0.0,0.0,0.0,0.0,0.0,0.0,0.0,1304856.0,0.02,-0.02,-1.01,0.0,-0.06,-0.06,14.4,60.92,-65.57,1304865.0,0.03,-0.02,-1.01,0.0,0.0,-0.06,13.65,61.07,-65.87,0.0,0.0,0.0,0.0,0.0,0.0,0.0,0.0,0.0,0.0,0.0,0.0,0.0,0.0,0.0,0.0,0.0,0.0,0.0,0.0,0.0,0.0
,,100958.875805,2.404348134994507,0.0,0.0,0.0,0.0,0.0,0.0,0.0,0.0,0.0,0.0,0.0,1304874.0,0.03,-0.0,-1.02,-0.18,-0.06,-0.06,13.2,59.41,-64.37,1304883.0,0.03,-0.02,-1.02,-0.12,-0.12,-0.06,14.85,59.86,-65.27,0.0,0.0,0.0,0.0,0.0,0.0,0.0,0.0,0.0,0.0,0.0,0.0,0.0,0.0,0.0,0.0,0.0,0.0,0.0,0.0,0.0,0.0
,,100958.894007,2.422560453414917,0.0,0.0,0.0,0.0,0.0,0.0,0.0,0.0,0.0,0.0,0.0,1304893.0,0.03,-0.01,-1.01,-0.06,-0.18,0.06,13.2,58.66,-66.47,1304902.0,0.03,-0.02,-1.03,-0.18,-0.12,0.0,13.35,59.86,-64.97,0.0,0.0,0.0,0.0,0.0,0.0,0.0,0.0,0.0,0.0,0.0,0.0,0.0,0.0,0.0,0.0,0.0,0.0,0.0,0.0,0.0,0.0
,,100958.912022,2.4405744075775146,0.0,0.0,0.0,0.0,0.0,0.0,0.0,0.0,0.0,0.0,0.0,1304911.0,0.03,-0.01,-1.01,-0.18,-0.18,-0.06,13.35,59.86,-64.97,1304920.0,0.02,-0.02,-1.02,0.0,-0.06,0.0,13.35,60.17,-65.57,0.0,0.0,0.0,0.0,0.0,0.0,0.0,0.0,0.0,0.0,0.0,0.0,0.0,0.0,0.0,0.0,0.0,0.0,0.0,0.0,0.0,0.0
,,100958.930327,2.4588851928710938,0.0,0.0,0.0,0.0,0.0,0.0,0.0,0.0,0.0,0.0,0.0,1304929.0,0.03,-0.02,-1.02,0.0,0.0,0.0,13.2,59.71,-64.37,1304938.0,0.02,-0.01,-1.01,-0.24,-0.18,0.0,13.8,59.56,-65.27,0.0,0.0,0.0,0.0,0.0,0.0,0.0,0.0,0.0,0.0,0.0,0.0,0.0,0.0,0.0,0.0,0.0,0.0,0.0,0.0,0.0,0.0
,,100958.948551,2.4771063327789307,0.0,0.0,0.0,0.0,0.0,0.0,0.0,0.0,0.0,0.0,0.0,1304947.0,0.03,-0.01,-1.01,-0.06,-0.12,-0.18,12.9,59.41,-64.82,1304956.0,0.03,-0.02,-1.02,0.06,-0.18,0.0,14.7,60.47,-64.82,0.0,0.0,0.0,0.0,0.0,0.0,0.0,0.0,0.0,0.0,0.0,0.0,0.0,0.0,0.0,0.0,0.0,0.0,0.0,0.0,0.0,0.0
,,100958.999955,2.5285046100616455,0.0,0.0,0.0,0.0,0.0,0.0,0.0,0.0,0.0,0.0,0.0,1304965.0,0.02,-0.01,-1.02,0.12,0.0,0.06,15.9,60.62,-65.27,1305007.0,0.03,-0.02,-1.01,0.0,0.06,0.0,14.7,60.47,-63.02,0.0,0.0,0.0,0.0,0.0,0.0,0.0,0.0,0.0,0.0,0.0,0.0,0.0,0.0,0.0,0.0,0.0,0.0,0.0,0.0,0.0,0.0
,,100959.017542,2.54610013961792,0.0,0.0,0.0,0.0,0.0,0.0,0.0,0.0,0.0,0.0,0.0,1305016.0,0.02,-0.02,-1.01,0.0,-0.06,-0.06,15.9,62.42,-63.92,1305025.0,0.02,-0.02,-1.0,-0.06,-0.06,0.12,14.1,60.92,-64.97,0.0,0.0,0.0,0.0,0.0,0.0,0.0,0.0,0.0,0.0,0.0,0.0,0.0,0.0,0.0,0.0,0.0,0.0,0.0,0.0,0.0,0.0
,,100959.035316,2.563858985900879,0.0,0.0,0.0,0.0,0.0,0.0,0.0,0.0,0.0,0.0,0.0,1305034.0,0.02,-0.03,-1.01,0.0,-0.06,0.0,14.4,59.86,-66.92,1305043.0,0.03,-0.02,-1.01,-0.06,-0.12,0.0,13.95,58.96,-64.82,0.0,0.0,0.0,0.0,0.0,0.0,0.0,0.0,0.0,0.0,0.0,0.0,0.0,0.0,0.0,0.0,0.0,0.0,0.0,0.0,0.0,0.0
,,100959.053478,2.582017183303833,0.0,0.0,0.0,0.0,0.0,0.0,0.0,0.0,0.0,0.0,0.0,1305052.0,0.02,-0.02,-1.03,0.06,-0.06,-0.12,14.25,59.41,-63.77,1305061.0,0.02,-0.02,-1.03,0.06,-0.18,0.06,14.25,59.41,-63.77,0.0,0.0,0.0,0.0,0.0,0.0,0.0,0.0,0.0,0.0,0.0,0.0,0.0,0.0,0.0,0.0,0.0,0.0,0.0,0.0,0.0,0.0
,,100959.071536,2.6000776290893555,0.0,0.0,0.0,0.0,0.0,0.0,0.0,0.0,0.0,0.0,0.0,1305070.0,0.02,-0.02,-1.02,0.0,0.12,-0.06,15.3,60.77,-65.42,1305079.0,0.01,-0.01,-1.02,-0.06,-0.18,0.0,14.4,60.17,-64.97,0.0,0.0,0.0,0.0,0.0,0.0,0.0,0.0,0.0,0.0,0.0,0.0,0.0,0.0,0.0,0.0,0.0,0.0,0.0,0.0,0.0,0.0
,,100959.089653,2.618196725845337,0.0,0.0,0.0,0.0,0.0,0.0,0.0,0.0,0.0,0.0,0.0,1305088.0,0.02,-0.01,-1.01,-0.06,0.0,0.0,13.35,61.97,-65.27,1305097.0,0.02,-0.01,-1.03,-0.06,-0.18,0.06,14.25,60.02,-65.42,0.0,0.0,0.0,0.0,0.0,0.0,0.0,0.0,0.0,0.0,0.0,0.0,0.0,0.0,0.0,0.0,0.0,0.0,0.0,0.0,0.0,0.0
,,100959.10816,2.63671875,0.0,0.0,0.0,0.0,0.0,0.0,0.0,0.0,0.0,0.0,0.0,1305106.0,0.03,-0.02,-1.03,-0.06,-0.06,0.06,14.7,60.47,-63.77,1305116.0,0.02,-0.02,-1.02,-0.06,-0.06,-0.12,14.1,60.17,-66.02,0.0,0.0,0.0,0.0,0.0,0.0,0.0,0.0,0.0,0.0,0.0,0.0,0.0,0.0,0.0,0.0,0.0,0.0,0.0,0.0,0.0,0.0
,,100959.159937,2.688492774963379,0.0,0.0,0.0,0.0,0.0,0.0,0.0,0.0,0.0,0.0,0.0,1305125.0,0.03,-0.01,-1.01,0.06,0.0,-0.18,14.1,59.86,-64.67,1305167.0,0.02,-0.02,-1.02,0.06,0.06,-0.06,13.35,59.86,-64.22,0.0,0.0,0.0,0.0,0.0,0.0,0.0,0.0,0.0,0.0,0.0,0.0,0.0,0.0,0.0,0.0,0.0,0.0,0.0,0.0,0.0,0.0
,,100959.177584,2.706129312515259,0.0,0.0,0.0,0.0,0.0,0.0,0.0,0.0,0.0,0.0,0.0,1305177.0,0.02,-0.01,-1.02,0.0,0.0,0.0,14.25,60.47,-64.37,1305185.0,0.02,-0.02,-1.03,0.06,0.06,0.0,14.85,61.22,-65.27,0.0,0.0,0.0,0.0,0.0,0.0,0.0,0.0,0.0,0.0,0.0,0.0,0.0,0.0,0.0,0.0,0.0,0.0,0.0,0.0,0.0,0.0
,,100959.196234,2.7247977256774902,0.0,0.0,0.0,0.0,0.0,0.0,0.0,0.0,0.0,0.0,0.0,1305194.0,0.01,-0.03,-1.02,-0.06,-0.06,0.0,14.25,58.66,-66.17,1305203.0,0.02,-0.02,-1.02,0.12,-0.12,0.0,13.95,60.47,-63.77,0.0,0.0,0.0,0.0,0.0,0.0,0.0,0.0,0.0,0.0,0.0,0.0,0.0,0.0,0.0,0.0,0.0,0.0,0.0,0.0,0.0,0.0
,,100959.213689,2.7422351837158203,0.0,0.0,0.0,0.0,0.0,0.0,0.0,0.0,0.0,0.0,0.0,1305212.0,0.02,-0.02,-1.02,-0.06,-0.06,0.0,13.8,59.86,-66.02,1305222.0,0.02,-0.02,-1.02,0.06,0.0,-0.12,15.15,61.22,-64.22,0.0,0.0,0.0,0.0,0.0,0.0,0.0,0.0,0.0,0.0,0.0,0.0,0.0,0.0,0.0,0.0,0.0,0.0,0.0,0.0,0.0,0.0
,,100959.231669,2.7602121829986572,0.0,0.0,0.0,0.0,0.0,0.0,0.0,0.0,0.0,0.0,0.0,1305231.0,0.03,-0.03,-1.01,-0.06,-0.06,-0.06,15.15,61.22,-64.22,1305240.0,0.03,-0.01,-1.02,0.12,0.06,0.0,15.15,59.56,-64.22,0.0,0.0,0.0,0.0,0.0,0.0,0.0,0.0,0.0,0.0,0.0,0.0,0.0,0.0,0.0,0.0,0.0,0.0,0.0,0.0,0.0,0.0
,,100959.249956,2.7784981727600098,0.0,0.0,0.0,0.0,0.0,0.0,0.0,0.0,0.0,0.0,0.0,1305249.0,0.02,-0.02,-1.02,-0.06,-0.06,0.0,14.85,59.86,-65.57,1305258.0,0.02,-0.02,-1.02,-0.12,-0.12,0.06,14.1,59.86,-64.22,0.0,0.0,0.0,0.0,0.0,0.0,0.0,0.0,0.0,0.0,0.0,0.0,0.0,0.0,0.0,0.0,0.0,0.0,0.0,0.0,0.0,0.0
,,100959.267719,2.7962727546691895,0.0,0.0,0.0,0.0,0.0,0.0,0.0,0.0,0.0,0.0,0.0,1305267.0,0.02,-0.03,-1.02,-0.06,-0.06,0.0,14.25,60.47,-64.82,1305276.0,0.02,-0.02,-1.0,0.0,-0.12,0.0,15.9,59.56,-64.97,0.0,0.0,0.0,0.0,0.0,0.0,0.0,0.0,0.0,0.0,0.0,0.0,0.0,0.0,0.0,0.0,0.0,0.0,0.0,0.0,0.0,0.0
,,100959.316121,2.8446757793426514,0.0,0.0,0.0,0.0,0.0,0.0,0.0,0.0,0.0,0.0,0.0,1305285.0,0.02,-0.01,-1.0,0.0,0.0,-0.06,13.95,58.96,-64.37,1305323.0,0.02,-0.01,-1.0,-0.06,-0.12,-0.12,16.05,60.47,-64.37,0.0,0.0,0.0,0.0,0.0,0.0,0.0,0.0,0.0,0.0,0.0,0.0,0.0,0.0,0.0,0.0,0.0,0.0,0.0,0.0,0.0,0.0
,,100959.334342,2.862889289855957,0.0,0.0,0.0,0.0,0.0,0.0,0.0,0.0,0.0,0.0,0.0,1305333.0,0.02,-0.02,-1.01,-0.06,-0.12,-0.06,15.45,60.62,-65.27,1305342.0,0.02,-0.02,-1.03,0.06,0.06,-0.06,14.1,58.81,-64.67,0.0,0.0,0.0,0.0,0.0,0.0,0.0,0.0,0.0,0.0,0.0,0.0,0.0,0.0,0.0,0.0,0.0,0.0,0.0,0.0,0.0,0.0
,,100959.352843,2.881420612335205,0.0,0.0,0.0,0.0,0.0,0.0,0.0,0.0,0.0,0.0,0.0,1305351.0,0.03,-0.02,-1.02,-0.06,-0.06,-0.06,14.1,58.81,-64.67,1305360.0,0.02,-0.02,-1.01,-0.12,-0.12,0.0,13.8,59.86,-64.67,0.0,0.0,0.0,0.0,0.0,0.0,0.0,0.0,0.0,0.0,0.0,0.0,0.0,0.0,0.0,0.0,0.0,0.0,0.0,0.0,0.0,0.0
,,100959.370564,2.8991026878356934,0.0,0.0,0.0,0.0,0.0,0.0,0.0,0.0,0.0,0.0,0.0,1305369.0,0.03,-0.02,-1.01,-0.06,-0.06,0.0,15.15,58.06,-64.67,1305378.0,0.02,-0.02,-1.03,-0.12,-0.06,-0.06,12.6,59.41,-65.87,0.0,0.0,0.0,0.0,0.0,0.0,0.0,0.0,0.0,0.0,0.0,0.0,0.0,0.0,0.0,0.0,0.0,0.0,0.0,0.0,0.0,0.0
,,100959.38885,2.9173903465270996,0.0,0.0,0.0,0.0,0.0,0.0,0.0,0.0,0.0,0.0,0.0,1305387.0,0.03,-0.01,-1.02,-0.06,-0.06,0.0,12.9,58.96,-65.12,1305396.0,0.02,-0.02,-1.02,-0.06,-0.12,-0.06,13.65,61.07,-64.37,0.0,0.0,0.0,0.0,0.0,0.0,0.0,0.0,0.0,0.0,0.0,0.0,0.0,0.0,0.0,0.0,0.0,0.0,0.0,0.0,0.0,0.0
,,100959.407111,2.9356770515441895,0.0,0.0,0.0,0.0,0.0,0.0,0.0,0.0,0.0,0.0,0.0,1305406.0,0.02,-0.02,-1.03,0.0,0.0,-0.06,13.8,59.86,-65.57,1305415.0,0.02,-0.02,-1.01,0.18,0.12,0.0,13.8,60.17,-64.67,0.0,0.0,0.0,0.0,0.0,0.0,0.0,0.0,0.0,0.0,0.0,0.0,0.0,0.0,0.0,0.0,0.0,0.0,0.0,0.0,0.0,0.0
,,100959.42459,2.953152894973755,0.0,0.0,0.0,0.0,0.0,0.0,0.0,0.0,0.0,0.0,0.0,1305424.0,0.02,-0.02,-1.03,0.06,0.12,0.0,14.1,59.86,-64.67,1305433.0,0.02,-0.01,-1.01,0.0,-0.06,0.0,15.0,59.41,-65.42,0.0,0.0,0.0,0.0,0.0,0.0,0.0,0.0,0.0,0.0,0.0,0.0,0.0,0.0,0.0,0.0,0.0,0.0,0.0,0.0,0.0,0.0
,,100959.477268,3.0058138370513916,0.0,0.0,0.0,0.0,0.0,0.0,0.0,0.0,0.0,0.0,0.0,1305442.0,0.02,-0.02,-1.01,-0.12,-0.06,-0.06,13.35,60.92,-64.22,1305485.0,0.02,-0.02,-1.02,0.06,0.0,0.0,14.4,60.92,-62.87,0.0,0.0,0.0,0.0,0.0,0.0,0.0,0.0,0.0,0.0,0.0,0.0,0.0,0.0,0.0,0.0,0.0,0.0,0.0,0.0,0.0,0.0
,,100959.49627,3.0248215198516846,0.0,0.0,0.0,0.0,0.0,0.0,0.0,0.0,0.0,0.0,0.0,1305494.0,0.02,-0.02,-1.01,-0.12,-0.18,0.06,13.05,59.86,-64.67,1305503.0,0.03,-0.02,-1.01,-0.06,-0.12,-0.06,14.4,59.11,-63.92,0.0,0.0,0.0,0.0,0.0,0.0,0.0,0.0,0.0,0.0,0.0,0.0,0.0,0.0,0.0,0.0,0.0,0.0,0.0,0.0,0.0,0.0
,,100959.513645,3.0422263145446777,0.0,0.0,0.0,0.0,0.0,0.0,0.0,0.0,0.0,0.0,0.0,1305512.0,0.02,-0.03,-1.01,0.0,-0.06,0.06,12.9,61.07,-65.12,1305521.0,0.03,-0.02,-1.01,0.12,0.0,-0.12,12.9,61.07,-65.12,0.0,0.0,0.0,0.0,0.0,0.0,0.0,0.0,0.0,0.0,0.0,0.0,0.0,0.0,0.0,0.0,0.0,0.0,0.0,0.0,0.0,0.0
,,100959.531905,3.060452461242676,0.0,0.0,0.0,0.0,0.0,0.0,0.0,0.0,0.0,0.0,0.0,1305530.0,0.02,-0.02,-1.02,0.0,-0.06,-0.18,13.8,60.17,-65.27,1305539.0,0.02,-0.02,-1.01,-0.06,-0.06,-0.06,14.85,59.56,-64.22,0.0,0.0,0.0,0.0,0.0,0.0,0.0,0.0,0.0,0.0,0.0,0.0,0.0,0.0,0.0,0.0,0.0,0.0,0.0,0.0,0.0,0.0
,,100959.549741,3.0782885551452637,0.0,0.0,0.0,0.0,0.0,0.0,0.0,0.0,0.0,0.0,0.0,1305549.0,0.02,-0.03,-1.02,0.0,0.0,-0.06,14.4,59.86,-65.27,1305557.0,0.02,-0.02,-1.02,-0.12,-0.24,0.0,14.1,59.56,-65.27,0.0,0.0,0.0,0.0,0.0,0.0,0.0,0.0,0.0,0.0,0.0,0.0,0.0,0.0,0.0,0.0,0.0,0.0,0.0,0.0,0.0,0.0
,,100959.5688,3.097357988357544,0.0,0.0,0.0,0.0,0.0,0.0,0.0,0.0,0.0,0.0,0.0,1305567.0,0.02,-0.02,-1.02,0.06,0.06,-0.06,14.1,60.62,-66.02,1305576.0,0.02,-0.01,-1.02,-0.06,-0.12,-0.06,15.3,60.02,-65.87,0.0,0.0,0.0,0.0,0.0,0.0,0.0,0.0,0.0,0.0,0.0,0.0,0.0,0.0,0.0,0.0,0.0,0.0,0.0,0.0,0.0,0.0
,,100959.58571,3.1142520904541016,0.0,0.0,0.0,0.0,0.0,0.0,0.0,0.0,0.0,0.0,0.0,1305585.0,0.02,-0.01,-1.02,0.06,0.0,-0.06,12.0,59.56,-64.97,1305594.0,0.02,-0.02,-1.03,0.0,0.0,0.0,14.7,60.02,-65.87,0.0,0.0,0.0,0.0,0.0,0.0,0.0,0.0,0.0,0.0,0.0,0.0,0.0,0.0,0.0,0.0,0.0,0.0,0.0,0.0,0.0,0.0
,,100959.63789,3.166435718536377,0.0,0.0,0.0,0.0,0.0,0.0,0.0,0.0,0.0,0.0,0.0,1305603.0,0.03,-0.02,-1.02,0.12,0.06,-0.06,14.25,60.02,-65.12,1305645.0,0.02,-0.02,-1.02,-0.06,-0.18,0.0,15.45,59.86,-63.92,0.0,0.0,0.0,0.0,0.0,0.0,0.0,0.0,0.0,0.0,0.0,0.0,0.0,0.0,0.0,0.0,0.0,0.0,0.0,0.0,0.0,0.0
,,100959.656124,3.1847105026245117,0.0,0.0,0.0,0.0,0.0,0.0,0.0,0.0,0.0,0.0,0.0,1305655.0,0.04,-0.02,-1.01,-0.06,-0.24,-0.06,15.3,60.47,-64.82,1305664.0,0.02,-0.02,-1.02,-0.06,-0.12,-0.06,15.3,59.41,-64.07,0.0,0.0,0.0,0.0,0.0,0.0,0.0,0.0,0.0,0.0,0.0,0.0,0.0,0.0,0.0,0.0,0.0,0.0,0.0,0.0,0.0,0.0
,,100959.674188,3.202733039855957,0.0,0.0,0.0,0.0,0.0,0.0,0.0,0.0,0.0,0.0,0.0,1305673.0,0.02,-0.02,-1.02,-0.06,0.0,-0.06,14.4,60.92,-63.92,1305682.0,0.02,-0.01,-1.02,0.0,0.06,-0.18,14.25,59.71,-64.37,0.0,0.0,0.0,0.0,0.0,0.0,0.0,0.0,0.0,0.0,0.0,0.0,0.0,0.0,0.0,0.0,0.0,0.0,0.0,0.0,0.0,0.0
,,100959.692541,3.22109055519104,0.0,0.0,0.0,0.0,0.0,0.0,0.0,0.0,0.0,0.0,0.0,1305691.0,0.03,-0.02,-1.02,-0.06,-0.06,-0.12,14.25,59.71,-64.37,1305700.0,0.02,-0.03,-1.03,-0.06,-0.06,-0.06,13.8,58.06,-64.97,0.0,0.0,0.0,0.0,0.0,0.0,0.0,0.0,0.0,0.0,0.0,0.0,0.0,0.0,0.0,0.0,0.0,0.0,0.0,0.0,0.0,0.0
,,100959.710541,3.2390835285186768,0.0,0.0,0.0,0.0,0.0,0.0,0.0,0.0,0.0,0.0,0.0,1305709.0,0.03,-0.02,-1.02,-0.06,-0.06,-0.12,13.8,59.11,-64.67,1305718.0,0.02,-0.02,-1.02,0.0,-0.06,-0.12,13.35,58.51,-66.32,0.0,0.0,0.0,0.0,0.0,0.0,0.0,0.0,0.0,0.0,0.0,0.0,0.0,0.0,0.0,0.0,0.0,0.0,0.0,0.0,0.0,0.0
,,100959.729314,3.257876396179199,0.0,0.0,0.0,0.0,0.0,0.0,0.0,0.0,0.0,0.0,0.0,1305727.0,0.02,-0.02,-1.02,0.12,0.06,0.0,14.25,58.96,-64.82,1305737.0,0.02,-0.01,-1.01,-0.06,-0.12,0.0,15.15,59.86,-65.27,0.0,0.0,0.0,0.0,0.0,0.0,0.0,0.0,0.0,0.0,0.0,0.0,0.0,0.0,0.0,0.0,0.0,0.0,0.0,0.0,0.0,0.0
,,100959.74688,3.275428533554077,0.0,0.0,0.0,0.0,0.0,0.0,0.0,0.0,0.0,0.0,0.0,1305746.0,0.02,-0.02,-1.01,0.0,0.06,0.0,13.95,58.36,-66.17,1305754.0,0.02,-0.02,-1.03,-0.06,-0.12,-0.06,12.6,59.41,-64.37,0.0,0.0,0.0,0.0,0.0,0.0,0.0,0.0,0.0,0.0,0.0,0.0,0.0,0.0,0.0,0.0,0.0,0.0,0.0,0.0,0.0,0.0
,,100959.799782,3.3283305168151855,0.0,0.0,0.0,0.0,0.0,0.0,0.0,0.0,0.0,0.0,0.0,1305764.0,0.03,-0.02,-1.01,-0.06,-0.18,0.0,13.8,59.56,-63.32,1305807.0,0.02,-0.02,-1.03,-0.12,-0.24,-0.06,15.15,61.22,-63.62,0.0,0.0,0.0,0.0,0.0,0.0,0.0,0.0,0.0,0.0,0.0,0.0,0.0,0.0,0.0,0.0,0.0,0.0,0.0,0.0,0.0,0.0
,,100959.884399,3.4129462242126465,0.0,0.0,0.0,0.0,0.0,0.0,0.0,0.0,0.0,0.0,0.0,1305882.0,0.02,-0.01,-1.03,-0.06,-0.18,0.0,15.15,59.86,-63.62,1305892.0,0.03,-0.01,-1.02,-0.06,-0.06,0.0,13.05,60.62,-63.92,0.0,0.0,0.0,0.0,0.0,0.0,0.0,0.0,0.0,0.0,0.0,0.0,0.0,0.0,0.0,0.0,0.0,0.0,0.0,0.0,0.0,0.0
,,100959.904195,3.432741403579712,0.0,0.0,0.0,0.0,0.0,0.0,0.0,0.0,0.0,0.0,0.0,1305902.0,0.03,-0.01,-1.02,-0.06,-0.06,-0.06,14.4,60.92,-64.22,1305912.0,0.03,-0.02,-1.01,0.0,-0.12,-0.18,15.45,59.11,-64.67,0.0,0.0,0.0,0.0,0.0,0.0,0.0,0.0,0.0,0.0,0.0,0.0,0.0,0.0,0.0,0.0,0.0,0.0,0.0,0.0,0.0,0.0
,,100959.924057,3.4526026248931885,0.0,0.0,0.0,0.0,0.0,0.0,0.0,0.0,0.0,0.0,0.0,1305921.0,0.02,-0.02,-1.03,0.0,-0.12,-0.06,14.7,60.47,-65.87,1305932.0,0.03,-0.02,-1.03,-0.12,-0.06,-0.06,14.4,60.92,-64.67,0.0,0.0,0.0,0.0,0.0,0.0,0.0,0.0,0.0,0.0,0.0,0.0,0.0,0.0,0.0,0.0,0.0,0.0,0.0,0.0,0.0,0.0
,,100959.943814,3.472364664077759,0.0,0.0,0.0,0.0,0.0,0.0,0.0,0.0,0.0,0.0,0.0,1305942.0,0.02,-0.02,-1.01,0.06,0.0,0.06,12.75,60.62,-66.02,1305952.0,0.03,-0.03,-1.03,-0.06,-0.12,0.06,14.25,60.02,-64.82,0.0,0.0,0.0,0.0,0.0,0.0,0.0,0.0,0.0,0.0,0.0,0.0,0.0,0.0,0.0,0.0,0.0,0.0,0.0,0.0,0.0,0.0
,,100959.963529,3.492072343826294,0.0,0.0,0.0,0.0,0.0,0.0,0.0,0.0,0.0,0.0,0.0,1305962.0,0.02,-0.02,-1.04,-0.06,-0.12,-0.06,15.15,59.11,-64.22,1305971.0,0.03,-0.03,-1.01,-0.06,-0.06,0.0,14.4,57.76,-64.22,0.0,0.0,0.0,0.0,0.0,0.0,0.0,0.0,0.0,0.0,0.0,0.0,0.0,0.0,0.0,0.0,0.0,0.0,0.0,0.0,0.0,0.0
,,100959.983771,3.5123202800750732,0.0,0.0,0.0,0.0,0.0,0.0,0.0,0.0,0.0,0.0,0.0,1305982.0,0.02,-0.03,-1.03,0.0,0.0,0.06,14.25,59.41,-65.87,1305992.0,0.03,-0.02,-1.02,0.0,-0.12,-0.12,13.35,60.17,-64.67,0.0,0.0,0.0,0.0,0.0,0.0,0.0,0.0,0.0,0.0,0.0,0.0,0.0,0.0,0.0,0.0,0.0,0.0,0.0,0.0,0.0,0.0
,,101000.038431,3.566995859146118,0.0,0.0,0.0,0.0,0.0,0.0,0.0,0.0,0.0,0.0,0.0,1306002.0,0.02,-0.02,-1.01,0.06,0.0,-0.06,14.4,58.81,-65.27,1306045.0,0.03,-0.02,-1.03,-0.06,-0.06,0.12,15.0,60.47,-63.47,0.0,0.0,0.0,0.0,0.0,0.0,0.0,0.0,0.0,0.0,0.0,0.0,0.0,0.0,0.0,0.0,0.0,0.0,0.0,0.0,0.0,0.0
,,101000.054338,3.5828795433044434,0.0,0.0,0.0,0.0,0.0,0.0,0.0,0.0,0.0,0.0,0.0,1306053.0,0.02,-0.02,-1.01,-0.06,-0.06,-0.12,14.7,60.77,-65.42,1306062.0,0.02,-0.01,-1.01,-0.18,-0.06,0.0,13.65,59.71,-65.42,0.0,0.0,0.0,0.0,0.0,0.0,0.0,0.0,0.0,0.0,0.0,0.0,0.0,0.0,0.0,0.0,0.0,0.0,0.0,0.0,0.0,0.0
,,101000.071858,3.6004133224487305,0.0,0.0,0.0,0.0,0.0,0.0,0.0,0.0,0.0,0.0,0.0,1306071.0,0.03,-0.02,-1.02,-0.12,-0.18,0.06,13.65,59.71,-65.42,1306080.0,0.02,-0.02,-1.02,0.0,0.0,-0.18,14.25,58.96,-65.42,0.0,0.0,0.0,0.0,0.0,0.0,0.0,0.0,0.0,0.0,0.0,0.0,0.0,0.0,0.0,0.0,0.0,0.0,0.0,0.0,0.0,0.0
,,101000.089297,3.61784291267395,0.0,0.0,0.0,0.0,0.0,0.0,0.0,0.0,0.0,0.0,0.0,1306088.0,0.03,-0.02,-1.0,-0.12,-0.06,-0.06,14.4,58.06,-64.67,1306097.0,0.03,-0.02,-1.02,-0.06,-0.18,0.12,15.0,61.07,-64.82,0.0,0.0,0.0,0.0,0.0,0.0,0.0,0.0,0.0,0.0,0.0,0.0,0.0,0.0,0.0,0.0,0.0,0.0,0.0,0.0,0.0,0.0
,,101000.106916,3.635465383529663,0.0,0.0,0.0,0.0,0.0,0.0,0.0,0.0,0.0,0.0,0.0,1306106.0,0.02,-0.01,-1.01,-0.12,-0.12,0.12,14.4,59.56,-63.92,1306114.0,0.03,-0.02,-1.02,0.12,0.06,-0.12,15.0,60.47,-65.42,0.0,0.0,0.0,0.0,0.0,0.0,0.0,0.0,0.0,0.0,0.0,0.0,0.0,0.0,0.0,0.0,0.0,0.0,0.0,0.0,0.0,0.0
,,101000.124412,3.6529855728149414,0.0,0.0,0.0,0.0,0.0,0.0,0.0,0.0,0.0,0.0,0.0,1306123.0,0.02,-0.01,-1.01,-0.06,-0.06,-0.06,13.95,60.02,-64.37,1306132.0,0.03,-0.01,-1.01,0.0,0.0,0.0,14.25,60.77,-65.12,0.0,0.0,0.0,0.0,0.0,0.0,0.0,0.0,0.0,0.0,0.0,0.0,0.0,0.0,0.0,0.0,0.0,0.0,0.0,0.0,0.0,0.0
,,101000.142124,3.670679807662964,0.0,0.0,0.0,0.0,0.0,0.0,0.0,0.0,0.0,0.0,0.0,1306140.0,0.02,-0.02,-1.01,-0.12,-0.3,-0.18,14.25,60.77,-65.12,1306149.0,0.02,-0.02,-1.02,-0.06,-0.12,-0.06,13.05,58.51,-65.57,0.0,0.0,0.0,0.0,0.0,0.0,0.0,0.0,0.0,0.0,0.0,0.0,0.0,0.0,0.0,0.0,0.0,0.0,0.0,0.0,0.0,0.0
,,101000.194108,3.7226648330688477,0.0,0.0,0.0,0.0,0.0,0.0,0.0,0.0,0.0,0.0,0.0,1306158.0,0.02,-0.02,-1.01,0.06,0.0,-0.06,13.95,59.71,-64.37,1306202.0,0.02,-0.03,-1.02,0.12,0.0,-0.06,14.4,59.56,-64.22,0.0,0.0,0.0,0.0,0.0,0.0,0.0,0.0,0.0,0.0,0.0,0.0,0.0,0.0,0.0,0.0,0.0,0.0,0.0,0.0,0.0,0.0
,,101000.211267,3.7398195266723633,0.0,0.0,0.0,0.0,0.0,0.0,0.0,0.0,0.0,0.0,0.0,1306210.0,0.02,-0.03,-1.01,-0.12,-0.12,0.0,14.4,59.56,-64.22,1306219.0,0.03,-0.01,-1.02,-0.12,-0.06,-0.06,15.9,60.92,-63.92,0.0,0.0,0.0,0.0,0.0,0.0,0.0,0.0,0.0,0.0,0.0,0.0,0.0,0.0,0.0,0.0,0.0,0.0,0.0,0.0,0.0,0.0
,,101000.22886,3.7574079036712646,0.0,0.0,0.0,0.0,0.0,0.0,0.0,0.0,0.0,0.0,0.0,1306228.0,0.02,-0.02,-1.02,-0.12,-0.24,-0.06,14.85,60.62,-64.67,1306236.0,0.02,-0.02,-1.01,-0.12,-0.06,-0.18,12.75,58.81,-64.97,0.0,0.0,0.0,0.0,0.0,0.0,0.0,0.0,0.0,0.0,0.0,0.0,0.0,0.0,0.0,0.0,0.0,0.0,0.0,0.0,0.0,0.0
,,101000.246132,3.7746758460998535,0.0,0.0,0.0,0.0,0.0,0.0,0.0,0.0,0.0,0.0,0.0,1306245.0,0.02,-0.03,-1.02,-0.06,-0.18,-0.12,14.1,61.22,-64.22,1306254.0,0.02,-0.01,-1.01,-0.06,-0.18,-0.06,14.1,60.92,-65.57,0.0,0.0,0.0,0.0,0.0,0.0,0.0,0.0,0.0,0.0,0.0,0.0,0.0,0.0,0.0,0.0,0.0,0.0,0.0,0.0,0.0,0.0
,,101000.263585,3.7921302318573,0.0,0.0,0.0,0.0,0.0,0.0,0.0,0.0,0.0,0.0,0.0,1306263.0,0.02,-0.01,-1.02,-0.18,-0.18,-0.06,14.1,60.62,-64.67,1306272.0,0.03,-0.0,-1.02,-0.12,0.0,-0.06,12.3,60.17,-66.02,0.0,0.0,0.0,0.0,0.0,0.0,0.0,0.0,0.0,0.0,0.0,0.0,0.0,0.0,0.0,0.0,0.0,0.0,0.0,0.0,0.0,0.0
,,101000.281222,3.8097686767578125,0.0,0.0,0.0,0.0,0.0,0.0,0.0,0.0,0.0,0.0,0.0,1306280.0,0.03,-0.01,-1.02,-0.12,-0.12,-0.12,12.3,60.17,-66.02,1306289.0,0.02,-0.02,-1.03,-0.12,-0.12,-0.06,15.3,59.41,-65.42,0.0,0.0,0.0,0.0,0.0,0.0,0.0,0.0,0.0,0.0,0.0,0.0,0.0,0.0,0.0,0.0,0.0,0.0,0.0,0.0,0.0,0.0
,,101000.300294,3.8288397789001465,0.0,0.0,0.0,0.0,0.0,0.0,0.0,0.0,0.0,0.0,0.0,1306298.0,0.02,-0.02,-1.02,0.0,0.0,0.0,14.85,60.17,-63.32,1306306.0,0.03,-0.01,-1.02,-0.06,-0.06,0.0,15.0,58.96,-64.07,0.0,0.0,0.0,0.0,0.0,0.0,0.0,0.0,0.0,0.0,0.0,0.0,0.0,0.0,0.0,0.0,0.0,0.0,0.0,0.0,0.0,0.0
,,101000.350159,3.878716468811035,0.0,0.0,0.0,0.0,0.0,0.0,0.0,0.0,0.0,0.0,0.0,1306315.0,0.02,-0.01,-1.03,-0.06,-0.06,0.06,13.2,60.77,-65.12,1306358.0,0.02,-0.02,-1.02,-0.12,-0.18,0.0,15.45,60.17,-63.92,0.0,0.0,0.0,0.0,0.0,0.0,0.0,0.0,0.0,0.0,0.0,0.0,0.0,0.0,0.0,0.0,0.0,0.0,0.0,0.0,0.0,0.0
,,101000.367389,3.8959293365478516,0.0,0.0,0.0,0.0,0.0,0.0,0.0,0.0,0.0,0.0,0.0,1306367.0,0.03,-0.02,-1.02,-0.06,-0.12,-0.12,14.85,60.92,-63.62,1306375.0,0.03,-0.02,-1.02,-0.06,-0.12,0.0,13.65,59.41,-64.37,0.0,0.0,0.0,0.0,0.0,0.0,0.0,0.0,0.0,0.0,0.0,0.0,0.0,0.0,0.0,0.0,0.0,0.0,0.0,0.0,0.0,0.0
,,101000.385259,3.9138059616088867,0.0,0.0,0.0,0.0,0.0,0.0,0.0,0.0,0.0,0.0,0.0,1306384.0,0.02,-0.02,-1.01,0.12,0.0,-0.06,13.2,60.02,-64.37,1306393.0,0.03,-0.01,-1.01,-0.06,0.0,0.0,14.85,58.51,-66.02,0.0,0.0,0.0,0.0,0.0,0.0,0.0,0.0,0.0,0.0,0.0,0.0,0.0,0.0,0.0,0.0,0.0,0.0,0.0,0.0,0.0,0.0
,,101000.402332,3.930882215499878,0.0,0.0,0.0,0.0,0.0,0.0,0.0,0.0,0.0,0.0,0.0,1306401.0,0.02,-0.02,-1.02,-0.12,-0.18,0.0,14.85,58.51,-66.02,1306410.0,0.02,-0.02,-1.01,-0.06,-0.18,0.06,15.45,58.81,-66.32,0.0,0.0,0.0,0.0,0.0,0.0,0.0,0.0,0.0,0.0,0.0,0.0,0.0,0.0,0.0,0.0,0.0,0.0,0.0,0.0,0.0,0.0
,,101000.419205,3.947758197784424,0.0,0.0,0.0,0.0,0.0,0.0,0.0,0.0,0.0,0.0,0.0,1306419.0,0.03,-0.02,-1.01,0.0,-0.06,0.0,13.95,60.77,-65.87,1306427.0,0.02,-0.02,-1.02,-0.12,-0.18,-0.12,15.0,60.47,-63.47,0.0,0.0,0.0,0.0,0.0,0.0,0.0,0.0,0.0,0.0,0.0,0.0,0.0,0.0,0.0,0.0,0.0,0.0,0.0,0.0,0.0,0.0
,,101000.436767,3.965320348739624,0.0,0.0,0.0,0.0,0.0,0.0,0.0,0.0,0.0,0.0,0.0,1306436.0,0.03,-0.02,-1.02,-0.18,-0.12,0.06,14.25,59.71,-65.87,1306445.0,0.02,-0.02,-1.02,-0.24,-0.12,-0.06,14.25,60.47,-65.12,0.0,0.0,0.0,0.0,0.0,0.0,0.0,0.0,0.0,0.0,0.0,0.0,0.0,0.0,0.0,0.0,0.0,0.0,0.0,0.0,0.0,0.0
,,101000.454277,3.982818365097046,0.0,0.0,0.0,0.0,0.0,0.0,0.0,0.0,0.0,0.0,0.0,1306453.0,0.02,-0.02,-1.02,-0.18,-0.12,-0.18,15.0,58.96,-65.42,1306462.0,0.02,-0.02,-1.01,-0.06,-0.06,-0.12,15.0,59.71,-65.12,0.0,0.0,0.0,0.0,0.0,0.0,0.0,0.0,0.0,0.0,0.0,0.0,0.0,0.0,0.0,0.0,0.0,0.0,0.0,0.0,0.0,0.0
,,101000.506784,4.035329341888428,0.0,0.0,0.0,0.0,0.0,0.0,0.0,0.0,0.0,0.0,0.0,1306471.0,0.02,-0.02,-1.01,-0.24,-0.12,0.0,15.0,59.71,-65.12,1306515.0,0.02,-0.0,-1.02,0.0,0.0,0.0,13.05,61.22,-64.22,0.0,0.0,0.0,0.0,0.0,0.0,0.0,0.0,0.0,0.0,0.0,0.0,0.0,0.0,0.0,0.0,0.0,0.0,0.0,0.0,0.0,0.0
,,101000.524305,4.052853345870972,0.0,0.0,0.0,0.0,0.0,0.0,0.0,0.0,0.0,0.0,0.0,1306523.0,0.02,-0.01,-1.02,-0.12,-0.06,-0.06,15.0,60.02,-65.12,1306532.0,0.02,-0.01,-1.02,-0.06,-0.06,-0.18,12.9,59.71,-64.82,0.0,0.0,0.0,0.0,0.0,0.0,0.0,0.0,0.0,0.0,0.0,0.0,0.0,0.0,0.0,0.0,0.0,0.0,0.0,0.0,0.0,0.0
,,101000.541954,4.070500612258911,0.0,0.0,0.0,0.0,0.0,0.0,0.0,0.0,0.0,0.0,0.0,1306541.0,0.03,-0.01,-1.02,0.12,-0.06,-0.18,12.9,59.71,-64.82,1306550.0,0.02,-0.02,-1.02,0.06,0.06,0.0,12.9,59.71,-65.87,0.0,0.0,0.0,0.0,0.0,0.0,0.0,0.0,0.0,0.0,0.0,0.0,0.0,0.0,0.0,0.0,0.0,0.0,0.0,0.0,0.0,0.0
,,101000.559136,4.087698221206665,0.0,0.0,0.0,0.0,0.0,0.0,0.0,0.0,0.0,0.0,0.0,1306558.0,0.02,-0.01,-1.02,0.12,0.06,0.0,13.2,58.96,-65.12,1306567.0,0.02,-0.01,-1.01,0.06,-0.06,0.0,15.15,60.92,-64.67,0.0,0.0,0.0,0.0,0.0,0.0,0.0,0.0,0.0,0.0,0.0,0.0,0.0,0.0,0.0,0.0,0.0,0.0,0.0,0.0,0.0,0.0
,,101000.576211,4.104757785797119,0.0,0.0,0.0,0.0,0.0,0.0,0.0,0.0,0.0,0.0,0.0,1306575.0,0.02,-0.01,-1.03,-0.06,-0.06,-0.06,13.95,57.91,-65.42,1306584.0,0.03,-0.02,-1.02,0.06,-0.06,-0.06,15.3,60.77,-64.07,0.0,0.0,0.0,0.0,0.0,0.0,0.0,0.0,0.0,0.0,0.0,0.0,0.0,0.0,0.0,0.0,0.0,0.0,0.0,0.0,0.0,0.0
,,101000.594225,4.122774600982666,0.0,0.0,0.0,0.0,0.0,0.0,0.0,0.0,0.0,0.0,0.0,1306593.0,0.03,-0.02,-1.02,-0.06,-0.06,-0.12,15.0,59.71,-65.12,1306602.0,0.04,-0.02,-1.0,0.18,-0.06,-0.06,12.75,60.17,-64.22,0.0,0.0,0.0,0.0,0.0,0.0,0.0,0.0,0.0,0.0,0.0,0.0,0.0,0.0,0.0,0.0,0.0,0.0,0.0,0.0,0.0,0.0
,,101000.611659,4.140211582183838,0.0,0.0,0.0,0.0,0.0,0.0,0.0,0.0,0.0,0.0,0.0,1306611.0,0.02,-0.02,-1.02,-0.06,-0.12,0.0,12.75,60.17,-64.22,1306619.0,0.03,-0.02,-1.01,-0.06,-0.12,-0.06,14.1,59.56,-65.27,0.0,0.0,0.0,0.0,0.0,0.0,0.0,0.0,0.0,0.0,0.0,0.0,0.0,0.0,0.0,0.0,0.0,0.0,0.0,0.0,0.0,0.0
,,101000.670525,4.1990883350372314,0.0,0.0,0.0,0.0,0.0,0.0,0.0,0.0,0.0,0.0,0.0,1306628.0,0.02,-0.02,-1.02,0.06,0.0,-0.12,12.9,58.96,-64.82,1306678.0,0.02,-0.02,-1.02,0.12,0.0,0.06,15.75,60.02,-63.47,0.0,0.0,0.0,0.0,0.0,0.0,0.0,0.0,0.0,0.0,0.0,0.0,0.0,0.0,0.0,0.0,0.0,0.0,0.0,0.0,0.0,0.0
,,101000.688112,4.216665029525757,0.0,0.0,0.0,0.0,0.0,0.0,0.0,0.0,0.0,0.0,0.0,1306687.0,0.02,-0.02,-1.0,-0.12,-0.06,0.06,15.45,60.17,-65.27,1306696.0,0.01,-0.02,-1.0,0.06,0.0,0.0,13.35,59.86,-64.97,0.0,0.0,0.0,0.0,0.0,0.0,0.0,0.0,0.0,0.0,0.0,0.0,0.0,0.0,0.0,0.0,0.0,0.0,0.0,0.0,0.0,0.0
,,101000.705065,4.2336180210113525,0.0,0.0,0.0,0.0,0.0,0.0,0.0,0.0,0.0,0.0,0.0,1306704.0,0.01,-0.03,-1.0,-0.3,-0.12,-0.06,13.35,58.51,-64.67,1306713.0,0.02,-0.02,-1.02,-0.18,-0.12,0.0,14.7,59.41,-64.37,0.0,0.0,0.0,0.0,0.0,0.0,0.0,0.0,0.0,0.0,0.0,0.0,0.0,0.0,0.0,0.0,0.0,0.0,0.0,0.0,0.0,0.0
,,101000.722808,4.251357555389404,0.0,0.0,0.0,0.0,0.0,0.0,0.0,0.0,0.0,0.0,0.0,1306722.0,0.02,-0.02,-1.03,-0.12,-0.12,-0.06,12.9,59.71,-65.87,1306730.0,0.03,-0.02,-1.02,-0.06,-0.06,0.0,12.9,59.71,-65.87,0.0,0.0,0.0,0.0,0.0,0.0,0.0,0.0,0.0,0.0,0.0,0.0,0.0,0.0,0.0,0.0,0.0,0.0,0.0,0.0,0.0,0.0
,,101000.739531,4.268078565597534,0.0,0.0,0.0,0.0,0.0,0.0,0.0,0.0,0.0,0.0,0.0,1306739.0,0.02,-0.02,-1.02,-0.06,-0.06,0.0,14.85,59.11,-64.67,1306748.0,0.01,-0.02,-1.01,0.0,0.0,-0.06,14.7,59.41,-64.82,0.0,0.0,0.0,0.0,0.0,0.0,0.0,0.0,0.0,0.0,0.0,0.0,0.0,0.0,0.0,0.0,0.0,0.0,0.0,0.0,0.0,0.0
,,101000.756889,4.28542947769165,0.0,0.0,0.0,0.0,0.0,0.0,0.0,0.0,0.0,0.0,0.0,1306756.0,0.03,-0.02,-1.01,0.0,-0.12,-0.06,14.1,59.86,-65.27,1306765.0,0.02,-0.01,-1.01,0.12,0.0,-0.06,14.25,59.41,-65.42,0.0,0.0,0.0,0.0,0.0,0.0,0.0,0.0,0.0,0.0,0.0,0.0,0.0,0.0,0.0,0.0,0.0,0.0,0.0,0.0,0.0,0.0
,,101000.776315,4.304908037185669,0.0,0.0,0.0,0.0,0.0,0.0,0.0,0.0,0.0,0.0,0.0,1306773.0,0.03,-0.01,-1.01,0.12,0.0,-0.06,14.4,58.81,-63.92,1306782.0,0.01,-0.02,-1.01,0.06,-0.12,0.0,14.25,60.47,-64.07,0.0,0.0,0.0,0.0,0.0,0.0,0.0,0.0,0.0,0.0,0.0,0.0,0.0,0.0,0.0,0.0,0.0,0.0,0.0,0.0,0.0,0.0
,,101000.824327,4.3528969287872314,0.0,0.0,0.0,0.0,0.0,0.0,0.0,0.0,0.0,0.0,0.0,1306791.0,0.02,-0.01,-1.03,0.18,0.06,0.06,14.25,60.47,-64.07,1306832.0,0.02,-0.02,-1.01,0.06,-0.06,-0.06,16.2,59.86,-63.92,0.0,0.0,0.0,0.0,0.0,0.0,0.0,0.0,0.0,0.0,0.0,0.0,0.0,0.0,0.0,0.0,0.0,0.0,0.0,0.0,0.0,0.0
,,101000.841646,4.370186805725098,0.0,0.0,0.0,0.0,0.0,0.0,0.0,0.0,0.0,0.0,0.0,1306841.0,0.02,-0.02,-1.02,0.18,0.0,-0.06,16.2,59.86,-63.92,1306850.0,0.02,-0.02,-1.01,0.12,-0.06,0.0,14.4,60.17,-65.27,0.0,0.0,0.0,0.0,0.0,0.0,0.0,0.0,0.0,0.0,0.0,0.0,0.0,0.0,0.0,0.0,0.0,0.0,0.0,0.0,0.0,0.0
,,101000.858935,4.387492418289185,0.0,0.0,0.0,0.0,0.0,0.0,0.0,0.0,0.0,0.0,0.0,1306858.0,0.02,-0.03,-1.01,0.06,-0.06,0.0,13.8,60.17,-64.67,1306867.0,0.02,-0.02,-1.01,-0.12,-0.06,-0.06,14.4,60.17,-64.22,0.0,0.0,0.0,0.0,0.0,0.0,0.0,0.0,0.0,0.0,0.0,0.0,0.0,0.0,0.0,0.0,0.0,0.0,0.0,0.0,0.0,0.0
,,101000.876262,4.404808521270752,0.0,0.0,0.0,0.0,0.0,0.0,0.0,0.0,0.0,0.0,0.0,1306876.0,0.03,-0.02,-1.03,0.0,0.12,-0.12,13.95,61.82,-65.87,1306884.0,0.03,-0.02,-1.02,0.0,0.06,-0.06,14.7,59.41,-64.07,0.0,0.0,0.0,0.0,0.0,0.0,0.0,0.0,0.0,0.0,0.0,0.0,0.0,0.0,0.0,0.0,0.0,0.0,0.0,0.0,0.0,0.0
,,101000.89319,4.42173433303833,0.0,0.0,0.0,0.0,0.0,0.0,0.0,0.0,0.0,0.0,0.0,1306893.0,0.02,-0.02,-1.01,0.0,-0.12,-0.06,15.15,60.62,-64.67,1306902.0,0.03,-0.03,-1.01,0.0,0.0,0.0,14.85,59.86,-64.97,0.0,0.0,0.0,0.0,0.0,0.0,0.0,0.0,0.0,0.0,0.0,0.0,0.0,0.0,0.0,0.0,0.0,0.0,0.0,0.0,0.0,0.0
,,101000.910172,4.438724040985107,0.0,0.0,0.0,0.0,0.0,0.0,0.0,0.0,0.0,0.0,0.0,1306910.0,0.03,-0.02,-1.01,-0.06,-0.06,0.0,14.85,59.86,-64.97,1306919.0,0.03,-0.02,-1.02,0.0,0.0,-0.12,15.9,60.62,-65.27,0.0,0.0,0.0,0.0,0.0,0.0,0.0,0.0,0.0,0.0,0.0,0.0,0.0,0.0,0.0,0.0,0.0,0.0,0.0,0.0,0.0,0.0
,,101000.928087,4.456636667251587,0.0,0.0,0.0,0.0,0.0,0.0,0.0,0.0,0.0,0.0,0.0,1306927.0,0.03,-0.02,-1.02,0.06,0.12,-0.06,14.1,58.81,-65.27,1306936.0,0.02,-0.01,-1.03,-0.06,-0.06,0.0,14.7,58.66,-65.42,0.0,0.0,0.0,0.0,0.0,0.0,0.0,0.0,0.0,0.0,0.0,0.0,0.0,0.0,0.0,0.0,0.0,0.0,0.0,0.0,0.0,0.0
,,101000.977498,4.506042003631592,0.0,0.0,0.0,0.0,0.0,0.0,0.0,0.0,0.0,0.0,0.0,1306944.0,0.03,-0.02,-1.02,-0.18,-0.06,-0.06,13.65,60.47,-64.37,1306986.0,0.03,-0.01,-1.01,0.0,0.0,0.0,15.9,59.11,-63.92,0.0,0.0,0.0,0.0,0.0,0.0,0.0,0.0,0.0,0.0,0.0,0.0,0.0,0.0,0.0,0.0,0.0,0.0,0.0,0.0,0.0,0.0
,,101000.995419,4.523976802825928,0.0,0.0,0.0,0.0,0.0,0.0,0.0,0.0,0.0,0.0,0.0,1306994.0,0.02,-0.01,-1.02,-0.06,-0.06,-0.06,14.25,60.77,-63.47,1307003.0,0.02,-0.02,-1.02,-0.06,-0.18,0.0,14.4,58.81,-65.27,0.0,0.0,0.0,0.0,0.0,0.0,0.0,0.0,0.0,0.0,0.0,0.0,0.0,0.0,0.0,0.0,0.0,0.0,0.0,0.0,0.0,0.0
,,101001.012168,4.540742635726929,0.0,0.0,0.0,0.0,0.0,0.0,0.0,0.0,0.0,0.0,0.0,1307011.0,0.02,-0.02,-1.01,0.24,0.0,-0.06,14.4,58.81,-65.27,1307020.0,0.03,-0.02,-1.01,0.12,0.0,0.06,14.25,59.71,-65.42,0.0,0.0,0.0,0.0,0.0,0.0,0.0,0.0,0.0,0.0,0.0,0.0,0.0,0.0,0.0,0.0,0.0,0.0,0.0,0.0,0.0,0.0
