name,date,time,time_since_start,vicon_sequence,vicon_time_stamp,vicon_frame_id,vicon_child_frame_id,vicon_translation_x,vicon_translation_y,vicon_translation_z,vicon_rotation_x,vicon_rotation_y,vicon_rotation_z,vicon_rotation_w,int_imu_time_stamp,int_imu_acc_x,int_imu_acc_y,int_imu_acc_z,int_imu_gyro_x,int_imu_gyro_y,int_imu_gyro_z,int_imu_mag_x,int_imu_mag_y,int_imu_mag_z,ext_imu_time_stamp,ext_imu_acc_x,ext_imu_acc_y,ext_imu_acc_z,ext_imu_gyro_x,ext_imu_gyro_y,ext_imu_gyro_z,ext_imu_mag_x,ext_imu_mag_y,ext_imu_mag_z,dji_imu_sequence,dji_imu_time_stamp,dji_imu_frame_id,dji_imu_orientation_x,dji_imu_orientation_y,dji_imu_orientation_z,dji_imu_orientation_w,dji_imu_ang_vel_x,dji_imu_ang_vel_y,dji_imu_ang_vel_z,dji_imu_lin_acc_x,dji_imu_lin_acc_y,dji_imu_lin_acc_z,rc_sequence,rc_time_stamp,rc_frame_id,rc_roll,rc_pitch,rc_yaw,rc_throttle,rc_mode,rc_landing_gear
/home/wc18ny/Desktop/VibrationTest/serial_test.csv,20201022,95647.98161,1.9550323486328125e-05,0.0,0.0,0.0,0.0,0.0,0.0,0.0,0.0,0.0,0.0,0.0,492837.0,0.03,-0.01,-1.01,-0.12,-0.06,-0.12,14.4,59.11,-64.22,492846.0,0.02,-0.02,-1.0,0.0,0.0,0.06,15.45,60.17,-63.62,0.0,0.0,0.0,0.0,0.0,0.0,0.0,0.0,0.0,0.0,0.0,0.0,0.0,0.0,0.0,0.0,0.0,0.0,0.0,0.0,0.0,0.0
,,95647.983296,0.0017020702362060547,0.0,0.0,0.0,0.0,0.0,0.0,0.0,0.0,0.0,0.0,0.0,492855.0,0.02,-0.03,-1.02,0.0,-0.12,-0.06,14.4,58.06,-64.22,492900.0,0.02,-0.02,-1.02,0.0,-0.06,-0.06,16.05,60.77,-65.42,0.0,0.0,0.0,0.0,0.0,0.0,0.0,0.0,0.0,0.0,0.0,0.0,0.0,0.0,0.0,0.0,0.0,0.0,0.0,0.0,0.0,0.0
,,95648.003772,0.022196292877197266,0.0,0.0,0.0,0.0,0.0,0.0,0.0,0.0,0.0,0.0,0.0,492909.0,0.02,-0.02,-1.01,-0.12,-0.12,-0.12,16.05,60.77,-65.42,492919.0,0.02,-0.03,-1.02,-0.06,-0.06,0.0,14.1,58.81,-64.22,0.0,0.0,0.0,0.0,0.0,0.0,0.0,0.0,0.0,0.0,0.0,0.0,0.0,0.0,0.0,0.0,0.0,0.0,0.0,0.0,0.0,0.0
,,95648.02691,0.045334815979003906,0.0,0.0,0.0,0.0,0.0,0.0,0.0,0.0,0.0,0.0,0.0,492928.0,0.02,-0.02,-1.02,0.0,0.0,-0.06,14.1,59.86,-64.67,492937.0,0.03,-0.01,-1.01,-0.06,-0.18,-0.06,15.0,58.96,-64.82,0.0,0.0,0.0,0.0,0.0,0.0,0.0,0.0,0.0,0.0,0.0,0.0,0.0,0.0,0.0,0.0,0.0,0.0,0.0,0.0,0.0,0.0
,,95648.045353,0.06376457214355469,0.0,0.0,0.0,0.0,0.0,0.0,0.0,0.0,0.0,0.0,0.0,492946.0,0.03,-0.02,-1.01,0.12,0.0,-0.06,14.7,58.66,-65.42,492955.0,0.03,-0.02,-1.01,0.0,0.0,0.0,13.35,59.11,-64.97,0.0,0.0,0.0,0.0,0.0,0.0,0.0,0.0,0.0,0.0,0.0,0.0,0.0,0.0,0.0,0.0,0.0,0.0,0.0,0.0,0.0,0.0
,,95648.064269,0.08268189430236816,0.0,0.0,0.0,0.0,0.0,0.0,0.0,0.0,0.0,0.0,0.0,492964.0,0.01,-0.02,-1.02,0.0,-0.12,0.0,13.05,60.62,-64.22,492973.0,0.02,-0.02,-1.01,-0.06,-0.18,0.0,14.25,60.02,-64.82,0.0,0.0,0.0,0.0,0.0,0.0,0.0,0.0,0.0,0.0,0.0,0.0,0.0,0.0,0.0,0.0,0.0,0.0,0.0,0.0,0.0,0.0
,,95648.086912,0.10535812377929688,0.0,0.0,0.0,0.0,0.0,0.0,0.0,0.0,0.0,0.0,0.0,492982.0,0.02,-0.02,-1.01,0.0,-0.06,0.0,13.35,60.17,-64.22,492990.0,0.02,-0.02,-1.01,0.0,-0.06,0.0,14.7,59.71,-65.12,0.0,0.0,0.0,0.0,0.0,0.0,0.0,0.0,0.0,0.0,0.0,0.0,0.0,0.0,0.0,0.0,0.0,0.0,0.0,0.0,0.0,0.0
,,95648.107153,0.1255941390991211,0.0,0.0,0.0,0.0,0.0,0.0,0.0,0.0,0.0,0.0,0.0,492999.0,0.02,-0.02,-1.02,0.0,0.0,0.0,14.7,59.71,-65.12,493008.0,0.03,-0.02,-1.01,-0.06,-0.12,0.06,14.85,60.62,-64.67,0.0,0.0,0.0,0.0,0.0,0.0,0.0,0.0,0.0,0.0,0.0,0.0,0.0,0.0,0.0,0.0,0.0,0.0,0.0,0.0,0.0,0.0
,,95648.125943,0.144362211227417,0.0,0.0,0.0,0.0,0.0,0.0,0.0,0.0,0.0,0.0,0.0,493017.0,0.03,-0.02,-1.01,-0.06,-0.12,0.0,14.25,57.91,-63.47,493126.0,0.02,-0.02,-1.02,-0.06,-0.18,0.06,14.85,60.92,-64.22,0.0,0.0,0.0,0.0,0.0,0.0,0.0,0.0,0.0,0.0,0.0,0.0,0.0,0.0,0.0,0.0,0.0,0.0,0.0,0.0,0.0,0.0
,,95648.143501,0.16191363334655762,0.0,0.0,0.0,0.0,0.0,0.0,0.0,0.0,0.0,0.0,0.0,493136.0,0.03,-0.02,-1.02,-0.12,-0.12,-0.06,13.2,58.96,-64.37,493146.0,0.02,-0.01,-1.01,0.0,0.0,-0.12,13.35,60.17,-63.92,0.0,0.0,0.0,0.0,0.0,0.0,0.0,0.0,0.0,0.0,0.0,0.0,0.0,0.0,0.0,0.0,0.0,0.0,0.0,0.0,0.0,0.0
,,95648.164223,0.18263506889343262,0.0,0.0,0.0,0.0,0.0,0.0,0.0,0.0,0.0,0.0,0.0,493156.0,0.02,-0.02,-1.02,0.06,-0.06,-0.06,13.95,59.41,-63.47,493166.0,0.02,-0.03,-1.02,-0.06,-0.06,0.06,13.95,60.77,-64.37,0.0,0.0,0.0,0.0,0.0,0.0,0.0,0.0,0.0,0.0,0.0,0.0,0.0,0.0,0.0,0.0,0.0,0.0,0.0,0.0,0.0,0.0
,,95648.187536,0.20598149299621582,0.0,0.0,0.0,0.0,0.0,0.0,0.0,0.0,0.0,0.0,0.0,493176.0,0.03,-0.02,-1.03,-0.06,-0.06,-0.12,15.15,58.51,-63.92,493186.0,0.02,-0.02,-1.01,0.12,-0.06,0.0,12.75,59.11,-64.67,0.0,0.0,0.0,0.0,0.0,0.0,0.0,0.0,0.0,0.0,0.0,0.0,0.0,0.0,0.0,0.0,0.0,0.0,0.0,0.0,0.0,0.0
,,95648.207602,0.2260572910308838,0.0,0.0,0.0,0.0,0.0,0.0,0.0,0.0,0.0,0.0,0.0,493196.0,0.03,-0.02,-1.02,-0.06,-0.06,0.0,13.65,58.96,-65.12,493206.0,0.02,-0.02,-1.02,-0.06,-0.06,-0.06,15.15,61.22,-66.02,0.0,0.0,0.0,0.0,0.0,0.0,0.0,0.0,0.0,0.0,0.0,0.0,0.0,0.0,0.0,0.0,0.0,0.0,0.0,0.0,0.0,0.0
,,95648.228933,0.2473900318145752,0.0,0.0,0.0,0.0,0.0,0.0,0.0,0.0,0.0,0.0,0.0,493216.0,0.03,-0.02,-1.02,-0.06,-0.06,0.0,13.95,60.77,-65.42,493226.0,0.02,-0.02,-1.02,-0.12,-0.06,-0.18,14.25,59.41,-64.07,0.0,0.0,0.0,0.0,0.0,0.0,0.0,0.0,0.0,0.0,0.0,0.0,0.0,0.0,0.0,0.0,0.0,0.0,0.0,0.0,0.0,0.0
,,95648.24739,0.26584315299987793,0.0,0.0,0.0,0.0,0.0,0.0,0.0,0.0,0.0,0.0,0.0,493236.0,0.03,-0.02,-1.02,-0.06,-0.06,-0.06,15.0,59.71,-64.37,493246.0,0.03,-0.01,-1.0,0.06,-0.06,-0.18,14.85,60.62,-63.32,0.0,0.0,0.0,0.0,0.0,0.0,0.0,0.0,0.0,0.0,0.0,0.0,0.0,0.0,0.0,0.0,0.0,0.0,0.0,0.0,0.0,0.0
,,95648.267756,0.2862107753753662,0.0,0.0,0.0,0.0,0.0,0.0,0.0,0.0,0.0,0.0,0.0,493256.0,0.02,-0.02,-1.01,-0.06,-0.12,-0.12,13.95,60.02,-65.12,493301.0,0.03,-0.01,-1.02,0.0,0.06,0.0,15.75,58.96,-63.47,0.0,0.0,0.0,0.0,0.0,0.0,0.0,0.0,0.0,0.0,0.0,0.0,0.0,0.0,0.0,0.0,0.0,0.0,0.0,0.0,0.0,0.0
,,95648.287118,0.3055753707885742,0.0,0.0,0.0,0.0,0.0,0.0,0.0,0.0,0.0,0.0,0.0,493310.0,0.03,-0.01,-0.99,-0.06,-0.06,-0.12,15.75,58.96,-63.47,493319.0,0.03,-0.01,-1.01,-0.06,-0.18,0.06,15.45,58.81,-64.97,0.0,0.0,0.0,0.0,0.0,0.0,0.0,0.0,0.0,0.0,0.0,0.0,0.0,0.0,0.0,0.0,0.0,0.0,0.0,0.0,0.0,0.0
,,95648.306889,0.3253340721130371,0.0,0.0,0.0,0.0,0.0,0.0,0.0,0.0,0.0,0.0,0.0,493327.0,0.02,-0.01,-1.01,-0.06,0.06,-0.12,14.1,58.81,-65.57,493336.0,0.03,-0.02,-1.02,0.0,0.0,-0.06,14.7,58.66,-65.87,0.0,0.0,0.0,0.0,0.0,0.0,0.0,0.0,0.0,0.0,0.0,0.0,0.0,0.0,0.0,0.0,0.0,0.0,0.0,0.0,0.0,0.0
,,95648.327139,0.34559154510498047,0.0,0.0,0.0,0.0,0.0,0.0,0.0,0.0,0.0,0.0,0.0,493345.0,0.02,-0.02,-1.01,-0.06,-0.12,0.06,14.25,59.41,-64.37,493353.0,0.02,-0.02,-1.02,0.06,0.0,-0.06,13.05,58.06,-66.62,0.0,0.0,0.0,0.0,0.0,0.0,0.0,0.0,0.0,0.0,0.0,0.0,0.0,0.0,0.0,0.0,0.0,0.0,0.0,0.0,0.0,0.0
,,95648.347349,0.3658027648925781,0.0,0.0,0.0,0.0,0.0,0.0,0.0,0.0,0.0,0.0,0.0,493362.0,0.02,-0.02,-1.01,-0.06,-0.06,-0.06,14.85,59.86,-64.97,493371.0,0.03,-0.02,-1.02,-0.06,-0.18,-0.06,13.95,60.47,-64.37,0.0,0.0,0.0,0.0,0.0,0.0,0.0,0.0,0.0,0.0,0.0,0.0,0.0,0.0,0.0,0.0,0.0,0.0,0.0,0.0,0.0,0.0
,,95648.366906,0.3853917121887207,0.0,0.0,0.0,0.0,0.0,0.0,0.0,0.0,0.0,0.0,0.0,493379.0,0.03,-0.01,-1.01,-0.06,-0.06,0.0,13.95,60.47,-64.37,493388.0,0.03,-0.01,-1.02,-0.06,-0.12,-0.06,13.8,60.17,-64.67,0.0,0.0,0.0,0.0,0.0,0.0,0.0,0.0,0.0,0.0,0.0,0.0,0.0,0.0,0.0,0.0,0.0,0.0,0.0,0.0,0.0,0.0
,,95648.386781,0.4052388668060303,0.0,0.0,0.0,0.0,0.0,0.0,0.0,0.0,0.0,0.0,0.0,493397.0,0.02,-0.01,-1.0,-0.06,-0.18,-0.06,14.1,58.81,-64.67,493406.0,0.02,-0.01,-1.02,-0.06,-0.06,-0.06,13.8,60.17,-65.57,0.0,0.0,0.0,0.0,0.0,0.0,0.0,0.0,0.0,0.0,0.0,0.0,0.0,0.0,0.0,0.0,0.0,0.0,0.0,0.0,0.0,0.0
,,95648.40659,0.4250307083129883,0.0,0.0,0.0,0.0,0.0,0.0,0.0,0.0,0.0,0.0,0.0,493414.0,0.02,-0.02,-1.02,-0.06,-0.06,-0.06,13.35,59.11,-64.97,493460.0,0.02,-0.02,-1.02,-0.06,-0.12,0.06,15.0,59.41,-64.07,0.0,0.0,0.0,0.0,0.0,0.0,0.0,0.0,0.0,0.0,0.0,0.0,0.0,0.0,0.0,0.0,0.0,0.0,0.0,0.0,0.0,0.0
,,95648.426854,0.4452941417694092,0.0,0.0,0.0,0.0,0.0,0.0,0.0,0.0,0.0,0.0,0.0,493469.0,0.02,-0.01,-1.03,0.0,0.0,-0.06,15.15,59.11,-63.92,493477.0,0.02,-0.02,-1.02,-0.06,-0.06,0.06,13.05,59.56,-63.62,0.0,0.0,0.0,0.0,0.0,0.0,0.0,0.0,0.0,0.0,0.0,0.0,0.0,0.0,0.0,0.0,0.0,0.0,0.0,0.0,0.0,0.0
,,95648.446998,0.4654541015625,0.0,0.0,0.0,0.0,0.0,0.0,0.0,0.0,0.0,0.0,0.0,493486.0,0.03,-0.02,-1.02,-0.06,-0.06,0.06,15.0,60.77,-64.07,493494.0,0.02,-0.02,-1.01,-0.06,-0.12,-0.06,14.7,60.77,-65.42,0.0,0.0,0.0,0.0,0.0,0.0,0.0,0.0,0.0,0.0,0.0,0.0,0.0,0.0,0.0,0.0,0.0,0.0,0.0,0.0,0.0,0.0
,,95648.467265,0.4857215881347656,0.0,0.0,0.0,0.0,0.0,0.0,0.0,0.0,0.0,0.0,0.0,493503.0,0.03,-0.02,-1.01,-0.06,-0.12,0.0,14.25,60.77,-64.37,493512.0,0.03,-0.02,-1.01,0.0,-0.06,0.0,14.7,58.66,-65.42,0.0,0.0,0.0,0.0,0.0,0.0,0.0,0.0,0.0,0.0,0.0,0.0,0.0,0.0,0.0,0.0,0.0,0.0,0.0,0.0,0.0,0.0
,,95648.488733,0.5072004795074463,0.0,0.0,0.0,0.0,0.0,0.0,0.0,0.0,0.0,0.0,0.0,493520.0,0.02,-0.02,-1.02,0.0,0.0,-0.06,14.7,60.47,-64.07,493529.0,0.03,-0.02,-1.01,-0.06,-0.12,0.0,14.7,60.47,-64.07,0.0,0.0,0.0,0.0,0.0,0.0,0.0,0.0,0.0,0.0,0.0,0.0,0.0,0.0,0.0,0.0,0.0,0.0,0.0,0.0,0.0,0.0
,,95648.507048,0.5254940986633301,0.0,0.0,0.0,0.0,0.0,0.0,0.0,0.0,0.0,0.0,0.0,493537.0,0.02,-0.01,-1.01,0.0,0.0,0.0,12.75,59.11,-65.57,493546.0,0.02,-0.01,-1.03,-0.06,-0.18,0.0,14.25,59.71,-63.47,0.0,0.0,0.0,0.0,0.0,0.0,0.0,0.0,0.0,0.0,0.0,0.0,0.0,0.0,0.0,0.0,0.0,0.0,0.0,0.0,0.0,0.0
,,95648.527172,0.5456137657165527,0.0,0.0,0.0,0.0,0.0,0.0,0.0,0.0,0.0,0.0,0.0,493554.0,0.03,-0.02,-1.01,0.06,-0.06,-0.18,14.25,59.71,-64.82,493563.0,0.02,-0.02,-1.01,-0.06,0.0,-0.06,14.85,60.92,-63.92,0.0,0.0,0.0,0.0,0.0,0.0,0.0,0.0,0.0,0.0,0.0,0.0,0.0,0.0,0.0,0.0,0.0,0.0,0.0,0.0,0.0,0.0
,,95648.547586,0.5660321712493896,0.0,0.0,0.0,0.0,0.0,0.0,0.0,0.0,0.0,0.0,0.0,493572.0,0.02,-0.01,-1.02,-0.06,-0.06,0.0,14.85,59.86,-66.02,493624.0,0.02,-0.02,-1.01,0.0,-0.12,0.12,13.65,59.71,-63.47,0.0,0.0,0.0,0.0,0.0,0.0,0.0,0.0,0.0,0.0,0.0,0.0,0.0,0.0,0.0,0.0,0.0,0.0,0.0,0.0,0.0,0.0
,,95648.567613,0.5860600471496582,0.0,0.0,0.0,0.0,0.0,0.0,0.0,0.0,0.0,0.0,0.0,493633.0,0.02,-0.01,-1.03,0.0,0.0,0.06,13.05,60.17,-63.92,493641.0,0.02,-0.01,-1.02,0.0,0.0,-0.06,14.4,60.17,-64.22,0.0,0.0,0.0,0.0,0.0,0.0,0.0,0.0,0.0,0.0,0.0,0.0,0.0,0.0,0.0,0.0,0.0,0.0,0.0,0.0,0.0,0.0
,,95648.58719,0.6056435108184814,0.0,0.0,0.0,0.0,0.0,0.0,0.0,0.0,0.0,0.0,0.0,493649.0,0.02,-0.03,-1.02,-0.18,-0.18,0.0,14.4,60.17,-64.22,493658.0,0.03,-0.01,-1.02,-0.06,-0.06,0.0,13.95,60.77,-64.82,0.0,0.0,0.0,0.0,0.0,0.0,0.0,0.0,0.0,0.0,0.0,0.0,0.0,0.0,0.0,0.0,0.0,0.0,0.0,0.0,0.0,0.0
,,95648.607471,0.6259160041809082,0.0,0.0,0.0,0.0,0.0,0.0,0.0,0.0,0.0,0.0,0.0,493667.0,0.03,-0.02,-1.01,0.0,0.0,-0.12,15.45,60.62,-65.57,514537.0,0.03,-0.02,-1.01,-0.06,-0.24,0.06,14.25,59.71,-64.82,0.0,0.0,0.0,0.0,0.0,0.0,0.0,0.0,0.0,0.0,0.0,0.0,0.0,0.0,0.0,0.0,0.0,0.0,0.0,0.0,0.0,0.0
,,95648.627198,0.6456394195556641,0.0,0.0,0.0,0.0,0.0,0.0,0.0,0.0,0.0,0.0,0.0,514545.0,0.02,-0.02,-1.01,-0.12,-0.18,0.0,14.4,58.81,-64.67,514554.0,0.02,-0.01,-1.02,-0.06,-0.24,-0.06,14.4,58.81,-64.67,0.0,0.0,0.0,0.0,0.0,0.0,0.0,0.0,0.0,0.0,0.0,0.0,0.0,0.0,0.0,0.0,0.0,0.0,0.0,0.0,0.0,0.0
,,95648.647246,0.6656901836395264,0.0,0.0,0.0,0.0,0.0,0.0,0.0,0.0,0.0,0.0,0.0,514563.0,0.03,-0.01,-1.02,-0.06,-0.18,-0.12,14.7,59.41,-64.82,514572.0,0.02,-0.03,-1.02,-0.06,-0.3,0.0,12.9,59.71,-64.37,0.0,0.0,0.0,0.0,0.0,0.0,0.0,0.0,0.0,0.0,0.0,0.0,0.0,0.0,0.0,0.0,0.0,0.0,0.0,0.0,0.0,0.0
,,95648.667552,0.6859991550445557,0.0,0.0,0.0,0.0,0.0,0.0,0.0,0.0,0.0,0.0,0.0,514580.0,0.02,-0.02,-1.03,-0.18,-0.12,0.0,13.8,59.11,-64.67,514589.0,0.03,-0.02,-1.01,-0.12,-0.24,0.06,14.7,60.47,-65.12,0.0,0.0,0.0,0.0,0.0,0.0,0.0,0.0,0.0,0.0,0.0,0.0,0.0,0.0,0.0,0.0,0.0,0.0,0.0,0.0,0.0,0.0
,,95648.699861,0.7182822227478027,0.0,0.0,0.0,0.0,0.0,0.0,0.0,0.0,0.0,0.0,0.0,514598.0,0.03,-0.03,-1.02,-0.3,-0.18,0.0,12.3,60.62,-64.67,514643.0,0.03,-0.02,-1.01,-0.3,-0.3,-0.06,16.8,59.71,-62.42,0.0,0.0,0.0,0.0,0.0,0.0,0.0,0.0,0.0,0.0,0.0,0.0,0.0,0.0,0.0,0.0,0.0,0.0,0.0,0.0,0.0,0.0
,,95648.717701,0.7361390590667725,0.0,0.0,0.0,0.0,0.0,0.0,0.0,0.0,0.0,0.0,0.0,514652.0,0.03,-0.03,-1.02,-0.49,-0.24,0.0,15.75,59.41,-63.47,514661.0,0.02,-0.03,-1.02,-0.61,-0.37,-0.12,13.35,59.86,-63.62,0.0,0.0,0.0,0.0,0.0,0.0,0.0,0.0,0.0,0.0,0.0,0.0,0.0,0.0,0.0,0.0,0.0,0.0,0.0,0.0,0.0,0.0
,,95648.735239,0.7536764144897461,0.0,0.0,0.0,0.0,0.0,0.0,0.0,0.0,0.0,0.0,0.0,514670.0,0.03,-0.03,-1.03,-0.55,-0.37,-0.06,15.0,58.96,-65.12,514678.0,0.02,-0.03,-1.0,-0.85,-0.43,-0.06,14.1,59.56,-66.02,0.0,0.0,0.0,0.0,0.0,0.0,0.0,0.0,0.0,0.0,0.0,0.0,0.0,0.0,0.0,0.0,0.0,0.0,0.0,0.0,0.0,0.0
,,95648.752916,0.7713544368743896,0.0,0.0,0.0,0.0,0.0,0.0,0.0,0.0,0.0,0.0,0.0,514687.0,0.03,-0.02,-1.01,-0.85,-0.55,-0.12,15.75,58.96,-65.42,514696.0,0.02,-0.03,-1.0,-1.04,-0.55,-0.06,14.1,60.17,-65.57,0.0,0.0,0.0,0.0,0.0,0.0,0.0,0.0,0.0,0.0,0.0,0.0,0.0,0.0,0.0,0.0,0.0,0.0,0.0,0.0,0.0,0.0
,,95648.770914,0.7893586158752441,0.0,0.0,0.0,0.0,0.0,0.0,0.0,0.0,0.0,0.0,0.0,514705.0,0.01,-0.01,-1.01,-0.91,-0.49,-0.06,14.1,60.17,-65.57,514714.0,0.01,-0.02,-1.01,-0.67,-0.3,-0.12,15.15,59.56,-64.67,0.0,0.0,0.0,0.0,0.0,0.0,0.0,0.0,0.0,0.0,0.0,0.0,0.0,0.0,0.0,0.0,0.0,0.0,0.0,0.0,0.0,0.0
,,95648.788225,0.806668758392334,0.0,0.0,0.0,0.0,0.0,0.0,0.0,0.0,0.0,0.0,0.0,514722.0,0.01,-0.01,-1.02,-0.49,-0.18,-0.06,11.85,60.02,-64.37,514731.0,0.02,-0.01,-1.01,-0.43,-0.18,-0.06,14.85,59.56,-64.22,0.0,0.0,0.0,0.0,0.0,0.0,0.0,0.0,0.0,0.0,0.0,0.0,0.0,0.0,0.0,0.0,0.0,0.0,0.0,0.0,0.0,0.0
,,95648.807736,0.8261804580688477,0.0,0.0,0.0,0.0,0.0,0.0,0.0,0.0,0.0,0.0,0.0,514740.0,0.02,-0.01,-1.02,-0.43,-0.24,-0.06,13.35,60.17,-64.67,514749.0,0.02,-0.01,-1.01,-0.49,-0.18,0.0,13.8,61.22,-64.67,0.0,0.0,0.0,0.0,0.0,0.0,0.0,0.0,0.0,0.0,0.0,0.0,0.0,0.0,0.0,0.0,0.0,0.0,0.0,0.0,0.0,0.0
,,95648.859112,0.8775599002838135,0.0,0.0,0.0,0.0,0.0,0.0,0.0,0.0,0.0,0.0,0.0,514757.0,0.02,-0.01,-1.02,-0.3,-0.24,-0.18,13.95,60.47,-64.07,514802.0,0.02,-0.01,-1.0,-0.18,-0.18,0.06,16.5,58.81,-63.32,0.0,0.0,0.0,0.0,0.0,0.0,0.0,0.0,0.0,0.0,0.0,0.0,0.0,0.0,0.0,0.0,0.0,0.0,0.0,0.0,0.0,0.0
,,95648.876528,0.894965410232544,0.0,0.0,0.0,0.0,0.0,0.0,0.0,0.0,0.0,0.0,0.0,514811.0,0.02,-0.02,-1.01,-0.18,-0.12,-0.06,15.9,59.86,-62.87,514820.0,0.02,-0.02,-1.01,-0.12,-0.12,-0.06,13.8,59.11,-64.97,0.0,0.0,0.0,0.0,0.0,0.0,0.0,0.0,0.0,0.0,0.0,0.0,0.0,0.0,0.0,0.0,0.0,0.0,0.0,0.0,0.0,0.0
,,95648.893983,0.9124405384063721,0.0,0.0,0.0,0.0,0.0,0.0,0.0,0.0,0.0,0.0,0.0,514828.0,0.02,-0.01,-1.01,-0.06,-0.24,0.06,14.85,60.92,-66.02,514837.0,0.02,-0.02,-1.02,-0.12,-0.3,0.0,14.1,60.62,-66.02,0.0,0.0,0.0,0.0,0.0,0.0,0.0,0.0,0.0,0.0,0.0,0.0,0.0,0.0,0.0,0.0,0.0,0.0,0.0,0.0,0.0,0.0
,,95648.911624,0.9300715923309326,0.0,0.0,0.0,0.0,0.0,0.0,0.0,0.0,0.0,0.0,0.0,514846.0,0.02,-0.01,-1.02,-0.06,-0.24,-0.12,14.1,60.17,-64.22,514855.0,0.03,-0.02,-1.02,-0.24,-0.24,-0.12,14.1,60.17,-64.22,0.0,0.0,0.0,0.0,0.0,0.0,0.0,0.0,0.0,0.0,0.0,0.0,0.0,0.0,0.0,0.0,0.0,0.0,0.0,0.0,0.0,0.0
,,95648.929018,0.9474632740020752,0.0,0.0,0.0,0.0,0.0,0.0,0.0,0.0,0.0,0.0,0.0,514863.0,0.01,-0.02,-1.01,-0.06,-0.12,0.0,13.8,60.17,-64.97,514872.0,0.03,-0.02,-1.02,-0.18,-0.06,0.06,13.8,59.11,-64.97,0.0,0.0,0.0,0.0,0.0,0.0,0.0,0.0,0.0,0.0,0.0,0.0,0.0,0.0,0.0,0.0,0.0,0.0,0.0,0.0,0.0,0.0
,,95648.946511,0.9649813175201416,0.0,0.0,0.0,0.0,0.0,0.0,0.0,0.0,0.0,0.0,0.0,514881.0,0.02,-0.02,-1.02,-0.18,-0.06,-0.06,15.15,60.17,-65.57,514889.0,0.02,-0.02,-1.01,-0.06,0.0,0.0,14.1,59.11,-65.27,0.0,0.0,0.0,0.0,0.0,0.0,0.0,0.0,0.0,0.0,0.0,0.0,0.0,0.0,0.0,0.0,0.0,0.0,0.0,0.0,0.0,0.0
,,95648.963882,0.9823291301727295,0.0,0.0,0.0,0.0,0.0,0.0,0.0,0.0,0.0,0.0,0.0,514898.0,0.03,-0.01,-1.01,-0.24,-0.06,0.0,15.3,59.41,-65.12,514907.0,0.04,-0.02,-1.02,-0.18,-0.12,-0.06,13.35,59.11,-65.57,0.0,0.0,0.0,0.0,0.0,0.0,0.0,0.0,0.0,0.0,0.0,0.0,0.0,0.0,0.0,0.0,0.0,0.0,0.0,0.0,0.0,0.0
,,95649.014771,1.0332272052764893,0.0,0.0,0.0,0.0,0.0,0.0,0.0,0.0,0.0,0.0,0.0,514915.0,0.02,-0.02,-1.02,-0.24,-0.18,-0.06,13.95,60.47,-64.37,514957.0,0.02,-0.01,-1.02,-0.3,-0.06,-0.12,17.1,59.71,-64.37,0.0,0.0,0.0,0.0,0.0,0.0,0.0,0.0,0.0,0.0,0.0,0.0,0.0,0.0,0.0,0.0,0.0,0.0,0.0,0.0,0.0,0.0
,,95649.032279,1.0507283210754395,0.0,0.0,0.0,0.0,0.0,0.0,0.0,0.0,0.0,0.0,0.0,514966.0,0.03,-0.01,-1.01,-0.3,-0.18,-0.12,14.7,60.02,-64.37,514975.0,0.02,-0.01,-1.01,-0.24,-0.18,-0.06,14.7,60.02,-64.37,0.0,0.0,0.0,0.0,0.0,0.0,0.0,0.0,0.0,0.0,0.0,0.0,0.0,0.0,0.0,0.0,0.0,0.0,0.0,0.0,0.0,0.0
,,95649.04953,1.0679936408996582,0.0,0.0,0.0,0.0,0.0,0.0,0.0,0.0,0.0,0.0,0.0,514984.0,0.03,-0.0,-1.01,-0.18,-0.18,-0.06,14.7,60.47,-64.07,514993.0,0.01,0.0,-1.01,-0.18,-0.18,-0.06,13.8,60.17,-64.67,0.0,0.0,0.0,0.0,0.0,0.0,0.0,0.0,0.0,0.0,0.0,0.0,0.0,0.0,0.0,0.0,0.0,0.0,0.0,0.0,0.0,0.0
,,95649.066428,1.084876298904419,0.0,0.0,0.0,0.0,0.0,0.0,0.0,0.0,0.0,0.0,0.0,515001.0,0.02,-0.01,-1.01,-0.12,-0.12,0.0,13.35,59.86,-64.97,515010.0,0.02,-0.01,-1.01,0.0,0.0,0.0,14.1,59.56,-64.97,0.0,0.0,0.0,0.0,0.0,0.0,0.0,0.0,0.0,0.0,0.0,0.0,0.0,0.0,0.0,0.0,0.0,0.0,0.0,0.0,0.0,0.0
,,95649.083637,1.1020841598510742,0.0,0.0,0.0,0.0,0.0,0.0,0.0,0.0,0.0,0.0,0.0,515018.0,0.03,-0.01,-1.02,-0.06,-0.12,-0.12,13.8,59.11,-64.67,515027.0,0.02,-0.02,-1.01,0.12,0.0,0.0,13.95,60.02,-64.82,0.0,0.0,0.0,0.0,0.0,0.0,0.0,0.0,0.0,0.0,0.0,0.0,0.0,0.0,0.0,0.0,0.0,0.0,0.0,0.0,0.0,0.0
,,95649.101422,1.1198675632476807,0.0,0.0,0.0,0.0,0.0,0.0,0.0,0.0,0.0,0.0,0.0,515036.0,0.02,-0.02,-1.01,0.18,0.12,-0.06,13.65,57.91,-64.37,515044.0,0.03,-0.03,-1.02,0.06,0.12,-0.06,13.65,57.91,-64.37,0.0,0.0,0.0,0.0,0.0,0.0,0.0,0.0,0.0,0.0,0.0,0.0,0.0,0.0,0.0,0.0,0.0,0.0,0.0,0.0,0.0,0.0
,,95649.118915,1.1373622417449951,0.0,0.0,0.0,0.0,0.0,0.0,0.0,0.0,0.0,0.0,0.0,515053.0,0.02,-0.02,-1.01,-0.06,-0.06,-0.06,13.35,59.11,-66.02,515062.0,0.03,-0.03,-1.02,-0.06,-0.12,0.0,14.25,58.66,-64.07,0.0,0.0,0.0,0.0,0.0,0.0,0.0,0.0,0.0,0.0,0.0,0.0,0.0,0.0,0.0,0.0,0.0,0.0,0.0,0.0,0.0,0.0
,,95649.173405,1.191854476928711,0.0,0.0,0.0,0.0,0.0,0.0,0.0,0.0,0.0,0.0,0.0,515070.0,0.03,-0.02,-1.01,-0.12,-0.06,0.12,14.85,59.86,-64.97,515116.0,0.02,-0.02,-1.0,-0.06,-0.24,-0.06,15.75,59.71,-62.12,0.0,0.0,0.0,0.0,0.0,0.0,0.0,0.0,0.0,0.0,0.0,0.0,0.0,0.0,0.0,0.0,0.0,0.0,0.0,0.0,0.0,0.0
,,95649.191082,1.209547996520996,0.0,0.0,0.0,0.0,0.0,0.0,0.0,0.0,0.0,0.0,0.0,515125.0,0.02,-0.02,-1.01,-0.12,-0.12,-0.06,15.75,59.71,-62.12,515134.0,0.02,-0.02,-1.02,-0.06,-0.06,0.0,13.8,58.81,-65.57,0.0,0.0,0.0,0.0,0.0,0.0,0.0,0.0,0.0,0.0,0.0,0.0,0.0,0.0,0.0,0.0,0.0,0.0,0.0,0.0,0.0,0.0
,,95649.208279,1.2267279624938965,0.0,0.0,0.0,0.0,0.0,0.0,0.0,0.0,0.0,0.0,0.0,515142.0,0.02,-0.01,-1.01,-0.06,-0.06,-0.06,12.75,60.92,-64.67,515151.0,0.03,-0.02,-1.02,0.43,0.24,-0.06,14.85,59.86,-66.32,0.0,0.0,0.0,0.0,0.0,0.0,0.0,0.0,0.0,0.0,0.0,0.0,0.0,0.0,0.0,0.0,0.0,0.0,0.0,0.0,0.0,0.0
,,95649.225864,1.244321346282959,0.0,0.0,0.0,0.0,0.0,0.0,0.0,0.0,0.0,0.0,0.0,515160.0,0.02,-0.01,-1.02,0.49,0.3,-0.12,15.75,59.71,-65.42,515169.0,0.02,-0.02,-1.03,-0.12,-0.12,-0.06,13.35,59.56,-62.87,0.0,0.0,0.0,0.0,0.0,0.0,0.0,0.0,0.0,0.0,0.0,0.0,0.0,0.0,0.0,0.0,0.0,0.0,0.0,0.0,0.0,0.0
,,95649.243229,1.2616691589355469,0.0,0.0,0.0,0.0,0.0,0.0,0.0,0.0,0.0,0.0,0.0,515178.0,0.02,-0.02,-1.02,-0.3,-0.24,-0.06,15.45,58.51,-63.92,515186.0,0.03,-0.02,-1.03,-0.37,-0.24,-0.12,14.1,59.11,-63.62,0.0,0.0,0.0,0.0,0.0,0.0,0.0,0.0,0.0,0.0,0.0,0.0,0.0,0.0,0.0,0.0,0.0,0.0,0.0,0.0,0.0,0.0
,,95649.260487,1.2789318561553955,0.0,0.0,0.0,0.0,0.0,0.0,0.0,0.0,0.0,0.0,0.0,515195.0,0.02,-0.02,-1.0,-0.12,-0.3,0.0,14.1,59.11,-63.62,515204.0,0.02,-0.02,-1.0,0.24,0.12,0.06,15.0,59.41,-63.02,0.0,0.0,0.0,0.0,0.0,0.0,0.0,0.0,0.0,0.0,0.0,0.0,0.0,0.0,0.0,0.0,0.0,0.0,0.0,0.0,0.0,0.0
,,95649.279946,1.2983996868133545,0.0,0.0,0.0,0.0,0.0,0.0,0.0,0.0,0.0,0.0,0.0,515212.0,0.02,-0.02,-1.01,0.24,0.12,-0.12,13.8,58.06,-64.67,515221.0,0.02,-0.01,-1.02,0.06,-0.18,-0.06,15.0,59.71,-63.77,0.0,0.0,0.0,0.0,0.0,0.0,0.0,0.0,0.0,0.0,0.0,0.0,0.0,0.0,0.0,0.0,0.0,0.0,0.0,0.0,0.0,0.0
,,95649.333342,1.351804494857788,0.0,0.0,0.0,0.0,0.0,0.0,0.0,0.0,0.0,0.0,0.0,515230.0,0.02,-0.01,-1.02,-0.12,-0.37,0.06,13.8,59.86,-63.92,515276.0,0.02,-0.03,-1.02,-0.12,-0.12,-0.06,14.7,59.71,-62.72,0.0,0.0,0.0,0.0,0.0,0.0,0.0,0.0,0.0,0.0,0.0,0.0,0.0,0.0,0.0,0.0,0.0,0.0,0.0,0.0,0.0,0.0
,,95649.351361,1.369812250137329,0.0,0.0,0.0,0.0,0.0,0.0,0.0,0.0,0.0,0.0,0.0,515285.0,0.01,-0.02,-1.02,0.18,0.12,0.12,14.7,59.71,-62.72,515294.0,0.03,-0.01,-1.01,0.43,0.06,-0.06,15.3,60.02,-65.42,0.0,0.0,0.0,0.0,0.0,0.0,0.0,0.0,0.0,0.0,0.0,0.0,0.0,0.0,0.0,0.0,0.0,0.0,0.0,0.0,0.0,0.0
,,95649.369606,1.3880493640899658,0.0,0.0,0.0,0.0,0.0,0.0,0.0,0.0,0.0,0.0,0.0,515304.0,0.02,-0.0,-1.01,0.24,0.12,-0.06,14.1,59.56,-63.32,515313.0,0.02,-0.01,-1.02,0.06,0.12,0.0,13.2,61.07,-64.82,0.0,0.0,0.0,0.0,0.0,0.0,0.0,0.0,0.0,0.0,0.0,0.0,0.0,0.0,0.0,0.0,0.0,0.0,0.0,0.0,0.0,0.0
,,95649.387656,1.4061026573181152,0.0,0.0,0.0,0.0,0.0,0.0,0.0,0.0,0.0,0.0,0.0,515322.0,0.02,-0.0,-1.0,0.24,0.06,0.06,14.1,60.92,-63.92,515331.0,0.01,-0.02,-1.04,0.37,0.12,0.0,13.35,60.92,-64.22,0.0,0.0,0.0,0.0,0.0,0.0,0.0,0.0,0.0,0.0,0.0,0.0,0.0,0.0,0.0,0.0,0.0,0.0,0.0,0.0,0.0,0.0
,,95649.406034,1.4244966506958008,0.0,0.0,0.0,0.0,0.0,0.0,0.0,0.0,0.0,0.0,0.0,515340.0,0.02,-0.02,-1.01,0.24,0.06,0.0,15.0,59.41,-65.12,515349.0,0.02,-0.01,-1.0,0.3,0.24,0.0,14.1,59.86,-64.22,0.0,0.0,0.0,0.0,0.0,0.0,0.0,0.0,0.0,0.0,0.0,0.0,0.0,0.0,0.0,0.0,0.0,0.0,0.0,0.0,0.0,0.0
,,95649.42421,1.442692756652832,0.0,0.0,0.0,0.0,0.0,0.0,0.0,0.0,0.0,0.0,0.0,515358.0,0.02,-0.02,-1.01,0.3,0.0,-0.06,13.95,59.71,-64.82,515367.0,0.02,-0.02,-1.03,0.12,-0.18,0.0,14.4,59.56,-63.92,0.0,0.0,0.0,0.0,0.0,0.0,0.0,0.0,0.0,0.0,0.0,0.0,0.0,0.0,0.0,0.0,0.0,0.0,0.0,0.0,0.0,0.0
,,95649.442338,1.4608442783355713,0.0,0.0,0.0,0.0,0.0,0.0,0.0,0.0,0.0,0.0,0.0,515376.0,0.02,-0.01,-1.02,0.06,-0.06,-0.12,13.2,58.96,-65.12,515385.0,0.03,-0.02,-1.01,0.24,0.0,0.06,14.25,58.66,-65.42,0.0,0.0,0.0,0.0,0.0,0.0,0.0,0.0,0.0,0.0,0.0,0.0,0.0,0.0,0.0,0.0,0.0,0.0,0.0,0.0,0.0,0.0
,,95649.497075,1.515526294708252,0.0,0.0,0.0,0.0,0.0,0.0,0.0,0.0,0.0,0.0,0.0,515394.0,0.03,-0.02,-1.02,0.3,0.06,0.12,14.25,58.66,-65.42,515440.0,0.03,-0.02,-1.03,0.37,0.0,0.0,15.75,61.52,-63.02,0.0,0.0,0.0,0.0,0.0,0.0,0.0,0.0,0.0,0.0,0.0,0.0,0.0,0.0,0.0,0.0,0.0,0.0,0.0,0.0,0.0,0.0
,,95649.515366,1.533815860748291,0.0,0.0,0.0,0.0,0.0,0.0,0.0,0.0,0.0,0.0,0.0,515449.0,0.03,-0.02,-1.02,0.18,0.06,0.12,14.25,58.66,-64.82,515458.0,0.02,-0.01,-1.02,0.24,0.06,0.06,14.85,59.11,-65.27,0.0,0.0,0.0,0.0,0.0,0.0,0.0,0.0,0.0,0.0,0.0,0.0,0.0,0.0,0.0,0.0,0.0,0.0,0.0,0.0,0.0,0.0
,,95649.533863,1.5523266792297363,0.0,0.0,0.0,0.0,0.0,0.0,0.0,0.0,0.0,0.0,0.0,515467.0,0.02,-0.01,-1.01,0.3,0.18,0.0,14.4,59.56,-63.92,515476.0,0.03,-0.03,-1.01,0.0,0.18,-0.06,14.4,60.17,-64.67,0.0,0.0,0.0,0.0,0.0,0.0,0.0,0.0,0.0,0.0,0.0,0.0,0.0,0.0,0.0,0.0,0.0,0.0,0.0,0.0,0.0,0.0
,,95649.551287,1.5697243213653564,0.0,0.0,0.0,0.0,0.0,0.0,0.0,0.0,0.0,0.0,0.0,515485.0,0.03,-0.03,-1.02,0.06,-0.06,-0.06,15.15,58.81,-64.97,515494.0,0.02,-0.02,-1.02,-0.06,-0.06,0.18,15.15,58.81,-64.97,0.0,0.0,0.0,0.0,0.0,0.0,0.0,0.0,0.0,0.0,0.0,0.0,0.0,0.0,0.0,0.0,0.0,0.0,0.0,0.0,0.0,0.0
,,95649.569344,1.5877995491027832,0.0,0.0,0.0,0.0,0.0,0.0,0.0,0.0,0.0,0.0,0.0,515504.0,0.02,-0.01,-1.01,0.24,0.0,0.06,14.7,61.52,-65.42,515513.0,0.02,0.0,-0.99,1.22,0.61,0.06,13.65,60.77,-65.42,0.0,0.0,0.0,0.0,0.0,0.0,0.0,0.0,0.0,0.0,0.0,0.0,0.0,0.0,0.0,0.0,0.0,0.0,0.0,0.0,0.0,0.0
,,95649.588436,1.606886625289917,0.0,0.0,0.0,0.0,0.0,0.0,0.0,0.0,0.0,0.0,0.0,515522.0,0.04,-0.0,-1.03,1.4,0.61,0.24,12.9,58.96,-65.87,515531.0,0.01,-0.01,-1.03,0.12,-0.06,0.3,12.9,59.71,-63.47,0.0,0.0,0.0,0.0,0.0,0.0,0.0,0.0,0.0,0.0,0.0,0.0,0.0,0.0,0.0,0.0,0.0,0.0,0.0,0.0,0.0,0.0
,,95649.60637,1.6248600482940674,0.0,0.0,0.0,0.0,0.0,0.0,0.0,0.0,0.0,0.0,0.0,515540.0,0.03,-0.02,-1.01,0.37,0.55,0.12,14.4,59.11,-64.22,515549.0,0.03,-0.03,-1.02,-0.18,-0.61,-0.12,14.1,59.56,-64.67,0.0,0.0,0.0,0.0,0.0,0.0,0.0,0.0,0.0,0.0,0.0,0.0,0.0,0.0,0.0,0.0,0.0,0.0,0.0,0.0,0.0,0.0
,,95649.668462,1.686913251876831,0.0,0.0,0.0,0.0,0.0,0.0,0.0,0.0,0.0,0.0,0.0,515559.0,0.02,-0.02,-1.03,-0.3,-1.22,-0.18,13.65,59.71,-64.82,515611.0,0.03,-0.03,-0.99,0.3,0.43,-0.3,16.95,60.62,-63.92,0.0,0.0,0.0,0.0,0.0,0.0,0.0,0.0,0.0,0.0,0.0,0.0,0.0,0.0,0.0,0.0,0.0,0.0,0.0,0.0,0.0,0.0
,,95649.686956,1.7054240703582764,0.0,0.0,0.0,0.0,0.0,0.0,0.0,0.0,0.0,0.0,0.0,515620.0,0.03,-0.02,-0.97,0.55,0.73,-0.18,14.1,59.56,-64.22,515630.0,0.03,-0.02,-1.0,0.24,-0.43,0.06,14.7,58.66,-64.82,0.0,0.0,0.0,0.0,0.0,0.0,0.0,0.0,0.0,0.0,0.0,0.0,0.0,0.0,0.0,0.0,0.0,0.0,0.0,0.0,0.0,0.0
,,95649.705124,1.7235655784606934,0.0,0.0,0.0,0.0,0.0,0.0,0.0,0.0,0.0,0.0,0.0,515639.0,0.03,-0.04,-1.05,0.24,-0.12,0.0,12.6,59.41,-65.42,515648.0,0.03,-0.03,-1.05,0.06,0.55,0.12,13.05,58.06,-66.02,0.0,0.0,0.0,0.0,0.0,0.0,0.0,0.0,0.0,0.0,0.0,0.0,0.0,0.0,0.0,0.0,0.0,0.0,0.0,0.0,0.0,0.0
,,95649.723214,1.7416691780090332,0.0,0.0,0.0,0.0,0.0,0.0,0.0,0.0,0.0,0.0,0.0,515657.0,0.02,-0.03,-1.03,0.18,0.24,0.06,14.4,59.56,-65.57,515666.0,0.03,-0.02,-1.01,0.06,-0.18,0.0,14.85,59.56,-64.97,0.0,0.0,0.0,0.0,0.0,0.0,0.0,0.0,0.0,0.0,0.0,0.0,0.0,0.0,0.0,0.0,0.0,0.0,0.0,0.0,0.0,0.0
,,95649.741863,1.7603085041046143,0.0,0.0,0.0,0.0,0.0,0.0,0.0,0.0,0.0,0.0,0.0,515675.0,0.03,-0.02,-1.0,0.06,0.3,-0.24,13.8,60.17,-64.22,515685.0,0.02,-0.01,-1.0,-0.18,-0.18,-0.24,13.8,60.17,-64.22,0.0,0.0,0.0,0.0,0.0,0.0,0.0,0.0,0.0,0.0,0.0,0.0,0.0,0.0,0.0,0.0,0.0,0.0,0.0,0.0,0.0,0.0
,,95649.759675,1.7781131267547607,0.0,0.0,0.0,0.0,0.0,0.0,0.0,0.0,0.0,0.0,0.0,515694.0,0.02,-0.0,-1.02,-0.06,-0.12,-0.24,13.2,60.47,-65.42,515703.0,0.02,-0.01,-1.01,0.0,-0.06,-0.12,15.0,60.02,-64.37,0.0,0.0,0.0,0.0,0.0,0.0,0.0,0.0,0.0,0.0,0.0,0.0,0.0,0.0,0.0,0.0,0.0,0.0,0.0,0.0,0.0,0.0
,,95649.778061,1.796504020690918,0.0,0.0,0.0,0.0,0.0,0.0,0.0,0.0,0.0,0.0,0.0,515712.0,0.03,-0.02,-1.02,0.43,0.18,0.12,14.25,59.41,-63.77,515721.0,0.02,-0.02,-1.01,0.37,0.3,0.12,14.7,58.96,-63.47,0.0,0.0,0.0,0.0,0.0,0.0,0.0,0.0,0.0,0.0,0.0,0.0,0.0,0.0,0.0,0.0,0.0,0.0,0.0,0.0,0.0,0.0
,,95649.831639,1.8500914573669434,0.0,0.0,0.0,0.0,0.0,0.0,0.0,0.0,0.0,0.0,0.0,515730.0,0.02,-0.01,-1.01,0.37,0.06,0.18,13.95,59.71,-64.07,515775.0,0.04,-0.01,-1.01,0.0,-0.37,0.0,15.45,59.11,-62.27,0.0,0.0,0.0,0.0,0.0,0.0,0.0,0.0,0.0,0.0,0.0,0.0,0.0,0.0,0.0,0.0,0.0,0.0,0.0,0.0,0.0,0.0
,,95649.849703,1.8681707382202148,0.0,0.0,0.0,0.0,0.0,0.0,0.0,0.0,0.0,0.0,0.0,515784.0,0.02,-0.02,-1.01,-0.24,-0.43,0.0,14.7,58.96,-64.82,515793.0,0.02,-0.03,-1.01,-0.24,-0.3,-0.06,13.65,59.41,-64.82,0.0,0.0,0.0,0.0,0.0,0.0,0.0,0.0,0.0,0.0,0.0,0.0,0.0,0.0,0.0,0.0,0.0,0.0,0.0,0.0,0.0,0.0
,,95649.867947,1.8864097595214844,0.0,0.0,0.0,0.0,0.0,0.0,0.0,0.0,0.0,0.0,0.0,515802.0,0.04,-0.03,-1.03,-0.12,-0.37,-0.12,13.35,60.17,-64.67,515811.0,0.03,-0.03,-1.01,0.3,0.12,0.06,13.2,59.41,-64.82,0.0,0.0,0.0,0.0,0.0,0.0,0.0,0.0,0.0,0.0,0.0,0.0,0.0,0.0,0.0,0.0,0.0,0.0,0.0,0.0,0.0,0.0
,,95649.885412,1.9038488864898682,0.0,0.0,0.0,0.0,0.0,0.0,0.0,0.0,0.0,0.0,0.0,515820.0,0.04,-0.03,-1.01,0.3,0.0,0.0,14.4,58.51,-65.57,515829.0,0.02,-0.03,-1.02,0.0,0.06,0.0,15.15,59.56,-64.97,0.0,0.0,0.0,0.0,0.0,0.0,0.0,0.0,0.0,0.0,0.0,0.0,0.0,0.0,0.0,0.0,0.0,0.0,0.0,0.0,0.0,0.0
,,95649.903798,1.9222524166107178,0.0,0.0,0.0,0.0,0.0,0.0,0.0,0.0,0.0,0.0,0.0,515838.0,0.03,-0.02,-1.02,0.0,0.12,0.06,15.45,59.86,-64.22,515847.0,0.04,-0.02,-1.0,-0.06,-0.06,-0.12,14.1,58.81,-64.67,0.0,0.0,0.0,0.0,0.0,0.0,0.0,0.0,0.0,0.0,0.0,0.0,0.0,0.0,0.0,0.0,0.0,0.0,0.0,0.0,0.0,0.0
,,95649.922472,1.9409220218658447,0.0,0.0,0.0,0.0,0.0,0.0,0.0,0.0,0.0,0.0,0.0,515856.0,0.03,-0.02,-1.02,-0.24,-0.3,-0.18,13.65,58.96,-64.07,515865.0,0.03,-0.01,-1.02,-0.3,-0.18,-0.12,12.9,58.36,-64.82,0.0,0.0,0.0,0.0,0.0,0.0,0.0,0.0,0.0,0.0,0.0,0.0,0.0,0.0,0.0,0.0,0.0,0.0,0.0,0.0,0.0,0.0
,,95649.940452,1.9588911533355713,0.0,0.0,0.0,0.0,0.0,0.0,0.0,0.0,0.0,0.0,0.0,515875.0,0.02,-0.0,-1.02,-0.06,-0.18,0.0,12.9,58.36,-64.82,515884.0,0.02,-0.01,-1.02,-0.18,-0.24,-0.06,14.1,60.92,-65.57,0.0,0.0,0.0,0.0,0.0,0.0,0.0,0.0,0.0,0.0,0.0,0.0,0.0,0.0,0.0,0.0,0.0,0.0,0.0,0.0,0.0,0.0
,,95649.993889,2.0123488903045654,0.0,0.0,0.0,0.0,0.0,0.0,0.0,0.0,0.0,0.0,0.0,515893.0,0.02,-0.01,-1.01,-0.12,-0.12,-0.06,14.1,59.56,-65.57,515937.0,0.02,-0.01,-1.01,-0.12,0.0,0.06,15.45,58.81,-63.32,0.0,0.0,0.0,0.0,0.0,0.0,0.0,0.0,0.0,0.0,0.0,0.0,0.0,0.0,0.0,0.0,0.0,0.0,0.0,0.0,0.0,0.0
,,95650.012208,2.030660629272461,0.0,0.0,0.0,0.0,0.0,0.0,0.0,0.0,0.0,0.0,0.0,515946.0,0.01,-0.01,-1.02,-0.12,-0.06,-0.06,13.2,60.02,-65.87,515955.0,0.02,-0.01,-1.02,0.06,-0.06,-0.06,13.2,60.02,-65.87,0.0,0.0,0.0,0.0,0.0,0.0,0.0,0.0,0.0,0.0,0.0,0.0,0.0,0.0,0.0,0.0,0.0,0.0,0.0,0.0,0.0,0.0
,,95650.030051,2.0485124588012695,0.0,0.0,0.0,0.0,0.0,0.0,0.0,0.0,0.0,0.0,0.0,515964.0,0.02,-0.01,-1.02,0.06,-0.06,-0.06,13.2,59.41,-63.77,515973.0,0.02,-0.01,-1.02,0.12,0.0,-0.12,14.4,58.81,-64.22,0.0,0.0,0.0,0.0,0.0,0.0,0.0,0.0,0.0,0.0,0.0,0.0,0.0,0.0,0.0,0.0,0.0,0.0,0.0,0.0,0.0,0.0
,,95650.048249,2.0666940212249756,0.0,0.0,0.0,0.0,0.0,0.0,0.0,0.0,0.0,0.0,0.0,515982.0,0.01,-0.01,-1.01,0.24,-0.12,-0.06,14.85,59.56,-65.27,515992.0,0.02,-0.02,-1.01,0.0,0.06,0.0,12.75,58.81,-63.92,0.0,0.0,0.0,0.0,0.0,0.0,0.0,0.0,0.0,0.0,0.0,0.0,0.0,0.0,0.0,0.0,0.0,0.0,0.0,0.0,0.0,0.0
,,95650.066196,2.0846517086029053,0.0,0.0,0.0,0.0,0.0,0.0,0.0,0.0,0.0,0.0,0.0,516000.0,0.03,-0.02,-1.01,-0.06,-0.06,0.12,14.4,60.17,-64.67,516010.0,0.03,-0.03,-1.01,0.0,0.0,0.06,14.7,59.71,-64.07,0.0,0.0,0.0,0.0,0.0,0.0,0.0,0.0,0.0,0.0,0.0,0.0,0.0,0.0,0.0,0.0,0.0,0.0,0.0,0.0,0.0,0.0
,,95650.0847,2.103156805038452,0.0,0.0,0.0,0.0,0.0,0.0,0.0,0.0,0.0,0.0,0.0,516019.0,0.03,-0.03,-1.02,0.18,0.0,0.0,14.85,58.51,-64.67,516027.0,0.04,-0.02,-1.01,0.12,-0.06,-0.12,13.8,60.17,-63.62,0.0,0.0,0.0,0.0,0.0,0.0,0.0,0.0,0.0,0.0,0.0,0.0,0.0,0.0,0.0,0.0,0.0,0.0,0.0,0.0,0.0,0.0
,,95650.102392,2.1208839416503906,0.0,0.0,0.0,0.0,0.0,0.0,0.0,0.0,0.0,0.0,0.0,516037.0,0.03,-0.03,-1.01,0.0,-0.12,-0.12,15.45,59.86,-64.97,516046.0,0.02,-0.02,-1.01,-0.12,-0.12,0.0,13.05,60.62,-64.67,0.0,0.0,0.0,0.0,0.0,0.0,0.0,0.0,0.0,0.0,0.0,0.0,0.0,0.0,0.0,0.0,0.0,0.0,0.0,0.0,0.0,0.0
,,95650.156342,2.174809694290161,0.0,0.0,0.0,0.0,0.0,0.0,0.0,0.0,0.0,0.0,0.0,516055.0,0.02,-0.02,-1.01,-0.12,-0.24,-0.06,13.05,60.62,-64.67,516099.0,0.03,-0.02,-1.02,-0.18,-0.24,0.06,15.3,59.41,-63.47,0.0,0.0,0.0,0.0,0.0,0.0,0.0,0.0,0.0,0.0,0.0,0.0,0.0,0.0,0.0,0.0,0.0,0.0,0.0,0.0,0.0,0.0
,,95650.174863,2.1933135986328125,0.0,0.0,0.0,0.0,0.0,0.0,0.0,0.0,0.0,0.0,0.0,516108.0,0.02,-0.01,-1.03,-0.12,-0.06,0.06,15.0,58.66,-65.12,516118.0,0.02,-0.02,-1.01,-0.06,0.06,0.06,13.05,59.86,-64.97,0.0,0.0,0.0,0.0,0.0,0.0,0.0,0.0,0.0,0.0,0.0,0.0,0.0,0.0,0.0,0.0,0.0,0.0,0.0,0.0,0.0,0.0
,,95650.192647,2.2111010551452637,0.0,0.0,0.0,0.0,0.0,0.0,0.0,0.0,0.0,0.0,0.0,516127.0,0.02,-0.01,-1.01,0.0,0.18,0.0,13.05,59.11,-65.27,516136.0,0.02,-0.01,-1.02,0.06,0.06,-0.06,13.35,58.81,-64.22,0.0,0.0,0.0,0.0,0.0,0.0,0.0,0.0,0.0,0.0,0.0,0.0,0.0,0.0,0.0,0.0,0.0,0.0,0.0,0.0,0.0,0.0
,,95650.210795,2.2292542457580566,0.0,0.0,0.0,0.0,0.0,0.0,0.0,0.0,0.0,0.0,0.0,516145.0,0.02,-0.01,-1.02,0.0,0.0,-0.18,13.35,58.81,-64.22,516154.0,0.02,-0.01,-1.02,-0.12,-0.18,-0.06,15.0,60.47,-65.12,0.0,0.0,0.0,0.0,0.0,0.0,0.0,0.0,0.0,0.0,0.0,0.0,0.0,0.0,0.0,0.0,0.0,0.0,0.0,0.0,0.0,0.0
,,95650.228892,2.247347116470337,0.0,0.0,0.0,0.0,0.0,0.0,0.0,0.0,0.0,0.0,0.0,516163.0,0.02,-0.02,-1.03,0.0,-0.18,-0.12,14.7,60.77,-65.12,516172.0,0.03,-0.01,-1.01,0.18,-0.12,0.06,14.1,60.17,-65.27,0.0,0.0,0.0,0.0,0.0,0.0,0.0,0.0,0.0,0.0,0.0,0.0,0.0,0.0,0.0,0.0,0.0,0.0,0.0,0.0,0.0,0.0
,,95650.247309,2.2657546997070312,0.0,0.0,0.0,0.0,0.0,0.0,0.0,0.0,0.0,0.0,0.0,516181.0,0.02,-0.01,-1.01,0.06,0.0,0.12,13.95,59.41,-64.37,516190.0,0.02,-0.02,-1.01,0.06,-0.12,0.12,14.1,61.22,-64.97,0.0,0.0,0.0,0.0,0.0,0.0,0.0,0.0,0.0,0.0,0.0,0.0,0.0,0.0,0.0,0.0,0.0,0.0,0.0,0.0,0.0,0.0
,,95650.265211,2.28365159034729,0.0,0.0,0.0,0.0,0.0,0.0,0.0,0.0,0.0,0.0,0.0,516199.0,0.02,-0.01,-1.0,-0.06,-0.12,0.06,14.7,59.41,-65.87,516209.0,0.02,-0.03,-1.02,-0.06,-0.12,0.12,14.1,58.51,-63.92,0.0,0.0,0.0,0.0,0.0,0.0,0.0,0.0,0.0,0.0,0.0,0.0,0.0,0.0,0.0,0.0,0.0,0.0,0.0,0.0,0.0,0.0
,,95650.319002,2.33746337890625,0.0,0.0,0.0,0.0,0.0,0.0,0.0,0.0,0.0,0.0,0.0,516218.0,0.02,-0.01,-1.02,-0.06,-0.12,0.06,14.1,58.51,-64.67,516262.0,0.02,-0.03,-1.02,0.06,0.06,0.0,14.25,60.02,-63.77,0.0,0.0,0.0,0.0,0.0,0.0,0.0,0.0,0.0,0.0,0.0,0.0,0.0,0.0,0.0,0.0,0.0,0.0,0.0,0.0,0.0,0.0
,,95650.336771,2.3552184104919434,0.0,0.0,0.0,0.0,0.0,0.0,0.0,0.0,0.0,0.0,0.0,516271.0,0.03,-0.02,-1.02,-0.06,0.0,0.06,14.7,59.71,-63.47,516280.0,0.03,-0.03,-1.0,-0.24,-0.06,0.06,12.75,60.17,-66.02,0.0,0.0,0.0,0.0,0.0,0.0,0.0,0.0,0.0,0.0,0.0,0.0,0.0,0.0,0.0,0.0,0.0,0.0,0.0,0.0,0.0,0.0
,,95650.354969,2.373408555984497,0.0,0.0,0.0,0.0,0.0,0.0,0.0,0.0,0.0,0.0,0.0,516289.0,0.02,-0.02,-1.01,-0.3,-0.18,0.06,13.95,58.96,-65.87,516298.0,0.03,-0.03,-1.02,-0.18,-0.12,0.0,15.0,58.96,-64.37,0.0,0.0,0.0,0.0,0.0,0.0,0.0,0.0,0.0,0.0,0.0,0.0,0.0,0.0,0.0,0.0,0.0,0.0,0.0,0.0,0.0,0.0
,,95650.373502,2.3919503688812256,0.0,0.0,0.0,0.0,0.0,0.0,0.0,0.0,0.0,0.0,0.0,516307.0,0.02,-0.02,-1.02,0.0,0.06,-0.06,14.4,60.17,-63.92,516316.0,0.03,-0.01,-1.01,-0.06,-0.06,-0.18,13.65,58.66,-64.37,0.0,0.0,0.0,0.0,0.0,0.0,0.0,0.0,0.0,0.0,0.0,0.0,0.0,0.0,0.0,0.0,0.0,0.0,0.0,0.0,0.0,0.0
,,95650.391457,2.409904956817627,0.0,0.0,0.0,0.0,0.0,0.0,0.0,0.0,0.0,0.0,0.0,516326.0,0.02,-0.01,-1.01,-0.06,-0.12,0.0,14.4,58.81,-63.92,516335.0,0.02,-0.02,-1.02,-0.18,-0.18,-0.06,14.4,58.81,-63.92,0.0,0.0,0.0,0.0,0.0,0.0,0.0,0.0,0.0,0.0,0.0,0.0,0.0,0.0,0.0,0.0,0.0,0.0,0.0,0.0,0.0,0.0
,,95650.409467,2.427922487258911,0.0,0.0,0.0,0.0,0.0,0.0,0.0,0.0,0.0,0.0,0.0,516344.0,0.02,-0.02,-1.01,-0.06,-0.12,-0.06,13.05,58.81,-63.62,516353.0,0.02,-0.01,-1.01,0.0,0.0,0.0,15.0,59.41,-64.82,0.0,0.0,0.0,0.0,0.0,0.0,0.0,0.0,0.0,0.0,0.0,0.0,0.0,0.0,0.0,0.0,0.0,0.0,0.0,0.0,0.0,0.0
,,95650.427949,2.446394920349121,0.0,0.0,0.0,0.0,0.0,0.0,0.0,0.0,0.0,0.0,0.0,516362.0,0.02,-0.01,-1.02,0.12,0.18,-0.06,15.15,59.11,-64.67,516371.0,0.02,-0.02,-1.02,0.18,0.06,-0.06,13.35,59.86,-65.27,0.0,0.0,0.0,0.0,0.0,0.0,0.0,0.0,0.0,0.0,0.0,0.0,0.0,0.0,0.0,0.0,0.0,0.0,0.0,0.0,0.0,0.0
,,95650.481544,2.500006675720215,0.0,0.0,0.0,0.0,0.0,0.0,0.0,0.0,0.0,0.0,0.0,516380.0,0.02,-0.02,-1.02,0.24,0.0,-0.12,14.7,58.96,-65.12,516425.0,0.03,-0.02,-1.02,0.0,0.06,0.0,16.5,59.11,-62.57,0.0,0.0,0.0,0.0,0.0,0.0,0.0,0.0,0.0,0.0,0.0,0.0,0.0,0.0,0.0,0.0,0.0,0.0,0.0,0.0,0.0,0.0
,,95650.49979,2.518251419067383,0.0,0.0,0.0,0.0,0.0,0.0,0.0,0.0,0.0,0.0,0.0,516434.0,0.03,-0.02,-1.01,0.06,0.06,0.06,15.45,60.92,-65.57,516443.0,0.02,-0.02,-1.02,0.0,-0.06,-0.06,13.8,59.86,-65.57,0.0,0.0,0.0,0.0,0.0,0.0,0.0,0.0,0.0,0.0,0.0,0.0,0.0,0.0,0.0,0.0,0.0,0.0,0.0,0.0,0.0,0.0
,,95650.517935,2.5363855361938477,0.0,0.0,0.0,0.0,0.0,0.0,0.0,0.0,0.0,0.0,0.0,516452.0,0.03,-0.02,-1.0,-0.06,-0.18,-0.06,13.65,58.66,-66.17,516461.0,0.03,-0.03,-1.02,-0.18,-0.18,-0.12,14.4,59.56,-65.27,0.0,0.0,0.0,0.0,0.0,0.0,0.0,0.0,0.0,0.0,0.0,0.0,0.0,0.0,0.0,0.0,0.0,0.0,0.0,0.0,0.0,0.0
,,95650.536201,2.554645538330078,0.0,0.0,0.0,0.0,0.0,0.0,0.0,0.0,0.0,0.0,0.0,516470.0,0.03,-0.03,-1.01,-0.18,-0.06,0.0,14.7,59.41,-64.82,516479.0,0.02,-0.02,-1.02,-0.06,-0.12,0.06,15.0,59.71,-64.37,0.0,0.0,0.0,0.0,0.0,0.0,0.0,0.0,0.0,0.0,0.0,0.0,0.0,0.0,0.0,0.0,0.0,0.0,0.0,0.0,0.0,0.0
,,95650.554374,2.5728776454925537,0.0,0.0,0.0,0.0,0.0,0.0,0.0,0.0,0.0,0.0,0.0,516488.0,0.02,-0.02,-1.02,-0.12,-0.06,0.0,14.25,59.41,-64.37,516497.0,0.03,-0.02,-1.01,-0.06,-0.06,-0.06,14.25,60.02,-64.37,0.0,0.0,0.0,0.0,0.0,0.0,0.0,0.0,0.0,0.0,0.0,0.0,0.0,0.0,0.0,0.0,0.0,0.0,0.0,0.0,0.0,0.0
,,95650.572168,2.5906264781951904,0.0,0.0,0.0,0.0,0.0,0.0,0.0,0.0,0.0,0.0,0.0,516507.0,0.03,-0.02,-1.01,0.0,0.0,0.0,13.65,60.02,-66.47,516515.0,0.02,-0.01,-1.02,-0.06,-0.12,0.0,13.05,59.86,-65.57,0.0,0.0,0.0,0.0,0.0,0.0,0.0,0.0,0.0,0.0,0.0,0.0,0.0,0.0,0.0,0.0,0.0,0.0,0.0,0.0,0.0,0.0
,,95650.589856,2.6083014011383057,0.0,0.0,0.0,0.0,0.0,0.0,0.0,0.0,0.0,0.0,0.0,516524.0,0.02,-0.02,-1.02,0.0,0.0,-0.12,13.05,59.86,-65.57,516533.0,0.02,-0.02,-1.02,0.0,0.0,0.0,15.3,59.71,-63.77,0.0,0.0,0.0,0.0,0.0,0.0,0.0,0.0,0.0,0.0,0.0,0.0,0.0,0.0,0.0,0.0,0.0,0.0,0.0,0.0,0.0,0.0
,,95650.639453,2.657881498336792,0.0,0.0,0.0,0.0,0.0,0.0,0.0,0.0,0.0,0.0,0.0,516542.0,0.02,-0.01,-1.01,-0.06,-0.12,0.0,13.05,59.56,-65.57,516583.0,0.02,-0.02,-1.02,-0.06,-0.06,0.06,16.5,59.56,-64.22,0.0,0.0,0.0,0.0,0.0,0.0,0.0,0.0,0.0,0.0,0.0,0.0,0.0,0.0,0.0,0.0,0.0,0.0,0.0,0.0,0.0,0.0
,,95650.658129,2.6765782833099365,0.0,0.0,0.0,0.0,0.0,0.0,0.0,0.0,0.0,0.0,0.0,516592.0,0.02,-0.01,-1.02,-0.06,-0.18,0.0,14.7,59.71,-63.47,516601.0,0.03,-0.02,-1.02,0.12,-0.12,0.0,14.4,59.86,-65.27,0.0,0.0,0.0,0.0,0.0,0.0,0.0,0.0,0.0,0.0,0.0,0.0,0.0,0.0,0.0,0.0,0.0,0.0,0.0,0.0,0.0,0.0
,,95650.675938,2.6943840980529785,0.0,0.0,0.0,0.0,0.0,0.0,0.0,0.0,0.0,0.0,0.0,516610.0,0.02,-0.02,-1.01,0.12,0.06,0.0,14.25,59.71,-63.47,516619.0,0.03,-0.02,-1.02,0.24,0.06,0.0,13.65,58.96,-64.37,0.0,0.0,0.0,0.0,0.0,0.0,0.0,0.0,0.0,0.0,0.0,0.0,0.0,0.0,0.0,0.0,0.0,0.0,0.0,0.0,0.0,0.0
,,95650.693867,2.7123141288757324,0.0,0.0,0.0,0.0,0.0,0.0,0.0,0.0,0.0,0.0,0.0,516628.0,0.03,-0.02,-1.01,0.0,-0.06,-0.12,13.8,60.17,-64.22,516637.0,0.03,-0.03,-1.02,0.06,-0.12,0.0,13.8,58.81,-64.22,0.0,0.0,0.0,0.0,0.0,0.0,0.0,0.0,0.0,0.0,0.0,0.0,0.0,0.0,0.0,0.0,0.0,0.0,0.0,0.0,0.0,0.0
,,95650.712255,2.730703830718994,0.0,0.0,0.0,0.0,0.0,0.0,0.0,0.0,0.0,0.0,0.0,516646.0,0.02,-0.02,-1.01,-0.06,-0.06,0.06,13.8,59.86,-64.97,516655.0,0.02,-0.02,-1.01,-0.06,-0.12,-0.12,14.4,59.56,-64.97,0.0,0.0,0.0,0.0,0.0,0.0,0.0,0.0,0.0,0.0,0.0,0.0,0.0,0.0,0.0,0.0,0.0,0.0,0.0,0.0,0.0,0.0
,,95650.730244,2.748692274093628,0.0,0.0,0.0,0.0,0.0,0.0,0.0,0.0,0.0,0.0,0.0,516665.0,0.03,-0.02,-1.02,0.0,0.0,0.0,14.4,59.56,-64.97,516673.0,0.03,-0.02,-1.02,-0.12,-0.06,-0.12,14.4,59.56,-64.22,0.0,0.0,0.0,0.0,0.0,0.0,0.0,0.0,0.0,0.0,0.0,0.0,0.0,0.0,0.0,0.0,0.0,0.0,0.0,0.0,0.0,0.0
,,95650.748986,2.7674403190612793,0.0,0.0,0.0,0.0,0.0,0.0,0.0,0.0,0.0,0.0,0.0,516683.0,0.02,-0.02,-1.03,-0.18,-0.06,-0.12,15.3,60.02,-65.12,516692.0,0.03,-0.01,-1.0,-0.12,-0.06,-0.06,13.05,59.11,-63.62,0.0,0.0,0.0,0.0,0.0,0.0,0.0,0.0,0.0,0.0,0.0,0.0,0.0,0.0,0.0,0.0,0.0,0.0,0.0,0.0,0.0,0.0
,,95650.803104,2.821554183959961,0.0,0.0,0.0,0.0,0.0,0.0,0.0,0.0,0.0,0.0,0.0,516701.0,0.02,-0.01,-1.01,-0.24,-0.06,-0.12,15.0,60.02,-66.47,516746.0,0.02,-0.01,-1.02,-0.12,-0.24,-0.06,15.75,58.66,-64.07,0.0,0.0,0.0,0.0,0.0,0.0,0.0,0.0,0.0,0.0,0.0,0.0,0.0,0.0,0.0,0.0,0.0,0.0,0.0,0.0,0.0,0.0
,,95650.820357,2.8387975692749023,0.0,0.0,0.0,0.0,0.0,0.0,0.0,0.0,0.0,0.0,0.0,516755.0,0.03,-0.01,-1.02,0.0,0.0,0.0,13.35,59.56,-63.92,516764.0,0.03,-0.02,-1.03,0.06,0.0,0.0,13.35,59.56,-63.92,0.0,0.0,0.0,0.0,0.0,0.0,0.0,0.0,0.0,0.0,0.0,0.0,0.0,0.0,0.0,0.0,0.0,0.0,0.0,0.0,0.0,0.0
,,95650.840008,2.858466386795044,0.0,0.0,0.0,0.0,0.0,0.0,0.0,0.0,0.0,0.0,0.0,516773.0,0.02,-0.02,-1.02,0.0,-0.06,-0.06,14.85,58.81,-65.57,516782.0,0.03,-0.02,-1.03,-0.06,-0.06,0.06,15.15,59.56,-64.97,0.0,0.0,0.0,0.0,0.0,0.0,0.0,0.0,0.0,0.0,0.0,0.0,0.0,0.0,0.0,0.0,0.0,0.0,0.0,0.0,0.0,0.0
,,95650.856863,2.875319480895996,0.0,0.0,0.0,0.0,0.0,0.0,0.0,0.0,0.0,0.0,0.0,516791.0,0.03,-0.02,-1.01,0.0,0.0,0.0,15.15,61.67,-65.27,516800.0,0.03,-0.03,-1.03,0.0,-0.18,0.0,13.8,59.56,-64.67,0.0,0.0,0.0,0.0,0.0,0.0,0.0,0.0,0.0,0.0,0.0,0.0,0.0,0.0,0.0,0.0,0.0,0.0,0.0,0.0,0.0,0.0
,,95650.874067,2.892510414123535,0.0,0.0,0.0,0.0,0.0,0.0,0.0,0.0,0.0,0.0,0.0,516809.0,0.03,-0.02,-1.0,0.06,0.0,0.0,14.1,59.11,-64.97,516818.0,0.02,-0.02,-1.01,-0.06,-0.12,0.0,15.3,60.02,-63.77,0.0,0.0,0.0,0.0,0.0,0.0,0.0,0.0,0.0,0.0,0.0,0.0,0.0,0.0,0.0,0.0,0.0,0.0,0.0,0.0,0.0,0.0
,,95650.892602,2.9110569953918457,0.0,0.0,0.0,0.0,0.0,0.0,0.0,0.0,0.0,0.0,0.0,516827.0,0.02,-0.02,-1.01,-0.06,-0.12,0.12,13.2,59.41,-65.42,516836.0,0.02,-0.02,-1.01,-0.18,-0.12,-0.06,12.75,59.56,-63.62,0.0,0.0,0.0,0.0,0.0,0.0,0.0,0.0,0.0,0.0,0.0,0.0,0.0,0.0,0.0,0.0,0.0,0.0,0.0,0.0,0.0,0.0
,,95650.910515,2.928961753845215,0.0,0.0,0.0,0.0,0.0,0.0,0.0,0.0,0.0,0.0,0.0,516845.0,0.03,-0.01,-1.02,-0.12,-0.24,0.0,12.75,59.56,-63.62,516854.0,0.02,-0.02,-1.01,-0.24,-0.24,0.0,15.3,60.77,-63.47,0.0,0.0,0.0,0.0,0.0,0.0,0.0,0.0,0.0,0.0,0.0,0.0,0.0,0.0,0.0,0.0,0.0,0.0,0.0,0.0,0.0,0.0
,,95650.965211,2.983660936355591,0.0,0.0,0.0,0.0,0.0,0.0,0.0,0.0,0.0,0.0,0.0,516863.0,0.02,-0.02,-1.01,-0.37,-0.12,-0.06,14.7,60.02,-63.77,516908.0,1.69,1.31,0.11,1827.01,1518.35,218.48,16.05,60.02,-63.02,0.0,0.0,0.0,0.0,0.0,0.0,0.0,0.0,0.0,0.0,0.0,0.0,0.0,0.0,0.0,0.0,0.0,0.0,0.0,0.0,0.0,0.0
,,95651.048672,3.067122459411621,0.0,0.0,0.0,0.0,0.0,0.0,0.0,0.0,0.0,0.0,0.0,516981.0,0.02,-0.01,-1.04,0.0,0.0,-0.06,14.85,59.56,-65.27,516991.0,0.02,-0.02,-1.02,-0.06,-0.3,-0.12,12.9,58.96,-65.42,0.0,0.0,0.0,0.0,0.0,0.0,0.0,0.0,0.0,0.0,0.0,0.0,0.0,0.0,0.0,0.0,0.0,0.0,0.0,0.0,0.0,0.0
,,95651.06885,3.0872974395751953,0.0,0.0,0.0,0.0,0.0,0.0,0.0,0.0,0.0,0.0,0.0,517001.0,0.03,-0.02,-1.02,0.24,0.18,-0.06,14.1,59.11,-66.02,517011.0,0.02,-0.01,-1.02,0.18,-0.24,0.12,13.65,61.07,-66.17,0.0,0.0,0.0,0.0,0.0,0.0,0.0,0.0,0.0,0.0,0.0,0.0,0.0,0.0,0.0,0.0,0.0,0.0,0.0,0.0,0.0,0.0
,,95651.088161,3.10660457611084,0.0,0.0,0.0,0.0,0.0,0.0,0.0,0.0,0.0,0.0,0.0,517021.0,0.04,-0.02,-1.03,-0.06,-0.24,-0.06,13.95,59.71,-64.07,517031.0,0.02,-0.01,-1.02,0.12,0.24,0.0,13.35,59.86,-63.62,0.0,0.0,0.0,0.0,0.0,0.0,0.0,0.0,0.0,0.0,0.0,0.0,0.0,0.0,0.0,0.0,0.0,0.0,0.0,0.0,0.0,0.0
,,95651.107883,3.126331090927124,0.0,0.0,0.0,0.0,0.0,0.0,0.0,0.0,0.0,0.0,0.0,517041.0,0.03,-0.01,-1.01,0.12,-0.06,0.12,13.05,59.86,-63.92,517051.0,0.02,-0.02,-1.03,0.18,0.0,0.06,14.7,59.41,-63.77,0.0,0.0,0.0,0.0,0.0,0.0,0.0,0.0,0.0,0.0,0.0,0.0,0.0,0.0,0.0,0.0,0.0,0.0,0.0,0.0,0.0,0.0
,,95651.127924,3.1463849544525146,0.0,0.0,0.0,0.0,0.0,0.0,0.0,0.0,0.0,0.0,0.0,517061.0,0.03,-0.01,-1.02,0.24,0.24,0.06,12.9,60.47,-65.12,517071.0,0.02,-0.03,-1.02,0.06,0.12,0.0,15.0,60.47,-64.07,0.0,0.0,0.0,0.0,0.0,0.0,0.0,0.0,0.0,0.0,0.0,0.0,0.0,0.0,0.0,0.0,0.0,0.0,0.0,0.0,0.0,0.0
,,95651.147865,3.166320323944092,0.0,0.0,0.0,0.0,0.0,0.0,0.0,0.0,0.0,0.0,0.0,517081.0,0.03,-0.02,-1.02,-0.06,-0.12,-0.12,13.95,59.41,-64.82,517091.0,0.01,-0.03,-1.03,-0.06,-0.18,-0.06,14.25,60.47,-65.12,0.0,0.0,0.0,0.0,0.0,0.0,0.0,0.0,0.0,0.0,0.0,0.0,0.0,0.0,0.0,0.0,0.0,0.0,0.0,0.0,0.0,0.0
,,95651.229547,3.2480080127716064,0.0,0.0,0.0,0.0,0.0,0.0,0.0,0.0,0.0,0.0,0.0,517101.0,0.02,-0.02,-1.02,-0.06,-0.06,0.0,14.25,60.77,-65.87,517173.0,0.03,-0.04,-0.99,0.06,0.0,0.0,16.5,60.92,-63.62,0.0,0.0,0.0,0.0,0.0,0.0,0.0,0.0,0.0,0.0,0.0,0.0,0.0,0.0,0.0,0.0,0.0,0.0,0.0,0.0,0.0,0.0
,,95651.246924,3.2653849124908447,0.0,0.0,0.0,0.0,0.0,0.0,0.0,0.0,0.0,0.0,0.0,517181.0,0.03,-0.03,-1.01,-0.06,-0.12,0.0,15.45,59.86,-63.62,517190.0,0.03,-0.03,-1.03,-0.24,-0.37,0.0,14.4,58.81,-63.62,0.0,0.0,0.0,0.0,0.0,0.0,0.0,0.0,0.0,0.0,0.0,0.0,0.0,0.0,0.0,0.0,0.0,0.0,0.0,0.0,0.0,0.0
,,95651.263725,3.2821667194366455,0.0,0.0,0.0,0.0,0.0,0.0,0.0,0.0,0.0,0.0,0.0,517199.0,0.03,-0.02,-1.02,-0.3,-0.18,0.0,15.45,60.62,-64.97,517207.0,0.02,-0.02,-1.02,-0.06,0.0,-0.12,14.25,61.07,-64.07,0.0,0.0,0.0,0.0,0.0,0.0,0.0,0.0,0.0,0.0,0.0,0.0,0.0,0.0,0.0,0.0,0.0,0.0,0.0,0.0,0.0,0.0
,,95651.280714,3.2991721630096436,0.0,0.0,0.0,0.0,0.0,0.0,0.0,0.0,0.0,0.0,0.0,517216.0,0.02,-0.01,-1.02,0.0,0.06,-0.06,13.95,60.47,-63.02,517224.0,0.02,0.0,-1.02,-0.06,-0.06,0.0,13.95,60.47,-63.02,0.0,0.0,0.0,0.0,0.0,0.0,0.0,0.0,0.0,0.0,0.0,0.0,0.0,0.0,0.0,0.0,0.0,0.0,0.0,0.0,0.0,0.0
,,95651.298098,3.316547393798828,0.0,0.0,0.0,0.0,0.0,0.0,0.0,0.0,0.0,0.0,0.0,517233.0,0.02,-0.0,-1.02,0.06,0.18,-0.06,13.8,58.81,-64.22,517242.0,0.02,-0.01,-1.01,0.0,0.12,-0.12,14.85,58.51,-66.02,0.0,0.0,0.0,0.0,0.0,0.0,0.0,0.0,0.0,0.0,0.0,0.0,0.0,0.0,0.0,0.0,0.0,0.0,0.0,0.0,0.0,0.0
,,95651.316312,3.3347625732421875,0.0,0.0,0.0,0.0,0.0,0.0,0.0,0.0,0.0,0.0,0.0,517250.0,0.02,-0.01,-1.02,0.06,0.0,-0.06,14.25,59.41,-66.47,517259.0,0.02,-0.02,-1.03,-0.06,-0.12,-0.06,14.25,59.71,-64.07,0.0,0.0,0.0,0.0,0.0,0.0,0.0,0.0,0.0,0.0,0.0,0.0,0.0,0.0,0.0,0.0,0.0,0.0,0.0,0.0,0.0,0.0
,,95651.33598,3.3544297218322754,0.0,0.0,0.0,0.0,0.0,0.0,0.0,0.0,0.0,0.0,0.0,517268.0,0.02,-0.02,-1.02,-0.06,-0.12,-0.12,13.65,59.71,-63.47,517276.0,0.03,-0.02,-1.0,0.0,0.0,0.06,13.65,58.66,-64.82,0.0,0.0,0.0,0.0,0.0,0.0,0.0,0.0,0.0,0.0,0.0,0.0,0.0,0.0,0.0,0.0,0.0,0.0,0.0,0.0,0.0,0.0
,,95651.386651,3.4051148891448975,0.0,0.0,0.0,0.0,0.0,0.0,0.0,0.0,0.0,0.0,0.0,517285.0,0.03,-0.02,-1.02,-0.06,-0.18,0.06,13.65,58.66,-64.82,517330.0,0.01,-0.03,-1.02,0.06,-0.06,0.06,15.45,60.17,-64.22,0.0,0.0,0.0,0.0,0.0,0.0,0.0,0.0,0.0,0.0,0.0,0.0,0.0,0.0,0.0,0.0,0.0,0.0,0.0,0.0,0.0,0.0
,,95651.403887,3.422330856323242,0.0,0.0,0.0,0.0,0.0,0.0,0.0,0.0,0.0,0.0,0.0,517338.0,0.02,-0.01,-1.0,-0.06,-0.06,-0.12,15.15,59.56,-64.67,517347.0,0.03,-0.01,-1.02,-0.06,-0.06,0.06,14.1,59.86,-66.32,0.0,0.0,0.0,0.0,0.0,0.0,0.0,0.0,0.0,0.0,0.0,0.0,0.0,0.0,0.0,0.0,0.0,0.0,0.0,0.0,0.0,0.0
,,95651.421334,3.4397807121276855,0.0,0.0,0.0,0.0,0.0,0.0,0.0,0.0,0.0,0.0,0.0,517356.0,0.02,-0.02,-1.02,-0.06,-0.06,-0.12,14.4,58.51,-63.92,517365.0,0.02,-0.02,-1.02,0.06,0.06,-0.06,14.4,58.51,-63.92,0.0,0.0,0.0,0.0,0.0,0.0,0.0,0.0,0.0,0.0,0.0,0.0,0.0,0.0,0.0,0.0,0.0,0.0,0.0,0.0,0.0,0.0
,,95651.438689,3.4571361541748047,0.0,0.0,0.0,0.0,0.0,0.0,0.0,0.0,0.0,0.0,0.0,517373.0,0.03,-0.02,-1.02,-0.24,0.0,-0.06,14.85,59.11,-63.92,517382.0,0.02,-0.02,-1.01,-0.06,0.0,0.0,13.65,58.96,-64.07,0.0,0.0,0.0,0.0,0.0,0.0,0.0,0.0,0.0,0.0,0.0,0.0,0.0,0.0,0.0,0.0,0.0,0.0,0.0,0.0,0.0,0.0
,,95651.455911,3.474353551864624,0.0,0.0,0.0,0.0,0.0,0.0,0.0,0.0,0.0,0.0,0.0,517391.0,0.02,-0.02,-1.02,-0.06,-0.12,-0.06,14.25,60.02,-64.37,517399.0,0.03,-0.01,-1.01,0.0,0.06,-0.06,14.7,59.41,-63.77,0.0,0.0,0.0,0.0,0.0,0.0,0.0,0.0,0.0,0.0,0.0,0.0,0.0,0.0,0.0,0.0,0.0,0.0,0.0,0.0,0.0,0.0
,,95651.473607,3.4920644760131836,0.0,0.0,0.0,0.0,0.0,0.0,0.0,0.0,0.0,0.0,0.0,517408.0,0.02,-0.02,-1.01,-0.12,-0.06,0.0,15.0,60.77,-65.12,517417.0,0.03,-0.03,-1.02,-0.06,-0.06,-0.06,14.1,58.06,-65.27,0.0,0.0,0.0,0.0,0.0,0.0,0.0,0.0,0.0,0.0,0.0,0.0,0.0,0.0,0.0,0.0,0.0,0.0,0.0,0.0,0.0,0.0
,,95651.490664,3.509098768234253,0.0,0.0,0.0,0.0,0.0,0.0,0.0,0.0,0.0,0.0,0.0,517425.0,0.03,-0.02,-1.02,-0.06,-0.06,-0.06,15.45,59.11,-65.27,517434.0,0.03,-0.02,-1.02,-0.12,-0.12,-0.06,15.45,59.11,-63.62,0.0,0.0,0.0,0.0,0.0,0.0,0.0,0.0,0.0,0.0,0.0,0.0,0.0,0.0,0.0,0.0,0.0,0.0,0.0,0.0,0.0,0.0
,,95651.545078,3.5635294914245605,0.0,0.0,0.0,0.0,0.0,0.0,0.0,0.0,0.0,0.0,0.0,517443.0,0.03,-0.0,-1.02,-0.06,-0.24,0.06,13.35,60.17,-65.57,517488.0,0.02,-0.02,-1.0,-0.18,-0.18,0.0,16.5,58.81,-62.87,0.0,0.0,0.0,0.0,0.0,0.0,0.0,0.0,0.0,0.0,0.0,0.0,0.0,0.0,0.0,0.0,0.0,0.0,0.0,0.0,0.0,0.0
,,95651.562031,3.5804734230041504,0.0,0.0,0.0,0.0,0.0,0.0,0.0,0.0,0.0,0.0,0.0,517497.0,0.02,-0.01,-1.02,-0.06,-0.24,0.0,15.0,59.71,-64.82,517505.0,0.02,-0.02,-1.02,-0.12,-0.18,0.0,14.4,59.11,-64.97,0.0,0.0,0.0,0.0,0.0,0.0,0.0,0.0,0.0,0.0,0.0,0.0,0.0,0.0,0.0,0.0,0.0,0.0,0.0,0.0,0.0,0.0
,,95651.579118,3.5975756645202637,0.0,0.0,0.0,0.0,0.0,0.0,0.0,0.0,0.0,0.0,0.0,517514.0,0.03,-0.02,-1.02,0.0,0.0,0.0,14.4,59.11,-64.97,517522.0,0.03,-0.02,-1.02,0.12,0.06,-0.12,14.1,59.11,-63.92,0.0,0.0,0.0,0.0,0.0,0.0,0.0,0.0,0.0,0.0,0.0,0.0,0.0,0.0,0.0,0.0,0.0,0.0,0.0,0.0,0.0,0.0
,,95651.59678,3.6152403354644775,0.0,0.0,0.0,0.0,0.0,0.0,0.0,0.0,0.0,0.0,0.0,517531.0,0.03,-0.02,-1.01,0.12,0.0,-0.12,14.7,60.02,-65.87,517540.0,0.02,-0.02,-1.02,0.18,0.06,-0.12,13.35,59.86,-64.67,0.0,0.0,0.0,0.0,0.0,0.0,0.0,0.0,0.0,0.0,0.0,0.0,0.0,0.0,0.0,0.0,0.0,0.0,0.0,0.0,0.0,0.0
,,95651.613616,3.6320619583129883,0.0,0.0,0.0,0.0,0.0,0.0,0.0,0.0,0.0,0.0,0.0,517549.0,0.03,-0.03,-1.01,0.0,-0.12,0.12,14.4,58.81,-63.92,517557.0,0.03,-0.02,-1.01,0.0,0.0,0.0,14.4,58.81,-64.67,0.0,0.0,0.0,0.0,0.0,0.0,0.0,0.0,0.0,0.0,0.0,0.0,0.0,0.0,0.0,0.0,0.0,0.0,0.0,0.0,0.0,0.0
,,95651.630848,3.649315595626831,0.0,0.0,0.0,0.0,0.0,0.0,0.0,0.0,0.0,0.0,0.0,517566.0,0.03,-0.02,-1.03,-0.06,-0.06,0.06,14.4,59.56,-64.97,517574.0,0.03,-0.02,-1.02,-0.24,-0.18,0.0,14.4,59.56,-64.97,0.0,0.0,0.0,0.0,0.0,0.0,0.0,0.0,0.0,0.0,0.0,0.0,0.0,0.0,0.0,0.0,0.0,0.0,0.0,0.0,0.0,0.0
,,95651.648202,3.6666529178619385,0.0,0.0,0.0,0.0,0.0,0.0,0.0,0.0,0.0,0.0,0.0,517583.0,0.03,-0.02,-1.01,-0.3,-0.24,0.0,13.05,59.11,-64.97,517592.0,0.02,-0.02,-1.01,0.0,-0.18,-0.06,13.95,58.66,-66.17,0.0,0.0,0.0,0.0,0.0,0.0,0.0,0.0,0.0,0.0,0.0,0.0,0.0,0.0,0.0,0.0,0.0,0.0,0.0,0.0,0.0,0.0
,,95651.702172,3.7206220626831055,0.0,0.0,0.0,0.0,0.0,0.0,0.0,0.0,0.0,0.0,0.0,517600.0,0.02,-0.01,-1.01,0.3,0.0,-0.06,14.7,60.47,-66.17,517645.0,0.02,-0.02,-1.01,0.18,0.18,0.06,15.0,57.61,-63.02,0.0,0.0,0.0,0.0,0.0,0.0,0.0,0.0,0.0,0.0,0.0,0.0,0.0,0.0,0.0,0.0,0.0,0.0,0.0,0.0,0.0,0.0
,,95651.719435,3.737896680831909,0.0,0.0,0.0,0.0,0.0,0.0,0.0,0.0,0.0,0.0,0.0,517654.0,0.01,-0.02,-1.02,0.18,0.12,0.06,14.4,58.81,-63.32,517663.0,0.02,-0.02,-1.04,0.0,-0.24,-0.12,14.25,59.41,-63.77,0.0,0.0,0.0,0.0,0.0,0.0,0.0,0.0,0.0,0.0,0.0,0.0,0.0,0.0,0.0,0.0,0.0,0.0,0.0,0.0,0.0,0.0
,,95651.736657,3.755112886428833,0.0,0.0,0.0,0.0,0.0,0.0,0.0,0.0,0.0,0.0,0.0,517671.0,0.01,-0.02,-1.02,-0.12,-0.06,-0.12,15.3,60.47,-65.12,517680.0,0.03,-0.02,-1.01,-0.12,-0.06,-0.06,13.95,60.77,-64.07,0.0,0.0,0.0,0.0,0.0,0.0,0.0,0.0,0.0,0.0,0.0,0.0,0.0,0.0,0.0,0.0,0.0,0.0,0.0,0.0,0.0,0.0
,,95651.753766,3.7722105979919434,0.0,0.0,0.0,0.0,0.0,0.0,0.0,0.0,0.0,0.0,0.0,517689.0,0.02,-0.02,-1.0,-0.06,-0.06,0.0,15.15,60.62,-65.57,517697.0,0.04,-0.02,-1.0,-0.06,-0.18,0.0,13.65,59.41,-65.12,0.0,0.0,0.0,0.0,0.0,0.0,0.0,0.0,0.0,0.0,0.0,0.0,0.0,0.0,0.0,0.0,0.0,0.0,0.0,0.0,0.0,0.0
,,95651.771092,3.789531707763672,0.0,0.0,0.0,0.0,0.0,0.0,0.0,0.0,0.0,0.0,0.0,517706.0,0.03,-0.01,-1.01,-0.12,-0.18,0.0,13.05,59.56,-64.22,517715.0,0.03,-0.02,-1.02,-0.12,-0.12,0.12,13.05,59.56,-64.22,0.0,0.0,0.0,0.0,0.0,0.0,0.0,0.0,0.0,0.0,0.0,0.0,0.0,0.0,0.0,0.0,0.0,0.0,0.0,0.0,0.0,0.0
,,95651.789137,3.8075928688049316,0.0,0.0,0.0,0.0,0.0,0.0,0.0,0.0,0.0,0.0,0.0,517723.0,0.03,-0.02,-1.03,0.06,0.0,-0.06,14.7,60.47,-65.12,517732.0,0.04,-0.03,-1.03,-0.06,-0.06,-0.12,14.7,60.02,-65.42,0.0,0.0,0.0,0.0,0.0,0.0,0.0,0.0,0.0,0.0,0.0,0.0,0.0,0.0,0.0,0.0,0.0,0.0,0.0,0.0,0.0,0.0
,,95651.808414,3.826866626739502,0.0,0.0,0.0,0.0,0.0,0.0,0.0,0.0,0.0,0.0,0.0,517741.0,0.03,-0.01,-1.01,0.24,0.06,0.0,14.85,60.17,-65.27,517749.0,0.02,-0.02,-1.0,0.0,-0.12,0.12,14.7,59.71,-63.02,0.0,0.0,0.0,0.0,0.0,0.0,0.0,0.0,0.0,0.0,0.0,0.0,0.0,0.0,0.0,0.0,0.0,0.0,0.0,0.0,0.0,0.0
,,95651.86075,3.8792014122009277,0.0,0.0,0.0,0.0,0.0,0.0,0.0,0.0,0.0,0.0,0.0,517758.0,0.01,-0.02,-1.01,0.06,0.0,-0.06,14.85,59.86,-64.67,517804.0,0.01,-0.02,-1.01,0.0,-0.12,-0.18,14.85,59.11,-63.62,0.0,0.0,0.0,0.0,0.0,0.0,0.0,0.0,0.0,0.0,0.0,0.0,0.0,0.0,0.0,0.0,0.0,0.0,0.0,0.0,0.0,0.0
,,95651.877849,3.8962888717651367,0.0,0.0,0.0,0.0,0.0,0.0,0.0,0.0,0.0,0.0,0.0,517813.0,0.02,-0.02,-1.02,0.18,0.06,-0.06,16.35,58.66,-63.77,517821.0,0.02,-0.02,-1.02,0.24,0.06,0.0,13.8,59.56,-65.27,0.0,0.0,0.0,0.0,0.0,0.0,0.0,0.0,0.0,0.0,0.0,0.0,0.0,0.0,0.0,0.0,0.0,0.0,0.0,0.0,0.0,0.0
,,95651.895295,3.9137401580810547,0.0,0.0,0.0,0.0,0.0,0.0,0.0,0.0,0.0,0.0,0.0,517830.0,0.02,-0.02,-1.01,0.24,0.06,0.0,14.1,60.62,-66.02,517839.0,0.02,-0.03,-1.01,0.18,0.06,0.06,14.4,60.17,-64.22,0.0,0.0,0.0,0.0,0.0,0.0,0.0,0.0,0.0,0.0,0.0,0.0,0.0,0.0,0.0,0.0,0.0,0.0,0.0,0.0,0.0,0.0
,,95651.91278,3.931234121322632,0.0,0.0,0.0,0.0,0.0,0.0,0.0,0.0,0.0,0.0,0.0,517847.0,0.02,-0.02,-1.02,-0.06,-0.06,0.12,15.0,60.02,-65.87,517856.0,0.03,-0.02,-1.01,-0.18,-0.12,-0.18,12.9,59.41,-65.12,0.0,0.0,0.0,0.0,0.0,0.0,0.0,0.0,0.0,0.0,0.0,0.0,0.0,0.0,0.0,0.0,0.0,0.0,0.0,0.0,0.0,0.0
,,95651.930511,3.9489786624908447,0.0,0.0,0.0,0.0,0.0,0.0,0.0,0.0,0.0,0.0,0.0,517865.0,0.03,-0.02,-1.02,-0.18,-0.24,-0.06,12.9,59.41,-65.12,517874.0,0.02,-0.03,-1.03,-0.18,-0.18,-0.12,13.65,60.77,-63.77,0.0,0.0,0.0,0.0,0.0,0.0,0.0,0.0,0.0,0.0,0.0,0.0,0.0,0.0,0.0,0.0,0.0,0.0,0.0,0.0,0.0,0.0
,,95651.947636,3.9660801887512207,0.0,0.0,0.0,0.0,0.0,0.0,0.0,0.0,0.0,0.0,0.0,517883.0,0.02,-0.02,-1.0,-0.12,-0.18,0.06,14.4,59.86,-63.92,517891.0,0.02,-0.03,-1.01,0.0,-0.06,-0.06,14.85,59.56,-63.32,0.0,0.0,0.0,0.0,0.0,0.0,0.0,0.0,0.0,0.0,0.0,0.0,0.0,0.0,0.0,0.0,0.0,0.0,0.0,0.0,0.0,0.0
,,95651.964976,3.983433246612549,0.0,0.0,0.0,0.0,0.0,0.0,0.0,0.0,0.0,0.0,0.0,517900.0,0.03,-0.02,-1.01,0.0,0.06,-0.06,15.3,59.41,-66.17,517908.0,0.03,-0.02,-1.02,-0.06,-0.06,0.0,12.75,59.86,-64.22,0.0,0.0,0.0,0.0,0.0,0.0,0.0,0.0,0.0,0.0,0.0,0.0,0.0,0.0,0.0,0.0,0.0,0.0,0.0,0.0,0.0,0.0
,,95652.019027,4.037480592727661,0.0,0.0,0.0,0.0,0.0,0.0,0.0,0.0,0.0,0.0,0.0,517917.0,0.02,-0.02,-1.02,0.0,0.0,-0.06,14.25,60.77,-64.07,517962.0,0.03,-0.01,-1.01,-0.24,-0.06,0.0,15.45,59.56,-63.62,0.0,0.0,0.0,0.0,0.0,0.0,0.0,0.0,0.0,0.0,0.0,0.0,0.0,0.0,0.0,0.0,0.0,0.0,0.0,0.0,0.0,0.0
,,95652.036427,4.054886817932129,0.0,0.0,0.0,0.0,0.0,0.0,0.0,0.0,0.0,0.0,0.0,517971.0,0.02,-0.02,-1.02,-0.12,-0.18,-0.06,15.15,60.17,-64.97,517980.0,0.03,-0.02,-1.01,-0.06,-0.12,-0.18,14.25,58.96,-64.37,0.0,0.0,0.0,0.0,0.0,0.0,0.0,0.0,0.0,0.0,0.0,0.0,0.0,0.0,0.0,0.0,0.0,0.0,0.0,0.0,0.0,0.0
,,95652.054579,4.073034048080444,0.0,0.0,0.0,0.0,0.0,0.0,0.0,0.0,0.0,0.0,0.0,517988.0,0.02,-0.01,-1.01,-0.12,-0.12,-0.12,13.95,59.71,-65.42,517997.0,0.01,-0.02,-1.01,-0.18,-0.18,-0.12,14.85,58.81,-65.27,0.0,0.0,0.0,0.0,0.0,0.0,0.0,0.0,0.0,0.0,0.0,0.0,0.0,0.0,0.0,0.0,0.0,0.0,0.0,0.0,0.0,0.0
,,95652.071245,4.089684963226318,0.0,0.0,0.0,0.0,0.0,0.0,0.0,0.0,0.0,0.0,0.0,518006.0,0.02,-0.01,-1.01,-0.06,-0.12,-0.06,14.4,59.86,-64.22,518015.0,0.02,-0.01,-1.01,0.0,-0.06,0.06,14.4,59.86,-64.22,0.0,0.0,0.0,0.0,0.0,0.0,0.0,0.0,0.0,0.0,0.0,0.0,0.0,0.0,0.0,0.0,0.0,0.0,0.0,0.0,0.0,0.0
,,95652.088433,4.106870889663696,0.0,0.0,0.0,0.0,0.0,0.0,0.0,0.0,0.0,0.0,0.0,518023.0,0.02,-0.02,-1.02,0.0,-0.06,0.0,13.8,60.17,-66.02,518032.0,0.03,-0.01,-1.0,0.24,0.06,-0.06,15.0,59.41,-66.47,0.0,0.0,0.0,0.0,0.0,0.0,0.0,0.0,0.0,0.0,0.0,0.0,0.0,0.0,0.0,0.0,0.0,0.0,0.0,0.0,0.0,0.0
,,95652.10593,4.12437629699707,0.0,0.0,0.0,0.0,0.0,0.0,0.0,0.0,0.0,0.0,0.0,518041.0,0.03,-0.02,-1.03,0.12,-0.06,0.0,13.8,61.22,-66.32,518049.0,0.02,-0.01,-1.01,0.12,-0.06,0.0,15.3,59.71,-64.82,0.0,0.0,0.0,0.0,0.0,0.0,0.0,0.0,0.0,0.0,0.0,0.0,0.0,0.0,0.0,0.0,0.0,0.0,0.0,0.0,0.0,0.0
,,95652.123032,4.141499042510986,0.0,0.0,0.0,0.0,0.0,0.0,0.0,0.0,0.0,0.0,0.0,518058.0,0.03,-0.02,-1.01,0.12,0.0,0.0,14.85,59.86,-64.67,518066.0,0.03,-0.03,-1.02,-0.12,-0.18,0.0,15.3,60.77,-64.37,0.0,0.0,0.0,0.0,0.0,0.0,0.0,0.0,0.0,0.0,0.0,0.0,0.0,0.0,0.0,0.0,0.0,0.0,0.0,0.0,0.0,0.0
,,95652.178691,4.197142601013184,0.0,0.0,0.0,0.0,0.0,0.0,0.0,0.0,0.0,0.0,0.0,518075.0,0.03,-0.03,-1.02,-0.06,-0.24,0.0,15.3,60.77,-64.37,518122.0,0.03,-0.03,-1.02,-0.06,-0.06,0.0,16.5,58.51,-63.32,0.0,0.0,0.0,0.0,0.0,0.0,0.0,0.0,0.0,0.0,0.0,0.0,0.0,0.0,0.0,0.0,0.0,0.0,0.0,0.0,0.0,0.0
,,95652.196535,4.214995861053467,0.0,0.0,0.0,0.0,0.0,0.0,0.0,0.0,0.0,0.0,0.0,518131.0,0.03,-0.03,-1.01,-0.12,-0.06,-0.06,17.25,60.92,-64.22,518140.0,0.03,-0.03,-1.01,-0.06,-0.06,0.0,13.95,58.96,-64.37,0.0,0.0,0.0,0.0,0.0,0.0,0.0,0.0,0.0,0.0,0.0,0.0,0.0,0.0,0.0,0.0,0.0,0.0,0.0,0.0,0.0,0.0
,,95652.215011,4.233465909957886,0.0,0.0,0.0,0.0,0.0,0.0,0.0,0.0,0.0,0.0,0.0,518149.0,0.02,-0.02,-1.02,-0.3,-0.18,0.0,15.15,60.17,-66.32,518158.0,0.03,-0.02,-1.01,-0.43,-0.18,-0.06,15.9,59.86,-65.27,0.0,0.0,0.0,0.0,0.0,0.0,0.0,0.0,0.0,0.0,0.0,0.0,0.0,0.0,0.0,0.0,0.0,0.0,0.0,0.0,0.0,0.0
,,95652.232895,4.251339673995972,0.0,0.0,0.0,0.0,0.0,0.0,0.0,0.0,0.0,0.0,0.0,518167.0,0.02,-0.02,-1.02,-0.43,-0.3,-0.06,13.95,60.47,-65.87,518176.0,0.02,-0.02,-1.03,-0.49,-0.18,0.06,15.45,59.86,-65.57,0.0,0.0,0.0,0.0,0.0,0.0,0.0,0.0,0.0,0.0,0.0,0.0,0.0,0.0,0.0,0.0,0.0,0.0,0.0,0.0,0.0,0.0
,,95652.251357,4.269802808761597,0.0,0.0,0.0,0.0,0.0,0.0,0.0,0.0,0.0,0.0,0.0,518186.0,0.02,-0.02,-1.02,-0.3,-0.12,-0.12,15.9,59.56,-65.57,518195.0,0.03,-0.01,-1.02,-0.43,-0.24,-0.12,15.9,59.56,-65.57,0.0,0.0,0.0,0.0,0.0,0.0,0.0,0.0,0.0,0.0,0.0,0.0,0.0,0.0,0.0,0.0,0.0,0.0,0.0,0.0,0.0,0.0
,,95652.269722,4.288181304931641,0.0,0.0,0.0,0.0,0.0,0.0,0.0,0.0,0.0,0.0,0.0,518204.0,0.04,-0.01,-1.01,-0.24,-0.37,-0.06,13.65,59.41,-64.37,518213.0,0.03,-0.01,-1.02,-0.24,-0.3,-0.06,15.3,59.71,-65.87,0.0,0.0,0.0,0.0,0.0,0.0,0.0,0.0,0.0,0.0,0.0,0.0,0.0,0.0,0.0,0.0,0.0,0.0,0.0,0.0,0.0,0.0
,,95652.288133,4.306578874588013,0.0,0.0,0.0,0.0,0.0,0.0,0.0,0.0,0.0,0.0,0.0,518222.0,0.02,-0.02,-1.01,-0.3,-0.37,-0.12,14.1,59.86,-63.92,518232.0,0.03,-0.02,-1.01,-0.37,-0.3,-0.12,13.8,59.56,-65.27,0.0,0.0,0.0,0.0,0.0,0.0,0.0,0.0,0.0,0.0,0.0,0.0,0.0,0.0,0.0,0.0,0.0,0.0,0.0,0.0,0.0,0.0
,,95652.368318,4.386769533157349,0.0,0.0,0.0,0.0,0.0,0.0,0.0,0.0,0.0,0.0,0.0,518241.0,0.03,-0.02,-1.02,-0.24,-0.18,-0.06,13.95,61.52,-65.12,518311.0,0.03,-0.02,-1.01,-0.43,-0.18,0.0,16.8,60.02,-63.02,0.0,0.0,0.0,0.0,0.0,0.0,0.0,0.0,0.0,0.0,0.0,0.0,0.0,0.0,0.0,0.0,0.0,0.0,0.0,0.0,0.0,0.0
,,95652.386302,4.404746770858765,0.0,0.0,0.0,0.0,0.0,0.0,0.0,0.0,0.0,0.0,0.0,518320.0,0.02,-0.03,-1.01,-0.3,-0.3,-0.06,14.85,59.56,-62.57,518330.0,0.02,-0.02,-1.01,-0.55,-0.3,0.06,13.95,59.71,-65.12,0.0,0.0,0.0,0.0,0.0,0.0,0.0,0.0,0.0,0.0,0.0,0.0,0.0,0.0,0.0,0.0,0.0,0.0,0.0,0.0,0.0,0.0
,,95652.404482,4.422930955886841,0.0,0.0,0.0,0.0,0.0,0.0,0.0,0.0,0.0,0.0,0.0,518339.0,0.03,-0.03,-1.02,-0.43,-0.24,0.06,12.15,60.47,-65.12,518348.0,0.02,-0.03,-1.02,-0.24,-0.3,0.0,15.9,59.86,-64.67,0.0,0.0,0.0,0.0,0.0,0.0,0.0,0.0,0.0,0.0,0.0,0.0,0.0,0.0,0.0,0.0,0.0,0.0,0.0,0.0,0.0,0.0
,,95652.424025,4.442485332489014,0.0,0.0,0.0,0.0,0.0,0.0,0.0,0.0,0.0,0.0,0.0,518357.0,0.02,-0.02,-1.01,-0.12,-0.12,-0.12,15.0,60.02,-65.12,518366.0,0.02,-0.02,-1.02,-0.24,-0.06,-0.06,14.7,60.77,-65.87,0.0,0.0,0.0,0.0,0.0,0.0,0.0,0.0,0.0,0.0,0.0,0.0,0.0,0.0,0.0,0.0,0.0,0.0,0.0,0.0,0.0,0.0
,,95652.441474,4.459913969039917,0.0,0.0,0.0,0.0,0.0,0.0,0.0,0.0,0.0,0.0,0.0,518375.0,0.03,-0.02,-1.02,-0.24,-0.18,-0.06,14.85,59.11,-66.32,518385.0,0.02,-0.01,-1.01,-0.3,-0.18,-0.06,14.85,59.11,-66.32,0.0,0.0,0.0,0.0,0.0,0.0,0.0,0.0,0.0,0.0,0.0,0.0,0.0,0.0,0.0,0.0,0.0,0.0,0.0,0.0,0.0,0.0
,,95652.459587,4.47803521156311,0.0,0.0,0.0,0.0,0.0,0.0,0.0,0.0,0.0,0.0,0.0,518394.0,0.03,-0.03,-1.01,-0.3,-0.24,-0.12,14.25,60.47,-65.42,518403.0,0.02,-0.02,-1.02,-0.37,-0.12,-0.06,14.25,59.71,-64.82,0.0,0.0,0.0,0.0,0.0,0.0,0.0,0.0,0.0,0.0,0.0,0.0,0.0,0.0,0.0,0.0,0.0,0.0,0.0,0.0,0.0,0.0
,,95652.479051,4.497514486312866,0.0,0.0,0.0,0.0,0.0,0.0,0.0,0.0,0.0,0.0,0.0,518412.0,0.02,-0.01,-1.01,-0.24,-0.18,-0.12,14.1,60.17,-64.97,518421.0,0.02,-0.02,-1.01,-0.24,-0.12,-0.06,15.15,59.86,-64.22,0.0,0.0,0.0,0.0,0.0,0.0,0.0,0.0,0.0,0.0,0.0,0.0,0.0,0.0,0.0,0.0,0.0,0.0,0.0,0.0,0.0,0.0
,,95652.528552,4.547002792358398,0.0,0.0,0.0,0.0,0.0,0.0,0.0,0.0,0.0,0.0,0.0,518431.0,0.02,-0.01,-1.01,-0.37,-0.24,0.0,14.4,59.56,-65.27,518472.0,0.01,-0.01,-1.02,-0.18,-0.24,-0.18,15.15,59.56,-63.32,0.0,0.0,0.0,0.0,0.0,0.0,0.0,0.0,0.0,0.0,0.0,0.0,0.0,0.0,0.0,0.0,0.0,0.0,0.0,0.0,0.0,0.0
,,95652.546459,4.56491231918335,0.0,0.0,0.0,0.0,0.0,0.0,0.0,0.0,0.0,0.0,0.0,518481.0,0.02,-0.02,-1.01,-0.18,-0.18,0.0,15.3,60.47,-64.07,518490.0,0.02,-0.01,-1.01,0.06,0.0,0.0,15.15,60.17,-65.57,0.0,0.0,0.0,0.0,0.0,0.0,0.0,0.0,0.0,0.0,0.0,0.0,0.0,0.0,0.0,0.0,0.0,0.0,0.0,0.0,0.0,0.0
,,95652.564475,4.582942247390747,0.0,0.0,0.0,0.0,0.0,0.0,0.0,0.0,0.0,0.0,0.0,518499.0,0.02,-0.02,-1.0,0.0,0.06,-0.06,14.1,59.11,-65.57,518508.0,0.02,-0.02,-1.01,0.18,0.0,-0.12,14.1,59.56,-64.22,0.0,0.0,0.0,0.0,0.0,0.0,0.0,0.0,0.0,0.0,0.0,0.0,0.0,0.0,0.0,0.0,0.0,0.0,0.0,0.0,0.0,0.0
,,95652.583041,4.601491689682007,0.0,0.0,0.0,0.0,0.0,0.0,0.0,0.0,0.0,0.0,0.0,518517.0,0.02,-0.02,-1.01,-0.12,-0.18,0.06,14.85,59.86,-63.92,518526.0,0.03,-0.02,-1.02,-0.06,-0.12,0.0,14.7,59.71,-63.77,0.0,0.0,0.0,0.0,0.0,0.0,0.0,0.0,0.0,0.0,0.0,0.0,0.0,0.0,0.0,0.0,0.0,0.0,0.0,0.0,0.0,0.0
,,95652.600906,4.6193647384643555,0.0,0.0,0.0,0.0,0.0,0.0,0.0,0.0,0.0,0.0,0.0,518535.0,0.02,-0.02,-1.0,0.18,0.0,-0.06,14.7,59.71,-63.77,518544.0,0.03,-0.01,-1.01,0.06,0.06,-0.06,15.15,59.56,-64.22,0.0,0.0,0.0,0.0,0.0,0.0,0.0,0.0,0.0,0.0,0.0,0.0,0.0,0.0,0.0,0.0,0.0,0.0,0.0,0.0,0.0,0.0
,,95652.619032,4.637489318847656,0.0,0.0,0.0,0.0,0.0,0.0,0.0,0.0,0.0,0.0,0.0,518553.0,0.02,-0.01,-1.01,0.24,0.12,-0.06,13.8,59.56,-64.97,518563.0,0.03,-0.02,-1.02,-0.06,-0.18,0.0,15.15,60.62,-65.27,0.0,0.0,0.0,0.0,0.0,0.0,0.0,0.0,0.0,0.0,0.0,0.0,0.0,0.0,0.0,0.0,0.0,0.0,0.0,0.0,0.0,0.0
,,95652.636967,4.6554155349731445,0.0,0.0,0.0,0.0,0.0,0.0,0.0,0.0,0.0,0.0,0.0,518572.0,0.03,-0.02,-1.01,0.0,-0.18,0.06,14.1,59.56,-64.22,518581.0,0.03,-0.02,-1.03,0.12,0.0,0.06,14.7,58.96,-65.42,0.0,0.0,0.0,0.0,0.0,0.0,0.0,0.0,0.0,0.0,0.0,0.0,0.0,0.0,0.0,0.0,0.0,0.0,0.0,0.0,0.0,0.0
,,95652.690744,4.709204912185669,0.0,0.0,0.0,0.0,0.0,0.0,0.0,0.0,0.0,0.0,0.0,518590.0,0.02,-0.02,-1.01,0.24,0.0,-0.06,14.1,58.81,-66.02,518634.0,0.02,-0.02,-1.02,0.24,0.06,0.0,16.35,58.66,-62.12,0.0,0.0,0.0,0.0,0.0,0.0,0.0,0.0,0.0,0.0,0.0,0.0,0.0,0.0,0.0,0.0,0.0,0.0,0.0,0.0,0.0,0.0
