name,date,time,time_since_start,vicon_sequence,vicon_time_stamp,vicon_frame_id,vicon_child_frame_id,vicon_translation_x,vicon_translation_y,vicon_translation_z,vicon_rotation_x,vicon_rotation_y,vicon_rotation_z,vicon_rotation_w,int_imu_time_stamp,int_imu_acc_x,int_imu_acc_y,int_imu_acc_z,int_imu_gyro_x,int_imu_gyro_y,int_imu_gyro_z,int_imu_mag_x,int_imu_mag_y,int_imu_mag_z,ext_imu_time_stamp,ext_imu_acc_x,ext_imu_acc_y,ext_imu_acc_z,ext_imu_gyro_x,ext_imu_gyro_y,ext_imu_gyro_z,ext_imu_mag_x,ext_imu_mag_y,ext_imu_mag_z,dji_imu_sequence,dji_imu_time_stamp,dji_imu_frame_id,dji_imu_orientation_x,dji_imu_orientation_y,dji_imu_orientation_z,dji_imu_ang_vel_x,dji_imu_ang_vel_y,dji_imu_ang_vel_z,dji_imu_lin_acc_x,dji_imu_lin_acc_y,dji_imu_lin_acc_z,rc_sequence,rc_time_stamp,rc_frame_id,rc_roll,rc_pitch,rc_yaw,rc_throttle,rc_mode,rc_landing_gear
/home/wc18ny/Desktop/VibrationTest/test.csv,20201019,111439.550879,2.0503997802734375e-05,0.0,0.0,0.0,0.0,0.0,0.0,0.0,0.0,0.0,0.0,0.0,143201.0,-0.02,0.01,-1.02,0.0,-0.06,-0.12,13.65,40.06,-52.21,143210.0,-0.02,0.02,-1.01,-0.12,-0.06,0.0,12.15,39.01,-53.26,0.0,0.0,0.0,0.0,0.0,0.0,0.0,0.0,0.0,0.0,0.0,0.0,0.0,0.0,0.0,0.0,0.0,0.0,0.0,0.0,0.0
,,111439.552473,0.0016100406646728516,0.0,0.0,0.0,0.0,0.0,0.0,0.0,0.0,0.0,0.0,0.0,143219.0,-0.02,0.01,-1.01,0.0,-0.06,0.0,12.6,41.41,-53.26,143227.0,-0.02,-0.0,-1.01,-0.18,-0.12,-0.12,12.6,41.41,-53.26,0.0,0.0,0.0,0.0,0.0,0.0,0.0,0.0,0.0,0.0,0.0,0.0,0.0,0.0,0.0,0.0,0.0,0.0,0.0,0.0,0.0
,,111439.573406,0.022552490234375,0.0,0.0,0.0,0.0,0.0,0.0,0.0,0.0,0.0,0.0,0.0,143236.0,-0.02,-0.0,-1.01,-0.12,0.0,-0.24,13.35,39.46,-52.81,143245.0,-0.02,0.01,-1.02,0.0,0.0,0.0,14.1,39.91,-52.36,0.0,0.0,0.0,0.0,0.0,0.0,0.0,0.0,0.0,0.0,0.0,0.0,0.0,0.0,0.0,0.0,0.0,0.0,0.0,0.0,0.0
,,111439.593133,0.04227590560913086,0.0,0.0,0.0,0.0,0.0,0.0,0.0,0.0,0.0,0.0,0.0,143253.0,-0.02,0.01,-1.02,-0.06,-0.24,0.0,12.3,40.51,-52.36,143261.0,-0.03,0.02,-1.01,0.0,-0.12,0.0,12.0,39.91,-52.36,0.0,0.0,0.0,0.0,0.0,0.0,0.0,0.0,0.0,0.0,0.0,0.0,0.0,0.0,0.0,0.0,0.0,0.0,0.0,0.0,0.0
,,111439.614324,0.06346583366394043,0.0,0.0,0.0,0.0,0.0,0.0,0.0,0.0,0.0,0.0,0.0,143270.0,-0.03,0.0,-1.0,-0.06,-0.12,0.0,12.6,39.61,-52.96,143279.0,-0.03,0.01,-1.0,-0.18,-0.24,-0.18,11.7,39.46,-53.11,0.0,0.0,0.0,0.0,0.0,0.0,0.0,0.0,0.0,0.0,0.0,0.0,0.0,0.0,0.0,0.0,0.0,0.0,0.0,0.0,0.0
,,111439.632881,0.08202362060546875,0.0,0.0,0.0,0.0,0.0,0.0,0.0,0.0,0.0,0.0,0.0,143287.0,-0.02,0.0,-1.01,-0.12,-0.18,-0.06,11.7,39.46,-53.11,143296.0,-0.02,0.0,-1.01,-0.06,-0.18,0.0,12.15,39.31,-53.86,0.0,0.0,0.0,0.0,0.0,0.0,0.0,0.0,0.0,0.0,0.0,0.0,0.0,0.0,0.0,0.0,0.0,0.0,0.0,0.0,0.0
,,111439.652935,0.10207796096801758,0.0,0.0,0.0,0.0,0.0,0.0,0.0,0.0,0.0,0.0,0.0,143305.0,-0.02,0.01,-1.0,-0.06,-0.06,-0.12,12.6,40.36,-52.96,143313.0,-0.03,0.01,-1.0,-0.12,-0.18,0.0,14.25,39.61,-53.26,0.0,0.0,0.0,0.0,0.0,0.0,0.0,0.0,0.0,0.0,0.0,0.0,0.0,0.0,0.0,0.0,0.0,0.0,0.0,0.0,0.0
,,111439.674766,0.12392592430114746,0.0,0.0,0.0,0.0,0.0,0.0,0.0,0.0,0.0,0.0,0.0,143353.0,-0.03,0.0,-1.0,-0.24,-0.06,-0.18,13.35,40.21,-51.46,143362.0,-0.02,0.01,-1.01,-0.12,-0.12,-0.06,12.6,39.61,-52.96,0.0,0.0,0.0,0.0,0.0,0.0,0.0,0.0,0.0,0.0,0.0,0.0,0.0,0.0,0.0,0.0,0.0,0.0,0.0,0.0,0.0
,,111439.697881,0.14707159996032715,0.0,0.0,0.0,0.0,0.0,0.0,0.0,0.0,0.0,0.0,0.0,143370.0,-0.01,0.01,-1.0,-0.06,-0.06,-0.06,12.0,39.16,-54.16,143379.0,-0.03,0.01,-1.0,-0.06,-0.06,0.0,12.75,39.16,-54.46,0.0,0.0,0.0,0.0,0.0,0.0,0.0,0.0,0.0,0.0,0.0,0.0,0.0,0.0,0.0,0.0,0.0,0.0,0.0,0.0,0.0
,,111439.716184,0.16535544395446777,0.0,0.0,0.0,0.0,0.0,0.0,0.0,0.0,0.0,0.0,0.0,143388.0,-0.03,0.01,-1.01,-0.12,-0.12,0.0,11.85,39.31,-53.56,143396.0,-0.03,0.02,-1.01,-0.06,-0.06,-0.12,11.85,39.31,-53.56,0.0,0.0,0.0,0.0,0.0,0.0,0.0,0.0,0.0,0.0,0.0,0.0,0.0,0.0,0.0,0.0,0.0,0.0,0.0,0.0,0.0
,,111439.736993,0.186173677444458,0.0,0.0,0.0,0.0,0.0,0.0,0.0,0.0,0.0,0.0,0.0,143405.0,-0.03,0.01,-1.01,-0.06,-0.06,-0.06,13.05,39.91,-52.81,143414.0,-0.02,0.01,-1.0,-0.06,-0.12,-0.06,13.65,40.36,-52.51,0.0,0.0,0.0,0.0,0.0,0.0,0.0,0.0,0.0,0.0,0.0,0.0,0.0,0.0,0.0,0.0,0.0,0.0,0.0,0.0,0.0
,,111439.756674,0.20585036277770996,0.0,0.0,0.0,0.0,0.0,0.0,0.0,0.0,0.0,0.0,0.0,143422.0,-0.03,0.0,-1.01,-0.06,-0.18,-0.06,13.35,38.41,-52.81,143431.0,-0.03,0.0,-1.01,0.0,0.06,-0.12,12.3,39.46,-53.11,0.0,0.0,0.0,0.0,0.0,0.0,0.0,0.0,0.0,0.0,0.0,0.0,0.0,0.0,0.0,0.0,0.0,0.0,0.0,0.0,0.0
,,111439.776589,0.22575807571411133,0.0,0.0,0.0,0.0,0.0,0.0,0.0,0.0,0.0,0.0,0.0,143440.0,-0.02,0.01,-0.99,-0.06,-0.06,-0.12,10.8,39.31,-51.91,143448.0,-0.02,0.0,-1.0,-0.12,-0.12,-0.06,13.05,39.91,-54.46,0.0,0.0,0.0,0.0,0.0,0.0,0.0,0.0,0.0,0.0,0.0,0.0,0.0,0.0,0.0,0.0,0.0,0.0,0.0,0.0,0.0
,,111439.797373,0.2465512752532959,0.0,0.0,0.0,0.0,0.0,0.0,0.0,0.0,0.0,0.0,0.0,143457.0,-0.02,-0.0,-1.02,-0.06,-0.18,-0.06,13.05,39.91,-54.46,143466.0,-0.02,0.02,-0.99,-0.12,-0.24,-0.06,11.85,38.56,-53.26,0.0,0.0,0.0,0.0,0.0,0.0,0.0,0.0,0.0,0.0,0.0,0.0,0.0,0.0,0.0,0.0,0.0,0.0,0.0,0.0,0.0
,,111439.81649,0.2656686305999756,0.0,0.0,0.0,0.0,0.0,0.0,0.0,0.0,0.0,0.0,0.0,143504.0,-0.03,0.0,-1.01,-0.12,-0.06,-0.12,13.95,40.66,-51.16,143513.0,-0.02,0.01,-1.0,-0.06,-0.06,-0.12,13.8,40.96,-51.76,0.0,0.0,0.0,0.0,0.0,0.0,0.0,0.0,0.0,0.0,0.0,0.0,0.0,0.0,0.0,0.0,0.0,0.0,0.0,0.0,0.0
,,111439.836518,0.2856926918029785,0.0,0.0,0.0,0.0,0.0,0.0,0.0,0.0,0.0,0.0,0.0,143522.0,-0.02,0.01,-1.0,0.06,-0.12,0.0,13.35,41.56,-52.81,143530.0,-0.02,0.01,-1.0,-0.06,-0.12,0.0,11.55,40.36,-53.56,0.0,0.0,0.0,0.0,0.0,0.0,0.0,0.0,0.0,0.0,0.0,0.0,0.0,0.0,0.0,0.0,0.0,0.0,0.0,0.0,0.0
,,111439.855872,0.3050405979156494,0.0,0.0,0.0,0.0,0.0,0.0,0.0,0.0,0.0,0.0,0.0,143539.0,-0.03,0.01,-1.01,-0.06,-0.18,0.0,12.3,39.16,-53.11,143548.0,-0.03,0.02,-1.0,-0.06,-0.12,-0.06,12.75,40.21,-53.71,0.0,0.0,0.0,0.0,0.0,0.0,0.0,0.0,0.0,0.0,0.0,0.0,0.0,0.0,0.0,0.0,0.0,0.0,0.0,0.0,0.0
,,111439.876305,0.3254711627960205,0.0,0.0,0.0,0.0,0.0,0.0,0.0,0.0,0.0,0.0,0.0,143556.0,-0.04,0.01,-1.01,0.0,-0.06,-0.06,12.75,40.21,-53.71,143565.0,-0.03,0.01,-1.01,0.0,-0.06,-0.06,11.7,39.16,-52.81,0.0,0.0,0.0,0.0,0.0,0.0,0.0,0.0,0.0,0.0,0.0,0.0,0.0,0.0,0.0,0.0,0.0,0.0,0.0,0.0,0.0
,,111439.895707,0.34486842155456543,0.0,0.0,0.0,0.0,0.0,0.0,0.0,0.0,0.0,0.0,0.0,143574.0,-0.02,0.01,-1.0,0.0,-0.06,-0.06,13.05,40.21,-53.71,143582.0,-0.02,0.01,-1.02,-0.06,-0.06,0.0,13.35,39.91,-52.81,0.0,0.0,0.0,0.0,0.0,0.0,0.0,0.0,0.0,0.0,0.0,0.0,0.0,0.0,0.0,0.0,0.0,0.0,0.0,0.0,0.0
,,111439.916683,0.36586523056030273,0.0,0.0,0.0,0.0,0.0,0.0,0.0,0.0,0.0,0.0,0.0,143591.0,-0.03,0.01,-1.02,-0.06,-0.12,0.0,11.7,39.16,-53.41,143600.0,-0.02,0.0,-1.01,-0.06,-0.06,-0.06,13.65,40.36,-53.26,0.0,0.0,0.0,0.0,0.0,0.0,0.0,0.0,0.0,0.0,0.0,0.0,0.0,0.0,0.0,0.0,0.0,0.0,0.0,0.0,0.0
,,111439.936629,0.38581252098083496,0.0,0.0,0.0,0.0,0.0,0.0,0.0,0.0,0.0,0.0,0.0,143608.0,-0.02,0.02,-1.01,0.0,0.0,-0.12,10.95,39.46,-53.41,143617.0,-0.02,0.01,-1.0,-0.12,-0.06,-0.12,10.95,39.46,-53.41,0.0,0.0,0.0,0.0,0.0,0.0,0.0,0.0,0.0,0.0,0.0,0.0,0.0,0.0,0.0,0.0,0.0,0.0,0.0,0.0,0.0
,,111439.956675,0.405850887298584,0.0,0.0,0.0,0.0,0.0,0.0,0.0,0.0,0.0,0.0,0.0,143656.0,-0.03,0.0,-1.01,0.0,0.0,0.0,12.75,39.16,-51.76,143665.0,-0.02,0.01,-1.0,-0.06,-0.06,-0.12,13.05,39.91,-51.76,0.0,0.0,0.0,0.0,0.0,0.0,0.0,0.0,0.0,0.0,0.0,0.0,0.0,0.0,0.0,0.0,0.0,0.0,0.0,0.0,0.0
,,111439.976913,0.426088809967041,0.0,0.0,0.0,0.0,0.0,0.0,0.0,0.0,0.0,0.0,0.0,143674.0,-0.02,0.01,-1.0,0.0,-0.12,-0.12,11.7,39.91,-53.41,143682.0,-0.03,0.01,-1.0,-0.06,-0.06,-0.06,13.2,40.36,-54.61,0.0,0.0,0.0,0.0,0.0,0.0,0.0,0.0,0.0,0.0,0.0,0.0,0.0,0.0,0.0,0.0,0.0,0.0,0.0,0.0,0.0
,,111439.996924,0.44609570503234863,0.0,0.0,0.0,0.0,0.0,0.0,0.0,0.0,0.0,0.0,0.0,143691.0,-0.03,0.0,-1.01,-0.12,-0.12,-0.12,12.0,37.66,-52.81,143700.0,-0.02,0.01,-1.01,-0.06,-0.18,-0.12,12.15,39.01,-52.51,0.0,0.0,0.0,0.0,0.0,0.0,0.0,0.0,0.0,0.0,0.0,0.0,0.0,0.0,0.0,0.0,0.0,0.0,0.0,0.0,0.0
,,111440.018016,0.4672102928161621,0.0,0.0,0.0,0.0,0.0,0.0,0.0,0.0,0.0,0.0,0.0,143708.0,-0.03,0.01,-1.0,-0.06,-0.06,0.06,12.6,39.31,-53.86,143717.0,-0.03,-0.0,-1.0,-0.18,-0.06,-0.06,12.6,39.31,-53.86,0.0,0.0,0.0,0.0,0.0,0.0,0.0,0.0,0.0,0.0,0.0,0.0,0.0,0.0,0.0,0.0,0.0,0.0,0.0,0.0,0.0
,,111440.036152,0.48532915115356445,0.0,0.0,0.0,0.0,0.0,0.0,0.0,0.0,0.0,0.0,0.0,143726.0,-0.02,0.0,-1.0,0.0,0.0,-0.12,12.6,39.01,-52.51,143734.0,-0.02,0.01,-1.01,-0.06,-0.24,0.0,11.7,39.16,-52.81,0.0,0.0,0.0,0.0,0.0,0.0,0.0,0.0,0.0,0.0,0.0,0.0,0.0,0.0,0.0,0.0,0.0,0.0,0.0,0.0,0.0
,,111440.056268,0.5054445266723633,0.0,0.0,0.0,0.0,0.0,0.0,0.0,0.0,0.0,0.0,0.0,143743.0,-0.03,0.01,-1.01,-0.12,-0.06,-0.12,12.15,39.01,-54.61,143752.0,-0.02,0.01,-1.01,-0.06,-0.06,0.0,12.15,39.31,-53.86,0.0,0.0,0.0,0.0,0.0,0.0,0.0,0.0,0.0,0.0,0.0,0.0,0.0,0.0,0.0,0.0,0.0,0.0,0.0,0.0,0.0
,,111440.0763,0.5254859924316406,0.0,0.0,0.0,0.0,0.0,0.0,0.0,0.0,0.0,0.0,0.0,143760.0,-0.02,0.01,-1.02,0.0,-0.06,0.06,12.9,39.01,-52.96,143769.0,-0.03,0.0,-1.0,0.0,0.06,0.0,12.3,39.16,-54.16,0.0,0.0,0.0,0.0,0.0,0.0,0.0,0.0,0.0,0.0,0.0,0.0,0.0,0.0,0.0,0.0,0.0,0.0,0.0,0.0,0.0
,,111440.096271,0.5454466342926025,0.0,0.0,0.0,0.0,0.0,0.0,0.0,0.0,0.0,0.0,0.0,143807.0,-0.03,0.0,-1.0,0.0,0.0,-0.06,14.25,40.36,-51.91,143816.0,-0.02,0.0,-1.01,-0.18,-0.12,-0.18,13.2,40.66,-52.21,0.0,0.0,0.0,0.0,0.0,0.0,0.0,0.0,0.0,0.0,0.0,0.0,0.0,0.0,0.0,0.0,0.0,0.0,0.0,0.0,0.0
,,111440.116938,0.5661134719848633,0.0,0.0,0.0,0.0,0.0,0.0,0.0,0.0,0.0,0.0,0.0,143824.0,-0.03,0.0,-1.01,0.0,0.0,0.0,12.15,38.56,-52.96,143833.0,-0.02,0.01,-1.0,-0.06,-0.06,0.0,12.6,40.66,-53.26,0.0,0.0,0.0,0.0,0.0,0.0,0.0,0.0,0.0,0.0,0.0,0.0,0.0,0.0,0.0,0.0,0.0,0.0,0.0,0.0,0.0
,,111440.136203,0.5853869915008545,0.0,0.0,0.0,0.0,0.0,0.0,0.0,0.0,0.0,0.0,0.0,143841.0,-0.03,0.01,-1.01,-0.06,-0.06,-0.12,9.9,39.46,-53.41,143850.0,-0.03,-0.0,-1.01,-0.06,-0.06,-0.12,12.3,41.26,-53.11,0.0,0.0,0.0,0.0,0.0,0.0,0.0,0.0,0.0,0.0,0.0,0.0,0.0,0.0,0.0,0.0,0.0,0.0,0.0,0.0,0.0
,,111440.156343,0.6055147647857666,0.0,0.0,0.0,0.0,0.0,0.0,0.0,0.0,0.0,0.0,0.0,143859.0,-0.03,0.0,-0.99,0.0,0.0,-0.12,11.1,39.01,-52.96,143867.0,-0.02,0.01,-1.0,-0.06,-0.18,-0.06,12.0,39.01,-52.96,0.0,0.0,0.0,0.0,0.0,0.0,0.0,0.0,0.0,0.0,0.0,0.0,0.0,0.0,0.0,0.0,0.0,0.0,0.0,0.0,0.0
,,111440.176396,0.6255674362182617,0.0,0.0,0.0,0.0,0.0,0.0,0.0,0.0,0.0,0.0,0.0,143876.0,-0.02,0.0,-1.01,-0.06,-0.12,0.0,12.0,38.71,-52.36,146801.0,-0.02,0.01,-1.0,-0.06,-0.06,-0.12,13.2,39.61,-53.56,0.0,0.0,0.0,0.0,0.0,0.0,0.0,0.0,0.0,0.0,0.0,0.0,0.0,0.0,0.0,0.0,0.0,0.0,0.0,0.0,0.0
,,111440.196446,0.6456208229064941,0.0,0.0,0.0,0.0,0.0,0.0,0.0,0.0,0.0,0.0,0.0,146810.0,-0.03,0.01,-1.0,0.06,0.0,0.06,12.75,40.21,-53.41,146819.0,-0.03,0.01,-1.01,-0.18,-0.12,0.0,11.55,39.31,-54.31,0.0,0.0,0.0,0.0,0.0,0.0,0.0,0.0,0.0,0.0,0.0,0.0,0.0,0.0,0.0,0.0,0.0,0.0,0.0,0.0,0.0
,,111440.216401,0.6655862331390381,0.0,0.0,0.0,0.0,0.0,0.0,0.0,0.0,0.0,0.0,0.0,146827.0,-0.03,0.01,-1.01,0.06,-0.06,-0.06,12.15,39.31,-53.56,146836.0,-0.03,0.01,-1.0,-0.12,-0.12,0.0,12.15,39.31,-53.56,0.0,0.0,0.0,0.0,0.0,0.0,0.0,0.0,0.0,0.0,0.0,0.0,0.0,0.0,0.0,0.0,0.0,0.0,0.0,0.0,0.0
,,111440.239352,0.6885280609130859,0.0,0.0,0.0,0.0,0.0,0.0,0.0,0.0,0.0,0.0,0.0,146844.0,-0.02,0.0,-1.01,0.06,0.0,-0.12,13.2,39.31,-53.26,146880.0,-0.02,0.0,-1.01,-0.06,-0.24,0.0,13.8,40.21,-51.01,0.0,0.0,0.0,0.0,0.0,0.0,0.0,0.0,0.0,0.0,0.0,0.0,0.0,0.0,0.0,0.0,0.0,0.0,0.0,0.0,0.0
,,111440.256456,0.7056372165679932,0.0,0.0,0.0,0.0,0.0,0.0,0.0,0.0,0.0,0.0,0.0,146888.0,-0.02,0.01,-1.0,-0.06,-0.18,-0.12,11.7,40.51,-52.81,146897.0,-0.02,0.01,-1.0,0.0,0.0,-0.12,12.15,41.41,-52.96,0.0,0.0,0.0,0.0,0.0,0.0,0.0,0.0,0.0,0.0,0.0,0.0,0.0,0.0,0.0,0.0,0.0,0.0,0.0,0.0,0.0
,,111440.276313,0.725487232208252,0.0,0.0,0.0,0.0,0.0,0.0,0.0,0.0,0.0,0.0,0.0,146906.0,-0.02,0.01,-1.01,0.0,0.0,-0.06,12.15,41.41,-52.96,146914.0,-0.02,0.01,-0.99,-0.06,-0.06,0.0,13.35,39.46,-51.46,0.0,0.0,0.0,0.0,0.0,0.0,0.0,0.0,0.0,0.0,0.0,0.0,0.0,0.0,0.0,0.0,0.0,0.0,0.0,0.0,0.0
,,111440.296355,0.7455403804779053,0.0,0.0,0.0,0.0,0.0,0.0,0.0,0.0,0.0,0.0,0.0,146923.0,-0.02,0.01,-1.01,-0.06,-0.18,0.0,12.9,39.61,-53.26,146932.0,-0.03,0.01,-1.01,-0.12,-0.12,-0.06,11.85,40.66,-53.26,0.0,0.0,0.0,0.0,0.0,0.0,0.0,0.0,0.0,0.0,0.0,0.0,0.0,0.0,0.0,0.0,0.0,0.0,0.0,0.0,0.0
,,111440.316122,0.7652966976165771,0.0,0.0,0.0,0.0,0.0,0.0,0.0,0.0,0.0,0.0,0.0,146940.0,-0.02,0.0,-1.01,-0.06,-0.12,-0.12,12.3,40.21,-51.76,146949.0,-0.03,0.01,-1.0,0.12,0.0,0.06,12.0,39.91,-53.11,0.0,0.0,0.0,0.0,0.0,0.0,0.0,0.0,0.0,0.0,0.0,0.0,0.0,0.0,0.0,0.0,0.0,0.0,0.0,0.0,0.0
,,111440.336804,0.7859983444213867,0.0,0.0,0.0,0.0,0.0,0.0,0.0,0.0,0.0,0.0,0.0,146958.0,-0.03,0.01,-0.99,0.0,-0.06,0.06,11.85,38.56,-53.26,146966.0,-0.02,0.01,-1.0,0.12,0.0,0.0,12.6,39.01,-52.96,0.0,0.0,0.0,0.0,0.0,0.0,0.0,0.0,0.0,0.0,0.0,0.0,0.0,0.0,0.0,0.0,0.0,0.0,0.0,0.0,0.0
,,111440.35618,0.8053591251373291,0.0,0.0,0.0,0.0,0.0,0.0,0.0,0.0,0.0,0.0,0.0,146975.0,-0.01,0.01,-1.01,-0.06,-0.3,0.0,12.6,39.01,-52.96,146983.0,-0.02,0.01,-1.01,-0.06,-0.18,-0.24,12.15,39.31,-53.56,0.0,0.0,0.0,0.0,0.0,0.0,0.0,0.0,0.0,0.0,0.0,0.0,0.0,0.0,0.0,0.0,0.0,0.0,0.0,0.0,0.0
,,111440.391173,0.8403379917144775,0.0,0.0,0.0,0.0,0.0,0.0,0.0,0.0,0.0,0.0,0.0,146992.0,-0.02,0.02,-1.0,-0.06,-0.06,-0.24,13.2,40.06,-53.56,147032.0,-0.03,0.01,-1.01,0.0,0.0,-0.06,12.75,38.71,-53.11,0.0,0.0,0.0,0.0,0.0,0.0,0.0,0.0,0.0,0.0,0.0,0.0,0.0,0.0,0.0,0.0,0.0,0.0,0.0,0.0,0.0
,,111440.408479,0.8576536178588867,0.0,0.0,0.0,0.0,0.0,0.0,0.0,0.0,0.0,0.0,0.0,147041.0,-0.02,0.01,-1.0,-0.06,-0.06,0.0,14.4,40.96,-52.06,147049.0,-0.02,0.0,-1.0,-0.18,-0.06,-0.06,13.05,40.21,-52.36,0.0,0.0,0.0,0.0,0.0,0.0,0.0,0.0,0.0,0.0,0.0,0.0,0.0,0.0,0.0,0.0,0.0,0.0,0.0,0.0,0.0
,,111440.425846,0.8750126361846924,0.0,0.0,0.0,0.0,0.0,0.0,0.0,0.0,0.0,0.0,0.0,147058.0,-0.03,0.02,-1.02,-0.06,-0.12,-0.06,13.05,38.41,-53.41,147067.0,-0.01,0.0,-1.01,0.0,-0.06,-0.12,10.8,39.61,-53.26,0.0,0.0,0.0,0.0,0.0,0.0,0.0,0.0,0.0,0.0,0.0,0.0,0.0,0.0,0.0,0.0,0.0,0.0,0.0,0.0,0.0
,,111440.443663,0.8928310871124268,0.0,0.0,0.0,0.0,0.0,0.0,0.0,0.0,0.0,0.0,0.0,147075.0,-0.02,0.01,-1.01,-0.12,-0.24,-0.12,10.8,39.61,-53.26,147084.0,-0.03,0.01,-1.0,-0.06,-0.06,0.06,12.3,40.96,-53.11,0.0,0.0,0.0,0.0,0.0,0.0,0.0,0.0,0.0,0.0,0.0,0.0,0.0,0.0,0.0,0.0,0.0,0.0,0.0,0.0,0.0
,,111440.460873,0.9100499153137207,0.0,0.0,0.0,0.0,0.0,0.0,0.0,0.0,0.0,0.0,0.0,147093.0,-0.02,0.01,-1.0,0.0,-0.06,-0.06,13.2,39.31,-54.31,147102.0,-0.03,0.01,-1.02,-0.06,-0.12,0.0,12.15,39.01,-53.56,0.0,0.0,0.0,0.0,0.0,0.0,0.0,0.0,0.0,0.0,0.0,0.0,0.0,0.0,0.0,0.0,0.0,0.0,0.0,0.0,0.0
,,111440.477882,0.9270622730255127,0.0,0.0,0.0,0.0,0.0,0.0,0.0,0.0,0.0,0.0,0.0,147110.0,-0.03,0.02,-0.99,-0.06,-0.06,0.0,11.85,39.01,-54.31,147119.0,-0.03,0.01,-1.01,0.0,0.0,0.0,11.7,39.91,-54.16,0.0,0.0,0.0,0.0,0.0,0.0,0.0,0.0,0.0,0.0,0.0,0.0,0.0,0.0,0.0,0.0,0.0,0.0,0.0,0.0,0.0
,,111440.497906,0.9470937252044678,0.0,0.0,0.0,0.0,0.0,0.0,0.0,0.0,0.0,0.0,0.0,147127.0,-0.02,0.01,-1.01,-0.06,-0.18,-0.12,12.6,40.36,-53.56,147136.0,-0.02,0.01,-1.01,-0.06,0.0,-0.06,11.85,39.31,-53.86,0.0,0.0,0.0,0.0,0.0,0.0,0.0,0.0,0.0,0.0,0.0,0.0,0.0,0.0,0.0,0.0,0.0,0.0,0.0,0.0,0.0
,,111440.543547,0.9927256107330322,0.0,0.0,0.0,0.0,0.0,0.0,0.0,0.0,0.0,0.0,0.0,147145.0,-0.03,0.01,-1.01,-0.06,-0.12,-0.12,11.85,39.31,-53.86,147184.0,-0.03,0.01,-1.0,0.0,0.0,0.0,13.35,39.46,-51.76,0.0,0.0,0.0,0.0,0.0,0.0,0.0,0.0,0.0,0.0,0.0,0.0,0.0,0.0,0.0,0.0,0.0,0.0,0.0,0.0,0.0
,,111440.560601,1.0097761154174805,0.0,0.0,0.0,0.0,0.0,0.0,0.0,0.0,0.0,0.0,0.0,147192.0,-0.03,0.01,-1.0,-0.06,-0.12,-0.12,11.85,39.31,-52.21,147201.0,-0.03,0.0,-1.01,0.06,0.06,-0.06,12.75,41.26,-54.46,0.0,0.0,0.0,0.0,0.0,0.0,0.0,0.0,0.0,0.0,0.0,0.0,0.0,0.0,0.0,0.0,0.0,0.0,0.0,0.0,0.0
,,111440.578134,1.0273058414459229,0.0,0.0,0.0,0.0,0.0,0.0,0.0,0.0,0.0,0.0,0.0,147210.0,-0.02,0.01,-1.01,-0.12,-0.12,0.0,11.85,39.01,-52.51,147219.0,-0.03,0.01,-1.0,-0.12,-0.18,-0.06,14.1,40.21,-53.11,0.0,0.0,0.0,0.0,0.0,0.0,0.0,0.0,0.0,0.0,0.0,0.0,0.0,0.0,0.0,0.0,0.0,0.0,0.0,0.0,0.0
,,111440.595555,1.0447311401367188,0.0,0.0,0.0,0.0,0.0,0.0,0.0,0.0,0.0,0.0,0.0,147227.0,-0.03,0.0,-1.0,0.12,0.0,-0.12,13.05,40.96,-53.41,147236.0,-0.02,0.01,-1.01,-0.06,-0.06,-0.06,13.95,39.61,-53.26,0.0,0.0,0.0,0.0,0.0,0.0,0.0,0.0,0.0,0.0,0.0,0.0,0.0,0.0,0.0,0.0,0.0,0.0,0.0,0.0,0.0
,,111440.61211,1.0612702369689941,0.0,0.0,0.0,0.0,0.0,0.0,0.0,0.0,0.0,0.0,0.0,147245.0,-0.03,0.01,-1.0,0.0,0.0,-0.12,13.95,39.61,-53.26,147253.0,-0.02,0.01,-1.01,0.0,0.0,-0.12,12.15,39.61,-53.26,0.0,0.0,0.0,0.0,0.0,0.0,0.0,0.0,0.0,0.0,0.0,0.0,0.0,0.0,0.0,0.0,0.0,0.0,0.0,0.0,0.0
,,111440.62947,1.0786323547363281,0.0,0.0,0.0,0.0,0.0,0.0,0.0,0.0,0.0,0.0,0.0,147262.0,-0.02,0.01,-1.01,-0.06,-0.18,0.0,11.1,39.31,-52.96,147270.0,-0.02,0.01,-1.01,-0.18,-0.12,-0.18,11.25,40.21,-53.41,0.0,0.0,0.0,0.0,0.0,0.0,0.0,0.0,0.0,0.0,0.0,0.0,0.0,0.0,0.0,0.0,0.0,0.0,0.0,0.0,0.0
,,111440.646583,1.0957448482513428,0.0,0.0,0.0,0.0,0.0,0.0,0.0,0.0,0.0,0.0,0.0,147279.0,-0.03,0.0,-0.99,-0.06,-0.06,0.0,10.8,37.96,-52.96,147288.0,-0.03,0.01,-0.99,0.0,0.0,-0.06,13.05,38.71,-54.16,0.0,0.0,0.0,0.0,0.0,0.0,0.0,0.0,0.0,0.0,0.0,0.0,0.0,0.0,0.0,0.0,0.0,0.0,0.0,0.0,0.0
,,111440.696514,1.1456952095031738,0.0,0.0,0.0,0.0,0.0,0.0,0.0,0.0,0.0,0.0,0.0,147296.0,-0.02,0.02,-1.0,0.06,0.06,-0.12,14.1,40.21,-53.11,147337.0,-0.02,0.01,-1.01,-0.06,-0.24,-0.06,13.8,39.16,-52.36,0.0,0.0,0.0,0.0,0.0,0.0,0.0,0.0,0.0,0.0,0.0,0.0,0.0,0.0,0.0,0.0,0.0,0.0,0.0,0.0,0.0
,,111440.713646,1.1628239154815674,0.0,0.0,0.0,0.0,0.0,0.0,0.0,0.0,0.0,0.0,0.0,147345.0,-0.03,0.01,-1.01,-0.12,-0.18,-0.12,13.8,39.16,-52.36,147354.0,-0.02,0.0,-1.01,-0.06,-0.12,-0.18,13.05,40.21,-51.76,0.0,0.0,0.0,0.0,0.0,0.0,0.0,0.0,0.0,0.0,0.0,0.0,0.0,0.0,0.0,0.0,0.0,0.0,0.0,0.0,0.0
,,111440.731396,1.1805830001831055,0.0,0.0,0.0,0.0,0.0,0.0,0.0,0.0,0.0,0.0,0.0,147363.0,-0.02,0.01,-1.01,-0.24,-0.06,-0.12,12.0,38.11,-53.71,147372.0,-0.02,0.02,-1.01,-0.06,-0.06,-0.12,12.0,39.46,-52.81,0.0,0.0,0.0,0.0,0.0,0.0,0.0,0.0,0.0,0.0,0.0,0.0,0.0,0.0,0.0,0.0,0.0,0.0,0.0,0.0,0.0
,,111440.747923,1.1970939636230469,0.0,0.0,0.0,0.0,0.0,0.0,0.0,0.0,0.0,0.0,0.0,147380.0,-0.02,0.01,-1.01,0.0,0.0,-0.12,12.3,38.71,-54.76,147389.0,-0.03,0.01,-1.01,0.0,0.0,0.0,13.05,39.46,-53.11,0.0,0.0,0.0,0.0,0.0,0.0,0.0,0.0,0.0,0.0,0.0,0.0,0.0,0.0,0.0,0.0,0.0,0.0,0.0,0.0,0.0
,,111440.765282,1.2144536972045898,0.0,0.0,0.0,0.0,0.0,0.0,0.0,0.0,0.0,0.0,0.0,147397.0,-0.02,0.0,-1.01,0.0,-0.06,-0.12,12.75,40.21,-54.16,147406.0,-0.02,0.01,-1.01,-0.12,-0.12,-0.18,12.75,40.21,-54.16,0.0,0.0,0.0,0.0,0.0,0.0,0.0,0.0,0.0,0.0,0.0,0.0,0.0,0.0,0.0,0.0,0.0,0.0,0.0,0.0,0.0
,,111440.782714,1.231886863708496,0.0,0.0,0.0,0.0,0.0,0.0,0.0,0.0,0.0,0.0,0.0,147414.0,-0.02,0.02,-1.0,-0.06,0.0,-0.06,12.3,39.46,-53.11,147423.0,-0.02,0.0,-1.01,-0.12,-0.06,0.06,10.8,38.56,-54.61,0.0,0.0,0.0,0.0,0.0,0.0,0.0,0.0,0.0,0.0,0.0,0.0,0.0,0.0,0.0,0.0,0.0,0.0,0.0,0.0,0.0
,,111440.800139,1.2493176460266113,0.0,0.0,0.0,0.0,0.0,0.0,0.0,0.0,0.0,0.0,0.0,147432.0,-0.03,0.0,-1.01,-0.18,-0.24,0.06,12.3,39.46,-52.81,147440.0,-0.02,0.0,-1.02,-0.06,-0.06,-0.06,11.85,40.36,-53.56,0.0,0.0,0.0,0.0,0.0,0.0,0.0,0.0,0.0,0.0,0.0,0.0,0.0,0.0,0.0,0.0,0.0,0.0,0.0,0.0,0.0
,,111440.848948,1.2981288433074951,0.0,0.0,0.0,0.0,0.0,0.0,0.0,0.0,0.0,0.0,0.0,147449.0,-0.03,0.01,-1.0,0.0,0.0,-0.06,12.15,40.36,-52.21,147489.0,-0.02,0.01,-1.0,-0.06,-0.12,0.06,13.2,40.06,-52.21,0.0,0.0,0.0,0.0,0.0,0.0,0.0,0.0,0.0,0.0,0.0,0.0,0.0,0.0,0.0,0.0,0.0,0.0,0.0,0.0,0.0
,,111440.866341,1.3155159950256348,0.0,0.0,0.0,0.0,0.0,0.0,0.0,0.0,0.0,0.0,0.0,147498.0,-0.03,0.01,-1.01,-0.18,-0.12,-0.06,11.25,41.26,-52.81,147506.0,-0.03,0.01,-1.0,-0.06,-0.12,-0.12,13.8,40.21,-51.01,0.0,0.0,0.0,0.0,0.0,0.0,0.0,0.0,0.0,0.0,0.0,0.0,0.0,0.0,0.0,0.0,0.0,0.0,0.0,0.0,0.0
,,111440.883446,1.3326208591461182,0.0,0.0,0.0,0.0,0.0,0.0,0.0,0.0,0.0,0.0,0.0,147515.0,-0.03,0.01,-1.0,-0.06,0.06,-0.06,13.8,40.21,-51.01,147524.0,-0.02,0.01,-1.01,-0.06,-0.12,0.0,12.15,40.06,-53.56,0.0,0.0,0.0,0.0,0.0,0.0,0.0,0.0,0.0,0.0,0.0,0.0,0.0,0.0,0.0,0.0,0.0,0.0,0.0,0.0,0.0
,,111440.900365,1.349531650543213,0.0,0.0,0.0,0.0,0.0,0.0,0.0,0.0,0.0,0.0,0.0,147532.0,-0.03,0.01,-1.01,0.0,0.0,-0.06,12.6,39.01,-52.96,147541.0,-0.02,0.0,-1.02,-0.06,-0.12,-0.06,12.15,39.61,-54.31,0.0,0.0,0.0,0.0,0.0,0.0,0.0,0.0,0.0,0.0,0.0,0.0,0.0,0.0,0.0,0.0,0.0,0.0,0.0,0.0,0.0
,,111440.91786,1.367030382156372,0.0,0.0,0.0,0.0,0.0,0.0,0.0,0.0,0.0,0.0,0.0,147550.0,-0.02,0.02,-1.01,-0.06,0.0,0.0,12.0,39.46,-52.36,147558.0,-0.02,0.01,-1.01,-0.06,-0.12,0.0,12.0,39.46,-53.71,0.0,0.0,0.0,0.0,0.0,0.0,0.0,0.0,0.0,0.0,0.0,0.0,0.0,0.0,0.0,0.0,0.0,0.0,0.0,0.0,0.0
,,111440.935325,1.3844947814941406,0.0,0.0,0.0,0.0,0.0,0.0,0.0,0.0,0.0,0.0,0.0,147567.0,-0.02,0.01,-1.0,-0.12,-0.12,-0.12,12.6,39.61,-54.31,147576.0,-0.01,0.01,-1.01,-0.06,-0.12,0.0,12.6,39.61,-54.31,0.0,0.0,0.0,0.0,0.0,0.0,0.0,0.0,0.0,0.0,0.0,0.0,0.0,0.0,0.0,0.0,0.0,0.0,0.0,0.0,0.0
,,111440.952131,1.4013025760650635,0.0,0.0,0.0,0.0,0.0,0.0,0.0,0.0,0.0,0.0,0.0,147584.0,-0.03,0.01,-1.0,-0.12,-0.06,0.0,12.3,39.16,-53.71,147593.0,-0.02,0.0,-1.01,0.0,0.0,0.06,11.85,39.01,-53.26,0.0,0.0,0.0,0.0,0.0,0.0,0.0,0.0,0.0,0.0,0.0,0.0,0.0,0.0,0.0,0.0,0.0,0.0,0.0,0.0,0.0
,,111441.002094,1.4512896537780762,0.0,0.0,0.0,0.0,0.0,0.0,0.0,0.0,0.0,0.0,0.0,147601.0,-0.03,0.01,-1.0,-0.06,-0.12,-0.06,12.0,39.91,-53.41,147642.0,-0.02,0.01,-1.0,-0.12,-0.18,-0.12,13.35,40.21,-53.11,0.0,0.0,0.0,0.0,0.0,0.0,0.0,0.0,0.0,0.0,0.0,0.0,0.0,0.0,0.0,0.0,0.0,0.0,0.0,0.0,0.0
,,111441.018799,1.467970609664917,0.0,0.0,0.0,0.0,0.0,0.0,0.0,0.0,0.0,0.0,0.0,147651.0,-0.02,0.0,-1.0,-0.06,-0.18,-0.06,13.35,39.46,-52.81,147660.0,-0.02,0.02,-1.02,0.0,-0.06,0.0,12.6,39.31,-54.31,0.0,0.0,0.0,0.0,0.0,0.0,0.0,0.0,0.0,0.0,0.0,0.0,0.0,0.0,0.0,0.0,0.0,0.0,0.0,0.0,0.0
,,111441.03579,1.484947919845581,0.0,0.0,0.0,0.0,0.0,0.0,0.0,0.0,0.0,0.0,0.0,147668.0,-0.02,0.01,-1.02,0.0,-0.12,-0.06,12.75,38.71,-54.76,147677.0,-0.03,0.01,-1.01,-0.12,-0.12,-0.12,12.0,39.46,-53.41,0.0,0.0,0.0,0.0,0.0,0.0,0.0,0.0,0.0,0.0,0.0,0.0,0.0,0.0,0.0,0.0,0.0,0.0,0.0,0.0,0.0
,,111441.053697,1.5028657913208008,0.0,0.0,0.0,0.0,0.0,0.0,0.0,0.0,0.0,0.0,0.0,147685.0,-0.03,0.01,-1.01,0.0,0.06,-0.06,12.0,39.46,-53.41,147694.0,-0.02,0.01,-1.01,-0.06,-0.18,0.0,13.95,40.06,-53.56,0.0,0.0,0.0,0.0,0.0,0.0,0.0,0.0,0.0,0.0,0.0,0.0,0.0,0.0,0.0,0.0,0.0,0.0,0.0,0.0,0.0
,,111441.070971,1.520141363143921,0.0,0.0,0.0,0.0,0.0,0.0,0.0,0.0,0.0,0.0,0.0,147703.0,-0.02,0.01,-1.0,-0.12,-0.06,0.0,12.75,39.91,-53.71,147711.0,-0.03,0.01,-1.01,-0.06,-0.12,0.0,12.9,38.26,-53.26,0.0,0.0,0.0,0.0,0.0,0.0,0.0,0.0,0.0,0.0,0.0,0.0,0.0,0.0,0.0,0.0,0.0,0.0,0.0,0.0,0.0
,,111441.088421,1.537597417831421,0.0,0.0,0.0,0.0,0.0,0.0,0.0,0.0,0.0,0.0,0.0,147720.0,-0.02,0.01,-1.0,-0.06,-0.06,-0.06,13.05,40.96,-53.11,147729.0,-0.02,0.01,-1.01,-0.06,-0.06,-0.12,12.0,39.91,-53.71,0.0,0.0,0.0,0.0,0.0,0.0,0.0,0.0,0.0,0.0,0.0,0.0,0.0,0.0,0.0,0.0,0.0,0.0,0.0,0.0,0.0
,,111441.108339,1.5575239658355713,0.0,0.0,0.0,0.0,0.0,0.0,0.0,0.0,0.0,0.0,0.0,147737.0,-0.03,0.01,-1.0,-0.12,-0.06,-0.18,12.6,39.31,-53.26,147746.0,-0.02,0.01,-1.0,-0.06,-0.06,0.06,12.6,41.11,-52.96,0.0,0.0,0.0,0.0,0.0,0.0,0.0,0.0,0.0,0.0,0.0,0.0,0.0,0.0,0.0,0.0,0.0,0.0,0.0,0.0,0.0
,,111441.155461,1.6046490669250488,0.0,0.0,0.0,0.0,0.0,0.0,0.0,0.0,0.0,0.0,0.0,147755.0,-0.03,0.0,-1.01,-0.06,-0.18,-0.06,12.6,41.11,-52.96,147796.0,-0.03,0.01,-1.0,-0.18,-0.12,0.0,12.15,40.06,-52.96,0.0,0.0,0.0,0.0,0.0,0.0,0.0,0.0,0.0,0.0,0.0,0.0,0.0,0.0,0.0,0.0,0.0,0.0,0.0,0.0,0.0
,,111441.173601,1.6227867603302002,0.0,0.0,0.0,0.0,0.0,0.0,0.0,0.0,0.0,0.0,0.0,147805.0,-0.03,0.01,-1.01,-0.06,0.0,-0.12,12.15,40.06,-52.96,147814.0,-0.02,0.01,-1.0,-0.06,-0.06,-0.12,13.95,39.31,-52.96,0.0,0.0,0.0,0.0,0.0,0.0,0.0,0.0,0.0,0.0,0.0,0.0,0.0,0.0,0.0,0.0,0.0,0.0,0.0,0.0,0.0
,,111441.191715,1.6408960819244385,0.0,0.0,0.0,0.0,0.0,0.0,0.0,0.0,0.0,0.0,0.0,147823.0,-0.03,0.01,-1.01,-0.06,-0.06,0.0,11.55,39.61,-52.51,147832.0,-0.02,0.01,-1.01,-0.06,-0.06,-0.06,11.85,40.66,-52.21,0.0,0.0,0.0,0.0,0.0,0.0,0.0,0.0,0.0,0.0,0.0,0.0,0.0,0.0,0.0,0.0,0.0,0.0,0.0,0.0,0.0
,,111441.209622,1.6588101387023926,0.0,0.0,0.0,0.0,0.0,0.0,0.0,0.0,0.0,0.0,0.0,147841.0,-0.02,0.01,-1.01,0.0,-0.12,-0.12,10.95,39.46,-53.71,147850.0,-0.02,0.01,-1.01,-0.06,-0.18,-0.06,13.65,38.56,-53.26,0.0,0.0,0.0,0.0,0.0,0.0,0.0,0.0,0.0,0.0,0.0,0.0,0.0,0.0,0.0,0.0,0.0,0.0,0.0,0.0,0.0
,,111441.226907,1.6760835647583008,0.0,0.0,0.0,0.0,0.0,0.0,0.0,0.0,0.0,0.0,0.0,147858.0,-0.02,0.01,-1.0,-0.12,-0.06,0.0,10.5,40.36,-52.96,147867.0,-0.03,0.01,-1.0,-0.12,-0.06,0.0,12.3,39.91,-54.46,0.0,0.0,0.0,0.0,0.0,0.0,0.0,0.0,0.0,0.0,0.0,0.0,0.0,0.0,0.0,0.0,0.0,0.0,0.0,0.0,0.0
,,111441.244328,1.6935057640075684,0.0,0.0,0.0,0.0,0.0,0.0,0.0,0.0,0.0,0.0,0.0,147876.0,-0.02,0.01,-1.0,-0.06,-0.06,-0.12,12.15,40.36,-52.51,147884.0,-0.02,0.01,-1.01,-0.06,-0.12,-0.18,12.15,40.36,-52.51,0.0,0.0,0.0,0.0,0.0,0.0,0.0,0.0,0.0,0.0,0.0,0.0,0.0,0.0,0.0,0.0,0.0,0.0,0.0,0.0,0.0
,,111441.261686,1.7108738422393799,0.0,0.0,0.0,0.0,0.0,0.0,0.0,0.0,0.0,0.0,0.0,147893.0,-0.02,0.01,-1.0,-0.06,-0.12,-0.06,12.6,39.61,-53.56,147902.0,-0.03,0.02,-1.0,0.0,0.06,-0.06,12.15,40.36,-53.56,0.0,0.0,0.0,0.0,0.0,0.0,0.0,0.0,0.0,0.0,0.0,0.0,0.0,0.0,0.0,0.0,0.0,0.0,0.0,0.0,0.0
,,111441.311711,1.7608745098114014,0.0,0.0,0.0,0.0,0.0,0.0,0.0,0.0,0.0,0.0,0.0,147911.0,-0.02,0.01,-1.01,0.06,0.0,-0.12,12.75,39.46,-53.41,147952.0,-0.03,0.01,-1.0,0.0,0.0,-0.12,13.05,40.51,-52.06,0.0,0.0,0.0,0.0,0.0,0.0,0.0,0.0,0.0,0.0,0.0,0.0,0.0,0.0,0.0,0.0,0.0,0.0,0.0,0.0,0.0
,,111441.330003,1.7791838645935059,0.0,0.0,0.0,0.0,0.0,0.0,0.0,0.0,0.0,0.0,0.0,147961.0,-0.02,0.01,-1.0,0.06,0.06,-0.12,13.05,40.96,-51.76,147970.0,-0.02,0.01,-1.01,0.0,0.12,-0.12,12.9,39.31,-53.26,0.0,0.0,0.0,0.0,0.0,0.0,0.0,0.0,0.0,0.0,0.0,0.0,0.0,0.0,0.0,0.0,0.0,0.0,0.0,0.0,0.0
,,111441.34814,1.7973096370697021,0.0,0.0,0.0,0.0,0.0,0.0,0.0,0.0,0.0,0.0,0.0,147979.0,-0.02,0.02,-1.01,-0.12,-0.06,0.06,13.05,40.96,-52.36,147988.0,-0.03,0.01,-1.01,-0.12,-0.06,0.0,13.2,40.06,-53.26,0.0,0.0,0.0,0.0,0.0,0.0,0.0,0.0,0.0,0.0,0.0,0.0,0.0,0.0,0.0,0.0,0.0,0.0,0.0,0.0,0.0
,,111441.366272,1.8154497146606445,0.0,0.0,0.0,0.0,0.0,0.0,0.0,0.0,0.0,0.0,0.0,147997.0,-0.02,0.01,-1.0,-0.06,-0.06,0.06,11.1,37.96,-53.56,148006.0,-0.03,0.01,-1.01,0.06,0.0,-0.12,10.65,40.51,-53.11,0.0,0.0,0.0,0.0,0.0,0.0,0.0,0.0,0.0,0.0,0.0,0.0,0.0,0.0,0.0,0.0,0.0,0.0,0.0,0.0,0.0
,,111441.384065,1.8332364559173584,0.0,0.0,0.0,0.0,0.0,0.0,0.0,0.0,0.0,0.0,0.0,148015.0,-0.02,0.0,-1.01,-0.06,-0.12,-0.06,12.75,40.21,-53.11,148025.0,-0.03,0.01,-1.01,0.0,0.0,-0.12,12.75,40.21,-53.11,0.0,0.0,0.0,0.0,0.0,0.0,0.0,0.0,0.0,0.0,0.0,0.0,0.0,0.0,0.0,0.0,0.0,0.0,0.0,0.0,0.0
,,111441.402758,1.851961612701416,0.0,0.0,0.0,0.0,0.0,0.0,0.0,0.0,0.0,0.0,0.0,148033.0,-0.03,0.01,-1.01,0.0,-0.06,0.06,12.75,39.16,-53.11,148042.0,-0.02,0.0,-1.0,-0.06,-0.12,0.0,13.2,39.61,-52.96,0.0,0.0,0.0,0.0,0.0,0.0,0.0,0.0,0.0,0.0,0.0,0.0,0.0,0.0,0.0,0.0,0.0,0.0,0.0,0.0,0.0
,,111441.420369,1.8695409297943115,0.0,0.0,0.0,0.0,0.0,0.0,0.0,0.0,0.0,0.0,0.0,148051.0,-0.02,0.01,-1.0,-0.06,-0.18,-0.06,10.65,39.16,-53.41,148061.0,-0.02,0.01,-1.01,0.0,-0.12,0.06,11.85,39.61,-53.86,0.0,0.0,0.0,0.0,0.0,0.0,0.0,0.0,0.0,0.0,0.0,0.0,0.0,0.0,0.0,0.0,0.0,0.0,0.0,0.0,0.0
,,111441.477737,1.9269189834594727,0.0,0.0,0.0,0.0,0.0,0.0,0.0,0.0,0.0,0.0,0.0,148070.0,-0.02,0.01,-1.01,-0.06,-0.12,0.06,12.0,38.11,-53.71,148118.0,-0.02,-0.0,-1.02,-0.12,-0.24,0.0,13.8,40.96,-52.36,0.0,0.0,0.0,0.0,0.0,0.0,0.0,0.0,0.0,0.0,0.0,0.0,0.0,0.0,0.0,0.0,0.0,0.0,0.0,0.0,0.0
,,111441.495441,1.9446310997009277,0.0,0.0,0.0,0.0,0.0,0.0,0.0,0.0,0.0,0.0,0.0,148127.0,-0.03,0.01,-1.0,0.0,0.0,0.06,14.1,39.46,-52.06,148135.0,-0.03,0.01,-1.01,0.0,0.06,0.12,11.7,39.91,-52.06,0.0,0.0,0.0,0.0,0.0,0.0,0.0,0.0,0.0,0.0,0.0,0.0,0.0,0.0,0.0,0.0,0.0,0.0,0.0,0.0,0.0
,,111441.514373,1.9636106491088867,0.0,0.0,0.0,0.0,0.0,0.0,0.0,0.0,0.0,0.0,0.0,148144.0,-0.02,0.01,-1.01,-0.12,-0.12,0.0,11.7,39.91,-54.16,148153.0,-0.03,0.01,-1.01,-0.12,-0.18,0.06,11.7,40.21,-53.71,0.0,0.0,0.0,0.0,0.0,0.0,0.0,0.0,0.0,0.0,0.0,0.0,0.0,0.0,0.0,0.0,0.0,0.0,0.0,0.0,0.0
,,111441.531294,1.9804823398590088,0.0,0.0,0.0,0.0,0.0,0.0,0.0,0.0,0.0,0.0,0.0,148163.0,-0.02,0.01,-1.01,0.0,0.0,-0.06,11.25,40.51,-53.41,148172.0,-0.02,0.01,-1.01,0.0,0.0,0.0,12.9,39.01,-52.96,0.0,0.0,0.0,0.0,0.0,0.0,0.0,0.0,0.0,0.0,0.0,0.0,0.0,0.0,0.0,0.0,0.0,0.0,0.0,0.0,0.0
,,111441.548529,1.9976837635040283,0.0,0.0,0.0,0.0,0.0,0.0,0.0,0.0,0.0,0.0,0.0,148180.0,-0.02,0.01,-1.0,0.0,0.0,0.06,12.6,39.61,-52.96,148189.0,-0.02,0.0,-1.0,-0.06,-0.06,0.0,12.0,39.91,-53.41,0.0,0.0,0.0,0.0,0.0,0.0,0.0,0.0,0.0,0.0,0.0,0.0,0.0,0.0,0.0,0.0,0.0,0.0,0.0,0.0,0.0
,,111441.566936,2.0161051750183105,0.0,0.0,0.0,0.0,0.0,0.0,0.0,0.0,0.0,0.0,0.0,148198.0,-0.02,0.0,-1.0,-0.06,-0.06,0.12,10.95,39.91,-52.81,148207.0,-0.03,0.0,-1.01,0.0,0.0,0.06,11.7,39.91,-52.81,0.0,0.0,0.0,0.0,0.0,0.0,0.0,0.0,0.0,0.0,0.0,0.0,0.0,0.0,0.0,0.0,0.0,0.0,0.0,0.0,0.0
,,111441.584905,2.0340726375579834,0.0,0.0,0.0,0.0,0.0,0.0,0.0,0.0,0.0,0.0,0.0,148216.0,-0.03,0.01,-1.0,-0.18,-0.12,0.0,12.3,40.21,-53.41,148225.0,-0.02,0.02,-1.01,-0.06,-0.06,0.0,12.3,40.21,-53.41,0.0,0.0,0.0,0.0,0.0,0.0,0.0,0.0,0.0,0.0,0.0,0.0,0.0,0.0,0.0,0.0,0.0,0.0,0.0,0.0,0.0
,,111441.633679,2.0828704833984375,0.0,0.0,0.0,0.0,0.0,0.0,0.0,0.0,0.0,0.0,0.0,148234.0,-0.03,0.01,-1.02,0.0,-0.06,0.06,11.55,39.31,-52.96,148273.0,-0.02,0.01,-1.0,0.0,-0.06,0.06,13.8,39.91,-52.81,0.0,0.0,0.0,0.0,0.0,0.0,0.0,0.0,0.0,0.0,0.0,0.0,0.0,0.0,0.0,0.0,0.0,0.0,0.0,0.0,0.0
,,111441.651913,2.1011054515838623,0.0,0.0,0.0,0.0,0.0,0.0,0.0,0.0,0.0,0.0,0.0,148282.0,-0.02,0.01,-1.01,-0.12,-0.06,0.0,14.4,39.91,-52.36,148291.0,-0.03,0.01,-1.0,0.0,0.0,0.06,12.6,40.06,-50.56,0.0,0.0,0.0,0.0,0.0,0.0,0.0,0.0,0.0,0.0,0.0,0.0,0.0,0.0,0.0,0.0,0.0,0.0,0.0,0.0,0.0
,,111441.668547,2.1177024841308594,0.0,0.0,0.0,0.0,0.0,0.0,0.0,0.0,0.0,0.0,0.0,148300.0,-0.02,0.0,-1.01,0.0,0.0,0.06,12.3,40.21,-53.11,148309.0,-0.02,0.01,-1.01,-0.06,-0.06,0.0,11.7,40.21,-53.41,0.0,0.0,0.0,0.0,0.0,0.0,0.0,0.0,0.0,0.0,0.0,0.0,0.0,0.0,0.0,0.0,0.0,0.0,0.0,0.0,0.0
,,111441.687057,2.1362249851226807,0.0,0.0,0.0,0.0,0.0,0.0,0.0,0.0,0.0,0.0,0.0,148318.0,-0.02,0.02,-1.02,0.0,0.0,0.12,11.85,40.66,-52.51,148327.0,-0.02,0.0,-1.01,-0.06,-0.06,0.06,11.7,38.71,-53.41,0.0,0.0,0.0,0.0,0.0,0.0,0.0,0.0,0.0,0.0,0.0,0.0,0.0,0.0,0.0,0.0,0.0,0.0,0.0,0.0,0.0
,,111441.705316,2.154494285583496,0.0,0.0,0.0,0.0,0.0,0.0,0.0,0.0,0.0,0.0,0.0,148336.0,-0.02,0.0,-1.01,0.0,0.06,0.06,10.5,40.36,-53.86,148345.0,-0.02,0.01,-1.0,-0.06,-0.12,0.06,10.5,40.36,-53.86,0.0,0.0,0.0,0.0,0.0,0.0,0.0,0.0,0.0,0.0,0.0,0.0,0.0,0.0,0.0,0.0,0.0,0.0,0.0,0.0,0.0
,,111441.723407,2.172584056854248,0.0,0.0,0.0,0.0,0.0,0.0,0.0,0.0,0.0,0.0,0.0,148354.0,-0.03,0.0,-1.0,-0.06,-0.18,0.0,12.9,39.61,-53.26,148363.0,-0.03,0.0,-1.02,0.0,-0.06,-0.06,13.05,39.91,-52.81,0.0,0.0,0.0,0.0,0.0,0.0,0.0,0.0,0.0,0.0,0.0,0.0,0.0,0.0,0.0,0.0,0.0,0.0,0.0,0.0,0.0
,,111441.741471,2.1906580924987793,0.0,0.0,0.0,0.0,0.0,0.0,0.0,0.0,0.0,0.0,0.0,148372.0,-0.03,0.01,-1.01,-0.06,-0.12,0.0,12.0,39.16,-53.71,148381.0,-0.03,0.01,-1.01,-0.06,-0.12,0.06,10.65,40.51,-53.71,0.0,0.0,0.0,0.0,0.0,0.0,0.0,0.0,0.0,0.0,0.0,0.0,0.0,0.0,0.0,0.0,0.0,0.0,0.0,0.0,0.0
,,111441.78885,2.238024950027466,0.0,0.0,0.0,0.0,0.0,0.0,0.0,0.0,0.0,0.0,0.0,148390.0,-0.03,0.0,-1.0,0.0,0.0,0.0,13.95,40.36,-52.96,148429.0,-0.03,0.01,-1.01,-0.06,-0.06,-0.06,14.85,40.96,-52.36,0.0,0.0,0.0,0.0,0.0,0.0,0.0,0.0,0.0,0.0,0.0,0.0,0.0,0.0,0.0,0.0,0.0,0.0,0.0,0.0,0.0
,,111441.80744,2.2566275596618652,0.0,0.0,0.0,0.0,0.0,0.0,0.0,0.0,0.0,0.0,0.0,148438.0,-0.02,0.0,-1.0,-0.12,-0.06,0.06,13.95,39.01,-51.91,148447.0,-0.02,0.02,-1.0,-0.12,-0.06,0.0,11.55,40.36,-53.86,0.0,0.0,0.0,0.0,0.0,0.0,0.0,0.0,0.0,0.0,0.0,0.0,0.0,0.0,0.0,0.0,0.0,0.0,0.0,0.0,0.0
,,111441.825084,2.2742702960968018,0.0,0.0,0.0,0.0,0.0,0.0,0.0,0.0,0.0,0.0,0.0,148456.0,-0.02,0.0,-1.01,-0.06,-0.06,0.0,12.6,38.56,-54.91,148465.0,-0.02,0.0,-1.01,-0.06,-0.12,0.0,12.6,38.56,-54.91,0.0,0.0,0.0,0.0,0.0,0.0,0.0,0.0,0.0,0.0,0.0,0.0,0.0,0.0,0.0,0.0,0.0,0.0,0.0,0.0,0.0
,,111441.843161,2.292336940765381,0.0,0.0,0.0,0.0,0.0,0.0,0.0,0.0,0.0,0.0,0.0,148474.0,-0.02,0.01,-1.01,-0.18,-0.12,0.06,11.55,38.56,-53.86,148483.0,-0.02,0.01,-1.01,0.0,0.0,0.12,13.05,39.46,-54.16,0.0,0.0,0.0,0.0,0.0,0.0,0.0,0.0,0.0,0.0,0.0,0.0,0.0,0.0,0.0,0.0,0.0,0.0,0.0,0.0,0.0
,,111441.861182,2.3103692531585693,0.0,0.0,0.0,0.0,0.0,0.0,0.0,0.0,0.0,0.0,0.0,148492.0,-0.02,0.01,-1.02,-0.06,-0.24,0.0,10.65,39.46,-54.16,148501.0,-0.03,0.02,-1.0,-0.06,-0.18,0.06,12.75,39.16,-54.16,0.0,0.0,0.0,0.0,0.0,0.0,0.0,0.0,0.0,0.0,0.0,0.0,0.0,0.0,0.0,0.0,0.0,0.0,0.0,0.0,0.0
,,111441.879466,2.328636407852173,0.0,0.0,0.0,0.0,0.0,0.0,0.0,0.0,0.0,0.0,0.0,148510.0,-0.02,0.0,-1.0,-0.06,0.06,0.0,11.25,39.16,-53.41,148519.0,-0.02,0.0,-1.0,-0.18,-0.06,-0.06,12.0,38.71,-53.71,0.0,0.0,0.0,0.0,0.0,0.0,0.0,0.0,0.0,0.0,0.0,0.0,0.0,0.0,0.0,0.0,0.0,0.0,0.0,0.0,0.0
,,111441.897311,2.3464958667755127,0.0,0.0,0.0,0.0,0.0,0.0,0.0,0.0,0.0,0.0,0.0,148528.0,-0.02,0.0,-1.01,-0.06,-0.06,0.0,10.8,38.26,-53.86,148537.0,-0.02,0.01,-1.0,0.0,0.06,0.0,13.05,40.51,-52.36,0.0,0.0,0.0,0.0,0.0,0.0,0.0,0.0,0.0,0.0,0.0,0.0,0.0,0.0,0.0,0.0,0.0,0.0,0.0,0.0,0.0
,,111441.942184,2.3913514614105225,0.0,0.0,0.0,0.0,0.0,0.0,0.0,0.0,0.0,0.0,0.0,148546.0,-0.02,0.01,-1.0,0.0,0.0,0.06,12.15,39.61,-53.86,148582.0,-0.02,0.01,-1.0,-0.06,-0.12,-0.06,13.95,39.31,-51.16,0.0,0.0,0.0,0.0,0.0,0.0,0.0,0.0,0.0,0.0,0.0,0.0,0.0,0.0,0.0,0.0,0.0,0.0,0.0,0.0,0.0
,,111441.960422,2.409590005874634,0.0,0.0,0.0,0.0,0.0,0.0,0.0,0.0,0.0,0.0,0.0,148591.0,-0.02,0.01,-1.01,-0.06,-0.06,0.0,13.2,40.06,-52.51,148600.0,-0.03,0.02,-1.01,-0.06,-0.12,0.06,10.8,40.36,-52.96,0.0,0.0,0.0,0.0,0.0,0.0,0.0,0.0,0.0,0.0,0.0,0.0,0.0,0.0,0.0,0.0,0.0,0.0,0.0,0.0,0.0
,,111441.978817,2.4279940128326416,0.0,0.0,0.0,0.0,0.0,0.0,0.0,0.0,0.0,0.0,0.0,148610.0,-0.03,0.01,-1.0,-0.12,-0.18,0.06,12.3,40.21,-52.81,148619.0,-0.02,-0.0,-1.01,-0.06,-0.06,0.06,13.35,39.46,-52.81,0.0,0.0,0.0,0.0,0.0,0.0,0.0,0.0,0.0,0.0,0.0,0.0,0.0,0.0,0.0,0.0,0.0,0.0,0.0,0.0,0.0
,,111441.996962,2.4461374282836914,0.0,0.0,0.0,0.0,0.0,0.0,0.0,0.0,0.0,0.0,0.0,148628.0,-0.02,0.01,-1.01,-0.12,-0.12,0.0,12.15,38.56,-54.61,148637.0,-0.02,0.01,-1.01,-0.12,-0.12,0.06,11.55,39.01,-52.96,0.0,0.0,0.0,0.0,0.0,0.0,0.0,0.0,0.0,0.0,0.0,0.0,0.0,0.0,0.0,0.0,0.0,0.0,0.0,0.0,0.0
,,111442.015088,2.4642586708068848,0.0,0.0,0.0,0.0,0.0,0.0,0.0,0.0,0.0,0.0,0.0,148646.0,-0.03,0.0,-1.01,-0.12,-0.06,-0.06,12.6,40.06,-54.91,148655.0,-0.03,0.01,-1.01,-0.18,-0.06,0.0,13.05,40.51,-52.36,0.0,0.0,0.0,0.0,0.0,0.0,0.0,0.0,0.0,0.0,0.0,0.0,0.0,0.0,0.0,0.0,0.0,0.0,0.0,0.0,0.0
,,111442.032871,2.4820446968078613,0.0,0.0,0.0,0.0,0.0,0.0,0.0,0.0,0.0,0.0,0.0,148664.0,-0.03,0.0,-1.01,-0.06,-0.06,0.06,13.05,40.51,-52.36,148673.0,-0.03,0.01,-1.01,0.0,0.0,0.0,11.85,40.36,-53.26,0.0,0.0,0.0,0.0,0.0,0.0,0.0,0.0,0.0,0.0,0.0,0.0,0.0,0.0,0.0,0.0,0.0,0.0,0.0,0.0,0.0
,,111442.050874,2.500026226043701,0.0,0.0,0.0,0.0,0.0,0.0,0.0,0.0,0.0,0.0,0.0,148682.0,-0.02,0.01,-1.01,-0.06,-0.06,0.06,11.7,39.91,-54.76,148691.0,-0.03,0.01,-1.0,-0.06,-0.06,0.06,11.7,40.21,-52.36,0.0,0.0,0.0,0.0,0.0,0.0,0.0,0.0,0.0,0.0,0.0,0.0,0.0,0.0,0.0,0.0,0.0,0.0,0.0,0.0,0.0
,,111442.100762,2.549964189529419,0.0,0.0,0.0,0.0,0.0,0.0,0.0,0.0,0.0,0.0,0.0,148700.0,-0.03,0.01,-1.01,-0.06,-0.18,0.06,12.3,40.51,-52.06,148740.0,-0.02,0.02,-1.01,-0.06,-0.06,-0.06,11.1,39.61,-52.96,0.0,0.0,0.0,0.0,0.0,0.0,0.0,0.0,0.0,0.0,0.0,0.0,0.0,0.0,0.0,0.0,0.0,0.0,0.0,0.0,0.0
,,111442.118484,2.567664623260498,0.0,0.0,0.0,0.0,0.0,0.0,0.0,0.0,0.0,0.0,0.0,148749.0,-0.02,0.01,-1.0,-0.06,-0.18,0.0,11.1,39.01,-52.51,148758.0,-0.03,0.0,-1.01,-0.12,-0.12,0.0,11.85,40.06,-54.91,0.0,0.0,0.0,0.0,0.0,0.0,0.0,0.0,0.0,0.0,0.0,0.0,0.0,0.0,0.0,0.0,0.0,0.0,0.0,0.0,0.0
,,111442.136612,2.5857913494110107,0.0,0.0,0.0,0.0,0.0,0.0,0.0,0.0,0.0,0.0,0.0,148767.0,-0.03,0.01,-1.0,0.0,-0.06,0.0,13.35,39.91,-51.76,148776.0,-0.03,0.01,-1.0,-0.12,-0.12,-0.12,11.85,39.61,-53.26,0.0,0.0,0.0,0.0,0.0,0.0,0.0,0.0,0.0,0.0,0.0,0.0,0.0,0.0,0.0,0.0,0.0,0.0,0.0,0.0,0.0
,,111442.154732,2.6039018630981445,0.0,0.0,0.0,0.0,0.0,0.0,0.0,0.0,0.0,0.0,0.0,148785.0,-0.03,0.0,-1.0,-0.06,-0.12,0.06,12.6,40.06,-54.31,148795.0,-0.03,0.01,-1.0,-0.06,-0.06,0.06,12.6,40.06,-54.31,0.0,0.0,0.0,0.0,0.0,0.0,0.0,0.0,0.0,0.0,0.0,0.0,0.0,0.0,0.0,0.0,0.0,0.0,0.0,0.0,0.0
,,111442.172565,2.621737241744995,0.0,0.0,0.0,0.0,0.0,0.0,0.0,0.0,0.0,0.0,0.0,148804.0,-0.02,0.01,-1.0,-0.12,-0.24,0.06,12.9,40.06,-53.26,148813.0,-0.03,0.01,-1.01,0.0,-0.06,0.06,12.15,39.31,-54.61,0.0,0.0,0.0,0.0,0.0,0.0,0.0,0.0,0.0,0.0,0.0,0.0,0.0,0.0,0.0,0.0,0.0,0.0,0.0,0.0,0.0
,,111442.191555,2.6407439708709717,0.0,0.0,0.0,0.0,0.0,0.0,0.0,0.0,0.0,0.0,0.0,148822.0,-0.02,0.02,-1.0,0.0,-0.06,0.0,11.1,40.06,-54.31,148831.0,-0.03,0.01,-1.01,-0.12,-0.06,0.12,12.6,39.31,-53.56,0.0,0.0,0.0,0.0,0.0,0.0,0.0,0.0,0.0,0.0,0.0,0.0,0.0,0.0,0.0,0.0,0.0,0.0,0.0,0.0,0.0
,,111442.209311,2.6584880352020264,0.0,0.0,0.0,0.0,0.0,0.0,0.0,0.0,0.0,0.0,0.0,148840.0,-0.02,0.01,-1.0,-0.18,-0.18,0.06,11.55,39.61,-52.51,148849.0,-0.03,0.01,-1.0,-0.06,-0.12,0.0,12.9,40.36,-53.26,0.0,0.0,0.0,0.0,0.0,0.0,0.0,0.0,0.0,0.0,0.0,0.0,0.0,0.0,0.0,0.0,0.0,0.0,0.0,0.0,0.0
,,111442.257527,2.7067086696624756,0.0,0.0,0.0,0.0,0.0,0.0,0.0,0.0,0.0,0.0,0.0,148858.0,-0.02,0.01,-1.0,-0.06,-0.12,-0.06,11.85,39.61,-52.51,148897.0,-0.03,0.0,-1.01,-0.12,-0.12,0.12,13.95,40.06,-50.26,0.0,0.0,0.0,0.0,0.0,0.0,0.0,0.0,0.0,0.0,0.0,0.0,0.0,0.0,0.0,0.0,0.0,0.0,0.0,0.0,0.0
,,111442.275378,2.724555730819702,0.0,0.0,0.0,0.0,0.0,0.0,0.0,0.0,0.0,0.0,0.0,148906.0,-0.03,0.01,-1.01,-0.06,-0.12,0.0,13.05,39.16,-53.41,148915.0,-0.02,0.01,-1.01,0.0,-0.06,-0.06,13.35,42.01,-53.41,0.0,0.0,0.0,0.0,0.0,0.0,0.0,0.0,0.0,0.0,0.0,0.0,0.0,0.0,0.0,0.0,0.0,0.0,0.0,0.0,0.0
,,111442.293445,2.7426230907440186,0.0,0.0,0.0,0.0,0.0,0.0,0.0,0.0,0.0,0.0,0.0,148924.0,-0.02,0.01,-1.0,0.0,0.0,0.06,13.35,42.01,-53.41,148933.0,-0.03,0.01,-1.02,-0.06,-0.06,0.12,12.9,40.36,-53.86,0.0,0.0,0.0,0.0,0.0,0.0,0.0,0.0,0.0,0.0,0.0,0.0,0.0,0.0,0.0,0.0,0.0,0.0,0.0,0.0,0.0
,,111442.311699,2.7608795166015625,0.0,0.0,0.0,0.0,0.0,0.0,0.0,0.0,0.0,0.0,0.0,148942.0,-0.03,0.01,-1.01,-0.06,-0.06,0.06,12.3,39.91,-53.11,148951.0,-0.03,0.01,-1.01,-0.12,-0.06,-0.06,13.05,38.71,-52.36,0.0,0.0,0.0,0.0,0.0,0.0,0.0,0.0,0.0,0.0,0.0,0.0,0.0,0.0,0.0,0.0,0.0,0.0,0.0,0.0,0.0
,,111442.329524,2.7787022590637207,0.0,0.0,0.0,0.0,0.0,0.0,0.0,0.0,0.0,0.0,0.0,148960.0,-0.02,0.01,-1.0,-0.06,-0.06,0.06,10.5,39.31,-53.86,148970.0,-0.02,0.0,-0.99,0.0,0.0,0.12,12.75,39.16,-52.06,0.0,0.0,0.0,0.0,0.0,0.0,0.0,0.0,0.0,0.0,0.0,0.0,0.0,0.0,0.0,0.0,0.0,0.0,0.0,0.0,0.0
,,111442.347721,2.7969000339508057,0.0,0.0,0.0,0.0,0.0,0.0,0.0,0.0,0.0,0.0,0.0,148978.0,-0.03,-0.0,-1.0,-0.12,-0.06,0.06,10.65,39.46,-54.16,148988.0,-0.03,0.01,-1.01,-0.06,-0.06,0.0,12.9,41.11,-53.26,0.0,0.0,0.0,0.0,0.0,0.0,0.0,0.0,0.0,0.0,0.0,0.0,0.0,0.0,0.0,0.0,0.0,0.0,0.0,0.0,0.0
,,111442.366049,2.815227508544922,0.0,0.0,0.0,0.0,0.0,0.0,0.0,0.0,0.0,0.0,0.0,148997.0,-0.03,0.01,-1.0,-0.12,-0.12,0.12,9.9,40.21,-54.16,149006.0,-0.02,0.01,-0.99,-0.06,-0.12,0.0,12.0,38.11,-52.36,0.0,0.0,0.0,0.0,0.0,0.0,0.0,0.0,0.0,0.0,0.0,0.0,0.0,0.0,0.0,0.0,0.0,0.0,0.0,0.0,0.0
,,111442.41485,2.864025115966797,0.0,0.0,0.0,0.0,0.0,0.0,0.0,0.0,0.0,0.0,0.0,149015.0,-0.02,0.01,-1.0,-0.06,0.0,0.06,12.0,38.11,-52.36,149055.0,-0.02,0.01,-1.02,-0.12,-0.12,0.0,14.1,39.46,-53.11,0.0,0.0,0.0,0.0,0.0,0.0,0.0,0.0,0.0,0.0,0.0,0.0,0.0,0.0,0.0,0.0,0.0,0.0,0.0,0.0,0.0
,,111442.432774,2.881945848464966,0.0,0.0,0.0,0.0,0.0,0.0,0.0,0.0,0.0,0.0,0.0,149064.0,-0.02,0.0,-1.0,-0.18,-0.06,-0.06,15.0,40.66,-50.86,149073.0,-0.02,0.01,-1.01,0.0,0.0,-0.06,12.6,40.06,-52.96,0.0,0.0,0.0,0.0,0.0,0.0,0.0,0.0,0.0,0.0,0.0,0.0,0.0,0.0,0.0,0.0,0.0,0.0,0.0,0.0,0.0
,,111442.450745,2.8999242782592773,0.0,0.0,0.0,0.0,0.0,0.0,0.0,0.0,0.0,0.0,0.0,149082.0,-0.03,0.01,-1.01,-0.06,-0.18,0.0,10.95,39.16,-53.71,149091.0,-0.03,0.02,-1.01,0.0,0.0,0.06,13.8,40.21,-53.71,0.0,0.0,0.0,0.0,0.0,0.0,0.0,0.0,0.0,0.0,0.0,0.0,0.0,0.0,0.0,0.0,0.0,0.0,0.0,0.0,0.0
,,111442.468874,2.9180526733398438,0.0,0.0,0.0,0.0,0.0,0.0,0.0,0.0,0.0,0.0,0.0,149100.0,-0.03,0.01,-1.01,-0.06,-0.06,0.12,13.05,39.16,-54.16,149109.0,-0.02,0.01,-1.01,0.0,0.0,-0.06,11.7,40.21,-52.06,0.0,0.0,0.0,0.0,0.0,0.0,0.0,0.0,0.0,0.0,0.0,0.0,0.0,0.0,0.0,0.0,0.0,0.0,0.0,0.0,0.0
,,111442.487124,2.9362986087799072,0.0,0.0,0.0,0.0,0.0,0.0,0.0,0.0,0.0,0.0,0.0,149118.0,-0.02,0.01,-1.0,-0.12,-0.06,0.06,12.3,37.66,-53.71,149127.0,-0.03,0.01,-1.01,-0.06,-0.12,0.06,12.3,41.26,-53.41,0.0,0.0,0.0,0.0,0.0,0.0,0.0,0.0,0.0,0.0,0.0,0.0,0.0,0.0,0.0,0.0,0.0,0.0,0.0,0.0,0.0
,,111442.505321,2.9544878005981445,0.0,0.0,0.0,0.0,0.0,0.0,0.0,0.0,0.0,0.0,0.0,149136.0,-0.02,0.01,-1.01,-0.06,-0.18,-0.06,12.6,39.61,-54.91,149145.0,-0.02,0.01,-1.0,-0.12,-0.12,-0.12,12.9,40.36,-53.26,0.0,0.0,0.0,0.0,0.0,0.0,0.0,0.0,0.0,0.0,0.0,0.0,0.0,0.0,0.0,0.0,0.0,0.0,0.0,0.0,0.0
,,111442.523521,2.972691059112549,0.0,0.0,0.0,0.0,0.0,0.0,0.0,0.0,0.0,0.0,0.0,149154.0,-0.02,0.02,-1.01,-0.06,-0.06,0.06,12.9,40.36,-53.26,149163.0,-0.03,0.01,-1.0,-0.12,-0.06,0.0,12.0,39.16,-53.11,0.0,0.0,0.0,0.0,0.0,0.0,0.0,0.0,0.0,0.0,0.0,0.0,0.0,0.0,0.0,0.0,0.0,0.0,0.0,0.0,0.0
,,111442.572147,3.0213394165039062,0.0,0.0,0.0,0.0,0.0,0.0,0.0,0.0,0.0,0.0,0.0,149172.0,-0.02,0.01,-1.01,-0.06,-0.12,-0.06,12.0,38.41,-53.41,149211.0,-0.02,0.01,-1.0,-0.12,-0.18,0.12,12.6,40.66,-51.16,0.0,0.0,0.0,0.0,0.0,0.0,0.0,0.0,0.0,0.0,0.0,0.0,0.0,0.0,0.0,0.0,0.0,0.0,0.0,0.0,0.0
,,111442.590607,3.039793014526367,0.0,0.0,0.0,0.0,0.0,0.0,0.0,0.0,0.0,0.0,0.0,149221.0,-0.02,0.01,-1.0,-0.06,-0.06,-0.12,12.3,40.21,-54.46,149230.0,-0.02,0.01,-1.0,-0.06,-0.24,-0.06,11.1,38.26,-52.51,0.0,0.0,0.0,0.0,0.0,0.0,0.0,0.0,0.0,0.0,0.0,0.0,0.0,0.0,0.0,0.0,0.0,0.0,0.0,0.0,0.0
,,111442.608459,3.057635545730591,0.0,0.0,0.0,0.0,0.0,0.0,0.0,0.0,0.0,0.0,0.0,149239.0,-0.03,0.01,-1.01,-0.06,-0.12,0.0,13.05,40.21,-53.41,149248.0,-0.03,0.01,-1.0,-0.06,-0.12,0.06,12.75,39.46,-53.41,0.0,0.0,0.0,0.0,0.0,0.0,0.0,0.0,0.0,0.0,0.0,0.0,0.0,0.0,0.0,0.0,0.0,0.0,0.0,0.0,0.0
,,111442.626132,3.0753040313720703,0.0,0.0,0.0,0.0,0.0,0.0,0.0,0.0,0.0,0.0,0.0,149257.0,-0.03,0.02,-1.01,0.0,0.0,0.0,10.95,38.71,-53.71,149266.0,-0.03,0.0,-1.02,-0.06,-0.12,0.06,12.75,39.16,-53.11,0.0,0.0,0.0,0.0,0.0,0.0,0.0,0.0,0.0,0.0,0.0,0.0,0.0,0.0,0.0,0.0,0.0,0.0,0.0,0.0,0.0
,,111442.64421,3.093381643295288,0.0,0.0,0.0,0.0,0.0,0.0,0.0,0.0,0.0,0.0,0.0,149275.0,-0.02,0.0,-1.0,-0.06,-0.12,0.0,11.85,39.61,-54.31,149284.0,-0.03,0.01,-1.0,-0.06,-0.12,0.0,11.85,39.61,-54.31,0.0,0.0,0.0,0.0,0.0,0.0,0.0,0.0,0.0,0.0,0.0,0.0,0.0,0.0,0.0,0.0,0.0,0.0,0.0,0.0,0.0
,,111442.662497,3.111682415008545,0.0,0.0,0.0,0.0,0.0,0.0,0.0,0.0,0.0,0.0,0.0,149293.0,-0.02,0.01,-1.0,-0.06,-0.06,0.06,12.3,39.91,-52.36,149302.0,-0.03,0.01,-1.02,0.0,0.06,0.06,13.65,39.61,-52.51,0.0,0.0,0.0,0.0,0.0,0.0,0.0,0.0,0.0,0.0,0.0,0.0,0.0,0.0,0.0,0.0,0.0,0.0,0.0,0.0,0.0
,,111442.679909,3.1290597915649414,0.0,0.0,0.0,0.0,0.0,0.0,0.0,0.0,0.0,0.0,0.0,149311.0,-0.02,0.01,-1.0,0.0,-0.06,-0.06,14.25,39.61,-53.26,149320.0,-0.03,0.0,-1.02,-0.12,-0.18,0.06,11.85,39.01,-54.31,0.0,0.0,0.0,0.0,0.0,0.0,0.0,0.0,0.0,0.0,0.0,0.0,0.0,0.0,0.0,0.0,0.0,0.0,0.0,0.0,0.0
,,111442.791615,3.2407948970794678,0.0,0.0,0.0,0.0,0.0,0.0,0.0,0.0,0.0,0.0,0.0,149329.0,-0.03,0.01,-1.01,0.06,0.0,0.06,13.05,39.16,-53.11,149431.0,-0.03,0.01,-1.01,-0.12,-0.12,0.12,13.2,40.36,-52.96,0.0,0.0,0.0,0.0,0.0,0.0,0.0,0.0,0.0,0.0,0.0,0.0,0.0,0.0,0.0,0.0,0.0,0.0,0.0,0.0,0.0
,,111442.810243,3.2594199180603027,0.0,0.0,0.0,0.0,0.0,0.0,0.0,0.0,0.0,0.0,0.0,149441.0,-0.03,-0.0,-1.0,0.0,0.12,0.0,11.25,39.91,-54.46,149451.0,-0.03,0.0,-1.02,0.0,0.0,0.0,13.2,39.31,-52.21,0.0,0.0,0.0,0.0,0.0,0.0,0.0,0.0,0.0,0.0,0.0,0.0,0.0,0.0,0.0,0.0,0.0,0.0,0.0,0.0,0.0
,,111442.831072,3.280251979827881,0.0,0.0,0.0,0.0,0.0,0.0,0.0,0.0,0.0,0.0,0.0,149461.0,-0.02,0.0,-1.0,-0.12,-0.12,0.0,13.35,39.16,-54.76,149471.0,-0.02,0.01,-1.01,-0.06,-0.06,0.06,11.25,39.16,-53.41,0.0,0.0,0.0,0.0,0.0,0.0,0.0,0.0,0.0,0.0,0.0,0.0,0.0,0.0,0.0,0.0,0.0,0.0,0.0,0.0,0.0
,,111442.85128,3.3004610538482666,0.0,0.0,0.0,0.0,0.0,0.0,0.0,0.0,0.0,0.0,0.0,149480.0,-0.03,0.02,-1.01,-0.06,-0.06,-0.06,11.7,39.16,-54.16,149491.0,-0.03,0.02,-1.02,0.0,0.06,0.0,12.6,40.06,-53.26,0.0,0.0,0.0,0.0,0.0,0.0,0.0,0.0,0.0,0.0,0.0,0.0,0.0,0.0,0.0,0.0,0.0,0.0,0.0,0.0,0.0
,,111442.871044,3.320214033126831,0.0,0.0,0.0,0.0,0.0,0.0,0.0,0.0,0.0,0.0,0.0,149501.0,-0.02,0.01,-1.0,0.0,0.06,0.06,11.25,39.46,-53.11,149511.0,-0.03,0.0,-1.01,-0.18,-0.06,0.0,12.3,39.91,-53.41,0.0,0.0,0.0,0.0,0.0,0.0,0.0,0.0,0.0,0.0,0.0,0.0,0.0,0.0,0.0,0.0,0.0,0.0,0.0,0.0,0.0
,,111442.890525,3.3396942615509033,0.0,0.0,0.0,0.0,0.0,0.0,0.0,0.0,0.0,0.0,0.0,149520.0,-0.02,0.01,-0.99,0.0,0.0,-0.06,12.9,38.26,-53.26,149530.0,-0.02,0.02,-1.02,-0.06,-0.18,0.0,13.8,39.16,-52.36,0.0,0.0,0.0,0.0,0.0,0.0,0.0,0.0,0.0,0.0,0.0,0.0,0.0,0.0,0.0,0.0,0.0,0.0,0.0,0.0,0.0
,,111442.910488,3.3596534729003906,0.0,0.0,0.0,0.0,0.0,0.0,0.0,0.0,0.0,0.0,0.0,149541.0,-0.03,0.01,-1.0,-0.06,-0.06,0.06,14.85,38.71,-52.36,149550.0,-0.02,0.0,-1.0,-0.24,-0.06,0.06,12.3,38.71,-54.16,0.0,0.0,0.0,0.0,0.0,0.0,0.0,0.0,0.0,0.0,0.0,0.0,0.0,0.0,0.0,0.0,0.0,0.0,0.0,0.0,0.0
,,111442.960235,3.409417152404785,0.0,0.0,0.0,0.0,0.0,0.0,0.0,0.0,0.0,0.0,0.0,149561.0,-0.02,0.0,-1.01,-0.06,-0.12,-0.12,12.9,39.01,-52.96,149600.0,-0.02,-0.0,-1.01,-0.06,-0.06,0.06,14.7,41.71,-51.91,0.0,0.0,0.0,0.0,0.0,0.0,0.0,0.0,0.0,0.0,0.0,0.0,0.0,0.0,0.0,0.0,0.0,0.0,0.0,0.0,0.0
,,111442.977259,3.4264347553253174,0.0,0.0,0.0,0.0,0.0,0.0,0.0,0.0,0.0,0.0,0.0,149608.0,-0.03,0.0,-1.01,0.0,0.06,-0.06,12.0,39.91,-53.41,149617.0,-0.02,0.01,-1.0,-0.12,-0.12,0.0,11.7,40.21,-53.11,0.0,0.0,0.0,0.0,0.0,0.0,0.0,0.0,0.0,0.0,0.0,0.0,0.0,0.0,0.0,0.0,0.0,0.0,0.0,0.0,0.0
,,111442.9945,3.443671941757202,0.0,0.0,0.0,0.0,0.0,0.0,0.0,0.0,0.0,0.0,0.0,149625.0,-0.02,0.02,-1.0,-0.06,-0.06,-0.06,13.05,38.71,-52.36,149634.0,-0.03,0.01,-1.01,-0.06,-0.06,0.06,13.05,38.71,-52.36,0.0,0.0,0.0,0.0,0.0,0.0,0.0,0.0,0.0,0.0,0.0,0.0,0.0,0.0,0.0,0.0,0.0,0.0,0.0,0.0,0.0
,,111443.01218,3.4613702297210693,0.0,0.0,0.0,0.0,0.0,0.0,0.0,0.0,0.0,0.0,0.0,149643.0,-0.03,0.01,-1.01,-0.06,-0.06,-0.06,14.1,39.16,-53.41,149652.0,-0.02,0.01,-1.0,-0.06,-0.18,0.12,12.0,37.36,-54.76,0.0,0.0,0.0,0.0,0.0,0.0,0.0,0.0,0.0,0.0,0.0,0.0,0.0,0.0,0.0,0.0,0.0,0.0,0.0,0.0,0.0
,,111443.029434,3.4786136150360107,0.0,0.0,0.0,0.0,0.0,0.0,0.0,0.0,0.0,0.0,0.0,149660.0,-0.02,0.0,-1.0,-0.06,-0.06,0.0,13.2,40.36,-53.26,149669.0,-0.02,0.01,-1.01,-0.18,-0.06,0.06,10.8,38.56,-54.61,0.0,0.0,0.0,0.0,0.0,0.0,0.0,0.0,0.0,0.0,0.0,0.0,0.0,0.0,0.0,0.0,0.0,0.0,0.0,0.0,0.0
,,111443.046089,3.495242118835449,0.0,0.0,0.0,0.0,0.0,0.0,0.0,0.0,0.0,0.0,0.0,149678.0,-0.03,0.01,-1.01,-0.06,0.06,0.0,12.75,40.21,-51.76,149686.0,-0.02,0.01,-1.0,-0.06,-0.12,0.0,11.85,39.61,-53.26,0.0,0.0,0.0,0.0,0.0,0.0,0.0,0.0,0.0,0.0,0.0,0.0,0.0,0.0,0.0,0.0,0.0,0.0,0.0,0.0,0.0
,,111443.063397,3.5125603675842285,0.0,0.0,0.0,0.0,0.0,0.0,0.0,0.0,0.0,0.0,0.0,149695.0,-0.02,0.01,-1.0,0.0,0.0,-0.12,13.95,40.06,-53.26,149703.0,-0.02,0.01,-1.01,-0.12,-0.24,0.0,13.95,40.06,-53.26,0.0,0.0,0.0,0.0,0.0,0.0,0.0,0.0,0.0,0.0,0.0,0.0,0.0,0.0,0.0,0.0,0.0,0.0,0.0,0.0,0.0
,,111443.11283,3.562008857727051,0.0,0.0,0.0,0.0,0.0,0.0,0.0,0.0,0.0,0.0,0.0,149712.0,-0.03,0.01,-1.01,-0.06,-0.06,-0.06,11.25,38.71,-53.41,149752.0,-0.02,0.01,-1.02,-0.06,-0.18,0.12,13.95,40.66,-50.86,0.0,0.0,0.0,0.0,0.0,0.0,0.0,0.0,0.0,0.0,0.0,0.0,0.0,0.0,0.0,0.0,0.0,0.0,0.0,0.0,0.0
,,111443.130123,3.579296588897705,0.0,0.0,0.0,0.0,0.0,0.0,0.0,0.0,0.0,0.0,0.0,149761.0,-0.02,0.01,-1.0,-0.12,-0.12,-0.12,13.05,39.46,-53.41,149770.0,-0.03,0.01,-1.01,0.0,0.0,-0.06,13.35,41.26,-53.11,0.0,0.0,0.0,0.0,0.0,0.0,0.0,0.0,0.0,0.0,0.0,0.0,0.0,0.0,0.0,0.0,0.0,0.0,0.0,0.0,0.0
,,111443.147246,3.5964157581329346,0.0,0.0,0.0,0.0,0.0,0.0,0.0,0.0,0.0,0.0,0.0,149778.0,-0.02,0.0,-1.0,-0.06,-0.06,0.12,11.7,39.46,-53.11,149787.0,-0.03,0.01,-1.0,0.06,0.0,0.0,12.9,40.36,-53.26,0.0,0.0,0.0,0.0,0.0,0.0,0.0,0.0,0.0,0.0,0.0,0.0,0.0,0.0,0.0,0.0,0.0,0.0,0.0,0.0,0.0
,,111443.164182,3.6133546829223633,0.0,0.0,0.0,0.0,0.0,0.0,0.0,0.0,0.0,0.0,0.0,149796.0,-0.02,0.01,-1.0,0.0,0.0,0.0,11.25,39.16,-53.41,149804.0,-0.03,0.01,-1.01,-0.06,-0.12,0.06,11.25,39.16,-53.41,0.0,0.0,0.0,0.0,0.0,0.0,0.0,0.0,0.0,0.0,0.0,0.0,0.0,0.0,0.0,0.0,0.0,0.0,0.0,0.0,0.0
,,111443.181552,3.6307382583618164,0.0,0.0,0.0,0.0,0.0,0.0,0.0,0.0,0.0,0.0,0.0,149813.0,-0.02,0.01,-1.01,-0.06,-0.18,-0.12,12.6,39.61,-52.96,149821.0,-0.03,0.01,-1.01,0.06,0.0,0.18,12.0,39.46,-53.71,0.0,0.0,0.0,0.0,0.0,0.0,0.0,0.0,0.0,0.0,0.0,0.0,0.0,0.0,0.0,0.0,0.0,0.0,0.0,0.0,0.0
,,111443.199209,3.64837908744812,0.0,0.0,0.0,0.0,0.0,0.0,0.0,0.0,0.0,0.0,0.0,149830.0,-0.02,0.02,-1.01,0.0,0.0,0.0,13.05,38.71,-54.76,149838.0,-0.02,0.0,-1.01,0.0,0.0,-0.12,11.85,40.06,-52.96,0.0,0.0,0.0,0.0,0.0,0.0,0.0,0.0,0.0,0.0,0.0,0.0,0.0,0.0,0.0,0.0,0.0,0.0,0.0,0.0,0.0
,,111443.219158,3.6683356761932373,0.0,0.0,0.0,0.0,0.0,0.0,0.0,0.0,0.0,0.0,0.0,149847.0,-0.02,0.01,-1.02,-0.06,-0.06,0.06,11.7,38.71,-53.71,149856.0,-0.02,0.01,-1.02,-0.06,-0.06,0.0,11.85,39.31,-52.96,0.0,0.0,0.0,0.0,0.0,0.0,0.0,0.0,0.0,0.0,0.0,0.0,0.0,0.0,0.0,0.0,0.0,0.0,0.0,0.0,0.0
,,111443.26348,3.7126622200012207,0.0,0.0,0.0,0.0,0.0,0.0,0.0,0.0,0.0,0.0,0.0,149864.0,-0.02,0.01,-1.02,0.0,0.0,-0.06,11.85,39.31,-52.96,149903.0,-0.02,0.01,-1.0,-0.06,0.0,-0.06,13.65,39.31,-51.61,0.0,0.0,0.0,0.0,0.0,0.0,0.0,0.0,0.0,0.0,0.0,0.0,0.0,0.0,0.0,0.0,0.0,0.0,0.0,0.0,0.0
,,111443.281656,3.730846643447876,0.0,0.0,0.0,0.0,0.0,0.0,0.0,0.0,0.0,0.0,0.0,149912.0,-0.02,0.01,-1.01,-0.06,-0.18,-0.06,13.65,38.26,-52.21,149920.0,-0.02,0.01,-0.99,-0.06,-0.12,0.06,11.25,38.41,-53.11,0.0,0.0,0.0,0.0,0.0,0.0,0.0,0.0,0.0,0.0,0.0,0.0,0.0,0.0,0.0,0.0,0.0,0.0,0.0,0.0,0.0
,,111443.299104,3.7483065128326416,0.0,0.0,0.0,0.0,0.0,0.0,0.0,0.0,0.0,0.0,0.0,149929.0,-0.03,0.01,-1.01,-0.06,-0.12,0.06,12.0,40.21,-53.41,149938.0,-0.03,0.01,-1.0,-0.12,-0.12,0.0,12.6,39.01,-53.26,0.0,0.0,0.0,0.0,0.0,0.0,0.0,0.0,0.0,0.0,0.0,0.0,0.0,0.0,0.0,0.0,0.0,0.0,0.0,0.0,0.0
,,111443.315055,3.7642111778259277,0.0,0.0,0.0,0.0,0.0,0.0,0.0,0.0,0.0,0.0,0.0,149946.0,-0.03,0.01,-1.0,-0.06,0.0,-0.12,12.3,39.46,-53.11,149955.0,-0.02,0.0,-1.0,-0.06,-0.06,0.12,12.6,39.61,-52.96,0.0,0.0,0.0,0.0,0.0,0.0,0.0,0.0,0.0,0.0,0.0,0.0,0.0,0.0,0.0,0.0,0.0,0.0,0.0,0.0,0.0
,,111443.333295,3.7824738025665283,0.0,0.0,0.0,0.0,0.0,0.0,0.0,0.0,0.0,0.0,0.0,149964.0,-0.04,0.0,-1.0,-0.06,-0.12,-0.06,12.6,39.61,-52.96,149973.0,-0.02,0.01,-1.01,-0.18,-0.06,0.12,13.05,39.46,-52.81,0.0,0.0,0.0,0.0,0.0,0.0,0.0,0.0,0.0,0.0,0.0,0.0,0.0,0.0,0.0,0.0,0.0,0.0,0.0,0.0,0.0
,,111443.350729,3.7999062538146973,0.0,0.0,0.0,0.0,0.0,0.0,0.0,0.0,0.0,0.0,0.0,149981.0,-0.02,0.01,-0.99,0.06,0.06,0.06,13.65,40.06,-53.26,149990.0,-0.03,0.0,-1.01,-0.12,-0.06,0.06,11.7,39.16,-53.71,0.0,0.0,0.0,0.0,0.0,0.0,0.0,0.0,0.0,0.0,0.0,0.0,0.0,0.0,0.0,0.0,0.0,0.0,0.0,0.0,0.0
,,111443.367857,3.8170366287231445,0.0,0.0,0.0,0.0,0.0,0.0,0.0,0.0,0.0,0.0,0.0,149999.0,-0.03,0.0,-1.01,-0.06,-0.18,-0.06,12.3,39.46,-53.71,150007.0,-0.03,0.01,-1.0,0.0,0.0,0.06,11.85,39.61,-54.31,0.0,0.0,0.0,0.0,0.0,0.0,0.0,0.0,0.0,0.0,0.0,0.0,0.0,0.0,0.0,0.0,0.0,0.0,0.0,0.0,0.0
,,111443.417007,3.866185426712036,0.0,0.0,0.0,0.0,0.0,0.0,0.0,0.0,0.0,0.0,0.0,150016.0,-0.03,0.01,-1.0,-0.12,-0.06,0.06,10.65,40.21,-53.41,150056.0,-0.03,0.01,-1.01,0.0,0.06,-0.12,13.8,39.16,-52.36,0.0,0.0,0.0,0.0,0.0,0.0,0.0,0.0,0.0,0.0,0.0,0.0,0.0,0.0,0.0,0.0,0.0,0.0,0.0,0.0,0.0
,,111443.434388,3.883598804473877,0.0,0.0,0.0,0.0,0.0,0.0,0.0,0.0,0.0,0.0,0.0,150065.0,-0.02,0.01,-1.01,-0.06,-0.06,0.06,11.85,41.11,-51.16,150074.0,-0.02,0.01,-1.0,-0.06,-0.18,0.0,11.85,41.11,-51.16,0.0,0.0,0.0,0.0,0.0,0.0,0.0,0.0,0.0,0.0,0.0,0.0,0.0,0.0,0.0,0.0,0.0,0.0,0.0,0.0,0.0
,,111443.451182,3.900362253189087,0.0,0.0,0.0,0.0,0.0,0.0,0.0,0.0,0.0,0.0,0.0,150083.0,-0.03,0.0,-1.0,0.0,0.0,0.0,12.3,39.16,-53.41,150091.0,-0.03,0.01,-1.0,0.06,0.0,0.06,12.15,39.61,-54.31,0.0,0.0,0.0,0.0,0.0,0.0,0.0,0.0,0.0,0.0,0.0,0.0,0.0,0.0,0.0,0.0,0.0,0.0,0.0,0.0,0.0
