name,date,time,time_since_start,vicon_sequence,vicon_time_stamp,vicon_frame_id,vicon_child_frame_id,vicon_translation_x,vicon_translation_y,vicon_translation_z,vicon_rotation_x,vicon_rotation_y,vicon_rotation_z,vicon_rotation_w,int_imu_time_stamp,int_imu_acc_x,int_imu_acc_y,int_imu_acc_z,int_imu_gyro_x,int_imu_gyro_y,int_imu_gyro_z,int_imu_mag_x,int_imu_mag_y,int_imu_mag_z,ext_imu_time_stamp,ext_imu_acc_x,ext_imu_acc_y,ext_imu_acc_z,ext_imu_gyro_x,ext_imu_gyro_y,ext_imu_gyro_z,ext_imu_mag_x,ext_imu_mag_y,ext_imu_mag_z,dji_imu_sequence,dji_imu_time_stamp,dji_imu_frame_id,dji_imu_orientation_x,dji_imu_orientation_y,dji_imu_orientation_z,dji_imu_orientation_w,dji_imu_ang_vel_x,dji_imu_ang_vel_y,dji_imu_ang_vel_z,dji_imu_lin_acc_x,dji_imu_lin_acc_y,dji_imu_lin_acc_z,rc_sequence,rc_time_stamp,rc_frame_id,rc_roll,rc_pitch,rc_yaw,rc_throttle,rc_mode,rc_landing_gear
test.csv,20201030,144738.400428,5.173683166503906e-05,0.0,0.0,0.0,0.0,0.0,0.0,0.0,0.0,0.0,0.0,0.0,0,1,2,3,4,5,6,7,8,9,729049.0,-0.87,-0.08,0.48,0.0,-0.06,0.0,0.45,222.36,72.32,0.0,0.0,0.0,0.0,0.0,0.0,0.0,0.0,0.0,0.0,0.0,0.0,0.0,0.0,0.0,0.0,0.0,0.0,0.0,0.0,0.0,0.0
,,144738.401032,0.0006382465362548828,0.0,0.0,0.0,0.0,0.0,0.0,0.0,0.0,0.0,0.0,0.0,0,1,2,3,4,5,6,7,8,9,729209.0,-0.87,-0.08,0.47,0.0,0.0,0.06,0.3,220.41,72.77,0.0,0.0,0.0,0.0,0.0,0.0,0.0,0.0,0.0,0.0,0.0,0.0,0.0,0.0,0.0,0.0,0.0,0.0,0.0,0.0,0.0,0.0
,,144738.421222,0.02084636688232422,0.0,0.0,0.0,0.0,0.0,0.0,0.0,0.0,0.0,0.0,0.0,0,1,2,3,4,5,6,7,8,9,733270.0,-0.87,-0.08,0.48,0.06,0.06,-0.12,0.3,222.51,72.47,0.0,0.0,0.0,0.0,0.0,0.0,0.0,0.0,0.0,0.0,0.0,0.0,0.0,0.0,0.0,0.0,0.0,0.0,0.0,0.0,0.0,0.0
,,144738.441161,0.040776968002319336,0.0,0.0,0.0,0.0,0.0,0.0,0.0,0.0,0.0,0.0,0.0,0,1,2,3,4,5,6,7,8,9,733290.0,-0.86,-0.07,0.49,-0.06,-0.12,-0.06,0.15,221.61,72.92,0.0,0.0,0.0,0.0,0.0,0.0,0.0,0.0,0.0,0.0,0.0,0.0,0.0,0.0,0.0,0.0,0.0,0.0,0.0,0.0,0.0,0.0
,,144738.461096,0.060707807540893555,0.0,0.0,0.0,0.0,0.0,0.0,0.0,0.0,0.0,0.0,0.0,0,1,2,3,4,5,6,7,8,9,733310.0,-0.87,-0.09,0.48,-0.06,-0.12,0.06,-1.35,222.66,73.97,0.0,0.0,0.0,0.0,0.0,0.0,0.0,0.0,0.0,0.0,0.0,0.0,0.0,0.0,0.0,0.0,0.0,0.0,0.0,0.0,0.0,0.0
,,144738.481065,0.08066773414611816,0.0,0.0,0.0,0.0,0.0,0.0,0.0,0.0,0.0,0.0,0.0,0,1,2,3,4,5,6,7,8,9,733310.0,-0.87,-0.09,0.48,-0.06,-0.12,0.06,-1.35,222.66,73.97,0.0,0.0,0.0,0.0,0.0,0.0,0.0,0.0,0.0,0.0,0.0,0.0,0.0,0.0,0.0,0.0,0.0,0.0,0.0,0.0,0.0,0.0
,,144738.501053,0.10065793991088867,0.0,0.0,0.0,0.0,0.0,0.0,0.0,0.0,0.0,0.0,0.0,0,1,2,3,4,5,6,7,8,9,733310.0,-0.87,-0.09,0.48,-0.06,-0.12,0.06,-1.35,222.66,73.97,0.0,0.0,0.0,0.0,0.0,0.0,0.0,0.0,0.0,0.0,0.0,0.0,0.0,0.0,0.0,0.0,0.0,0.0,0.0,0.0,0.0,0.0
,,144738.52098,0.12059307098388672,0.0,0.0,0.0,0.0,0.0,0.0,0.0,0.0,0.0,0.0,0.0,0,1,2,3,4,5,6,7,8,9,733310.0,-0.87,-0.09,0.48,-0.06,-0.12,0.06,-1.35,222.66,73.97,0.0,0.0,0.0,0.0,0.0,0.0,0.0,0.0,0.0,0.0,0.0,0.0,0.0,0.0,0.0,0.0,0.0,0.0,0.0,0.0,0.0,0.0
,,144738.540993,0.1405937671661377,0.0,0.0,0.0,0.0,0.0,0.0,0.0,0.0,0.0,0.0,0.0,0,1,2,3,4,5,6,7,8,9,733390.0,-0.87,-0.07,0.47,-0.12,-0.06,0.0,1.8,222.36,73.22,0.0,0.0,0.0,0.0,0.0,0.0,0.0,0.0,0.0,0.0,0.0,0.0,0.0,0.0,0.0,0.0,0.0,0.0,0.0,0.0,0.0,0.0
,,144738.560979,0.16057538986206055,0.0,0.0,0.0,0.0,0.0,0.0,0.0,0.0,0.0,0.0,0.0,0,1,2,3,4,5,6,7,8,9,733407.0,-0.87,-0.07,0.48,0.06,-0.12,0.0,-0.3,221.61,72.32,0.0,0.0,0.0,0.0,0.0,0.0,0.0,0.0,0.0,0.0,0.0,0.0,0.0,0.0,0.0,0.0,0.0,0.0,0.0,0.0,0.0,0.0
,,144738.580944,0.1805422306060791,0.0,0.0,0.0,0.0,0.0,0.0,0.0,0.0,0.0,0.0,0.0,0,1,2,3,4,5,6,7,8,9,733430.0,-0.87,-0.07,0.47,0.0,0.06,0.06,0.0,223.26,72.02,0.0,0.0,0.0,0.0,0.0,0.0,0.0,0.0,0.0,0.0,0.0,0.0,0.0,0.0,0.0,0.0,0.0,0.0,0.0,0.0,0.0,0.0
,,144738.600948,0.20054078102111816,0.0,0.0,0.0,0.0,0.0,0.0,0.0,0.0,0.0,0.0,0.0,0,1,2,3,4,5,6,7,8,9,733450.0,-0.87,-0.07,0.48,-0.06,-0.06,0.0,0.0,221.46,72.77,0.0,0.0,0.0,0.0,0.0,0.0,0.0,0.0,0.0,0.0,0.0,0.0,0.0,0.0,0.0,0.0,0.0,0.0,0.0,0.0,0.0,0.0
,,144738.620932,0.22052288055419922,0.0,0.0,0.0,0.0,0.0,0.0,0.0,0.0,0.0,0.0,0.0,0,1,2,3,4,5,6,7,8,9,733471.0,-0.87,-0.08,0.47,0.0,-0.06,0.06,0.6,221.16,72.02,0.0,0.0,0.0,0.0,0.0,0.0,0.0,0.0,0.0,0.0,0.0,0.0,0.0,0.0,0.0,0.0,0.0,0.0,0.0,0.0,0.0,0.0
,,144738.640955,0.24055004119873047,0.0,0.0,0.0,0.0,0.0,0.0,0.0,0.0,0.0,0.0,0.0,0,1,2,3,4,5,6,7,8,9,733491.0,-0.87,-0.07,0.48,-0.06,-0.06,0.06,0.6,221.76,74.12,0.0,0.0,0.0,0.0,0.0,0.0,0.0,0.0,0.0,0.0,0.0,0.0,0.0,0.0,0.0,0.0,0.0,0.0,0.0,0.0,0.0,0.0
,,144738.661,0.26060056686401367,0.0,0.0,0.0,0.0,0.0,0.0,0.0,0.0,0.0,0.0,0.0,0,1,2,3,4,5,6,7,8,9,733511.0,-0.87,-0.08,0.48,0.06,0.0,-0.06,-0.45,222.51,73.07,0.0,0.0,0.0,0.0,0.0,0.0,0.0,0.0,0.0,0.0,0.0,0.0,0.0,0.0,0.0,0.0,0.0,0.0,0.0,0.0,0.0,0.0
,,144738.680948,0.28054237365722656,0.0,0.0,0.0,0.0,0.0,0.0,0.0,0.0,0.0,0.0,0.0,0,1,2,3,4,5,6,7,8,9,733531.0,-0.87,-0.08,0.47,-0.18,-0.12,0.06,-0.3,220.56,72.62,0.0,0.0,0.0,0.0,0.0,0.0,0.0,0.0,0.0,0.0,0.0,0.0,0.0,0.0,0.0,0.0,0.0,0.0,0.0,0.0,0.0,0.0
,,144738.700985,0.3005800247192383,0.0,0.0,0.0,0.0,0.0,0.0,0.0,0.0,0.0,0.0,0.0,0,1,2,3,4,5,6,7,8,9,733551.0,-0.88,-0.08,0.48,-0.06,-0.18,-0.06,0.3,222.21,73.07,0.0,0.0,0.0,0.0,0.0,0.0,0.0,0.0,0.0,0.0,0.0,0.0,0.0,0.0,0.0,0.0,0.0,0.0,0.0,0.0,0.0,0.0
,,144738.720945,0.3205404281616211,0.0,0.0,0.0,0.0,0.0,0.0,0.0,0.0,0.0,0.0,0.0,0,1,2,3,4,5,6,7,8,9,733571.0,-0.87,-0.08,0.48,0.06,0.0,-0.06,0.75,220.26,73.22,0.0,0.0,0.0,0.0,0.0,0.0,0.0,0.0,0.0,0.0,0.0,0.0,0.0,0.0,0.0,0.0,0.0,0.0,0.0,0.0,0.0,0.0
,,144738.74094,0.340531587600708,0.0,0.0,0.0,0.0,0.0,0.0,0.0,0.0,0.0,0.0,0.0,0,1,2,3,4,5,6,7,8,9,733591.0,-0.87,-0.08,0.48,-0.06,-0.06,0.0,0.15,223.11,73.22,0.0,0.0,0.0,0.0,0.0,0.0,0.0,0.0,0.0,0.0,0.0,0.0,0.0,0.0,0.0,0.0,0.0,0.0,0.0,0.0,0.0,0.0
,,144738.760928,0.3605227470397949,0.0,0.0,0.0,0.0,0.0,0.0,0.0,0.0,0.0,0.0,0.0,0,1,2,3,4,5,6,7,8,9,733591.0,-0.87,-0.08,0.48,-0.06,-0.06,0.0,0.15,223.11,73.22,0.0,0.0,0.0,0.0,0.0,0.0,0.0,0.0,0.0,0.0,0.0,0.0,0.0,0.0,0.0,0.0,0.0,0.0,0.0,0.0,0.0,0.0
,,144738.78097,0.3805665969848633,0.0,0.0,0.0,0.0,0.0,0.0,0.0,0.0,0.0,0.0,0.0,0,1,2,3,4,5,6,7,8,9,733591.0,-0.87,-0.08,0.48,-0.06,-0.06,0.0,0.15,223.11,73.22,0.0,0.0,0.0,0.0,0.0,0.0,0.0,0.0,0.0,0.0,0.0,0.0,0.0,0.0,0.0,0.0,0.0,0.0,0.0,0.0,0.0,0.0
,,144738.801006,0.4006006717681885,0.0,0.0,0.0,0.0,0.0,0.0,0.0,0.0,0.0,0.0,0.0,0,1,2,3,4,5,6,7,8,9,733591.0,-0.87,-0.08,0.48,-0.06,-0.06,0.0,0.15,223.11,73.22,0.0,0.0,0.0,0.0,0.0,0.0,0.0,0.0,0.0,0.0,0.0,0.0,0.0,0.0,0.0,0.0,0.0,0.0,0.0,0.0,0.0,0.0
,,144738.820947,0.4205451011657715,0.0,0.0,0.0,0.0,0.0,0.0,0.0,0.0,0.0,0.0,0.0,0,1,2,3,4,5,6,7,8,9,733667.0,-0.87,-0.07,0.46,0.0,0.06,0.0,1.35,222.21,72.77,0.0,0.0,0.0,0.0,0.0,0.0,0.0,0.0,0.0,0.0,0.0,0.0,0.0,0.0,0.0,0.0,0.0,0.0,0.0,0.0,0.0,0.0
,,144738.840941,0.4405379295349121,0.0,0.0,0.0,0.0,0.0,0.0,0.0,0.0,0.0,0.0,0.0,0,1,2,3,4,5,6,7,8,9,733684.0,-0.87,-0.07,0.48,0.06,-0.06,0.12,-0.45,221.76,73.07,0.0,0.0,0.0,0.0,0.0,0.0,0.0,0.0,0.0,0.0,0.0,0.0,0.0,0.0,0.0,0.0,0.0,0.0,0.0,0.0,0.0,0.0
,,144738.860917,0.46051764488220215,0.0,0.0,0.0,0.0,0.0,0.0,0.0,0.0,0.0,0.0,0.0,0,1,2,3,4,5,6,7,8,9,733710.0,-0.87,-0.08,0.49,0.12,0.06,0.0,0.0,222.21,73.07,0.0,0.0,0.0,0.0,0.0,0.0,0.0,0.0,0.0,0.0,0.0,0.0,0.0,0.0,0.0,0.0,0.0,0.0,0.0,0.0,0.0,0.0
,,144738.880963,0.4805607795715332,0.0,0.0,0.0,0.0,0.0,0.0,0.0,0.0,0.0,0.0,0.0,0,1,2,3,4,5,6,7,8,9,733730.0,-0.87,-0.07,0.48,-0.06,-0.12,-0.06,-1.95,220.56,72.92,0.0,0.0,0.0,0.0,0.0,0.0,0.0,0.0,0.0,0.0,0.0,0.0,0.0,0.0,0.0,0.0,0.0,0.0,0.0,0.0,0.0,0.0
,,144738.900982,0.5005781650543213,0.0,0.0,0.0,0.0,0.0,0.0,0.0,0.0,0.0,0.0,0.0,0,1,2,3,4,5,6,7,8,9,733750.0,-0.86,-0.07,0.48,0.0,-0.06,-0.06,-0.9,222.06,72.62,0.0,0.0,0.0,0.0,0.0,0.0,0.0,0.0,0.0,0.0,0.0,0.0,0.0,0.0,0.0,0.0,0.0,0.0,0.0,0.0,0.0,0.0
,,144738.920925,0.5205152034759521,0.0,0.0,0.0,0.0,0.0,0.0,0.0,0.0,0.0,0.0,0.0,0,1,2,3,4,5,6,7,8,9,733770.0,-0.87,-0.07,0.48,-0.12,-0.06,0.06,0.0,222.21,73.07,0.0,0.0,0.0,0.0,0.0,0.0,0.0,0.0,0.0,0.0,0.0,0.0,0.0,0.0,0.0,0.0,0.0,0.0,0.0,0.0,0.0,0.0
,,144738.940951,0.5405559539794922,0.0,0.0,0.0,0.0,0.0,0.0,0.0,0.0,0.0,0.0,0.0,0,1,2,3,4,5,6,7,8,9,733790.0,-0.87,-0.08,0.47,-0.12,-0.18,0.0,1.2,221.61,73.67,0.0,0.0,0.0,0.0,0.0,0.0,0.0,0.0,0.0,0.0,0.0,0.0,0.0,0.0,0.0,0.0,0.0,0.0,0.0,0.0,0.0,0.0
,,144738.960938,0.5605311393737793,0.0,0.0,0.0,0.0,0.0,0.0,0.0,0.0,0.0,0.0,0.0,0,1,2,3,4,5,6,7,8,9,733810.0,-0.86,-0.08,0.48,-0.06,-0.12,0.06,0.0,220.41,73.82,0.0,0.0,0.0,0.0,0.0,0.0,0.0,0.0,0.0,0.0,0.0,0.0,0.0,0.0,0.0,0.0,0.0,0.0,0.0,0.0,0.0,0.0
,,144738.980958,0.5805525779724121,0.0,0.0,0.0,0.0,0.0,0.0,0.0,0.0,0.0,0.0,0.0,0,1,2,3,4,5,6,7,8,9,733831.0,-0.87,-0.07,0.46,-0.06,-0.12,0.06,0.75,220.56,73.67,0.0,0.0,0.0,0.0,0.0,0.0,0.0,0.0,0.0,0.0,0.0,0.0,0.0,0.0,0.0,0.0,0.0,0.0,0.0,0.0,0.0,0.0
,,144739.000955,0.6005599498748779,0.0,0.0,0.0,0.0,0.0,0.0,0.0,0.0,0.0,0.0,0.0,0,1,2,3,4,5,6,7,8,9,733850.0,-0.87,-0.08,0.48,-0.06,-0.06,0.0,-0.9,222.36,74.27,0.0,0.0,0.0,0.0,0.0,0.0,0.0,0.0,0.0,0.0,0.0,0.0,0.0,0.0,0.0,0.0,0.0,0.0,0.0,0.0,0.0,0.0
,,144739.020908,0.6204991340637207,0.0,0.0,0.0,0.0,0.0,0.0,0.0,0.0,0.0,0.0,0.0,0,1,2,3,4,5,6,7,8,9,733871.0,-0.87,-0.07,0.47,0.0,-0.06,0.06,-0.6,221.01,72.62,0.0,0.0,0.0,0.0,0.0,0.0,0.0,0.0,0.0,0.0,0.0,0.0,0.0,0.0,0.0,0.0,0.0,0.0,0.0,0.0,0.0,0.0
,,144739.040956,0.6405508518218994,0.0,0.0,0.0,0.0,0.0,0.0,0.0,0.0,0.0,0.0,0.0,0,1,2,3,4,5,6,7,8,9,733871.0,-0.87,-0.07,0.47,0.0,-0.06,0.06,-0.6,221.01,72.62,0.0,0.0,0.0,0.0,0.0,0.0,0.0,0.0,0.0,0.0,0.0,0.0,0.0,0.0,0.0,0.0,0.0,0.0,0.0,0.0,0.0,0.0
,,144739.060956,0.6605484485626221,0.0,0.0,0.0,0.0,0.0,0.0,0.0,0.0,0.0,0.0,0.0,0,1,2,3,4,5,6,7,8,9,733871.0,-0.87,-0.07,0.47,0.0,-0.06,0.06,-0.6,221.01,72.62,0.0,0.0,0.0,0.0,0.0,0.0,0.0,0.0,0.0,0.0,0.0,0.0,0.0,0.0,0.0,0.0,0.0,0.0,0.0,0.0,0.0,0.0
,,144739.08094,0.6805384159088135,0.0,0.0,0.0,0.0,0.0,0.0,0.0,0.0,0.0,0.0,0.0,0,1,2,3,4,5,6,7,8,9,733871.0,-0.87,-0.07,0.47,0.0,-0.06,0.06,-0.6,221.01,72.62,0.0,0.0,0.0,0.0,0.0,0.0,0.0,0.0,0.0,0.0,0.0,0.0,0.0,0.0,0.0,0.0,0.0,0.0,0.0,0.0,0.0,0.0
,,144739.101041,0.7006580829620361,0.0,0.0,0.0,0.0,0.0,0.0,0.0,0.0,0.0,0.0,0.0,0,1,2,3,4,5,6,7,8,9,733944.0,-0.87,-0.09,0.48,-0.06,-0.06,0.06,1.35,221.76,73.82,0.0,0.0,0.0,0.0,0.0,0.0,0.0,0.0,0.0,0.0,0.0,0.0,0.0,0.0,0.0,0.0,0.0,0.0,0.0,0.0,0.0,0.0
,,144739.121003,0.720597505569458,0.0,0.0,0.0,0.0,0.0,0.0,0.0,0.0,0.0,0.0,0.0,0,1,2,3,4,5,6,7,8,9,733970.0,-0.87,-0.08,0.47,0.0,0.0,0.0,-0.45,222.21,72.47,0.0,0.0,0.0,0.0,0.0,0.0,0.0,0.0,0.0,0.0,0.0,0.0,0.0,0.0,0.0,0.0,0.0,0.0,0.0,0.0,0.0,0.0
,,144739.140939,0.7405321598052979,0.0,0.0,0.0,0.0,0.0,0.0,0.0,0.0,0.0,0.0,0.0,0,1,2,3,4,5,6,7,8,9,733990.0,-0.87,-0.08,0.47,0.12,-0.06,0.12,1.5,222.36,74.57,0.0,0.0,0.0,0.0,0.0,0.0,0.0,0.0,0.0,0.0,0.0,0.0,0.0,0.0,0.0,0.0,0.0,0.0,0.0,0.0,0.0,0.0
,,144739.16093,0.7605202198028564,0.0,0.0,0.0,0.0,0.0,0.0,0.0,0.0,0.0,0.0,0.0,0,1,2,3,4,5,6,7,8,9,734010.0,-0.87,-0.07,0.48,-0.06,-0.12,0.0,-0.3,221.31,72.92,0.0,0.0,0.0,0.0,0.0,0.0,0.0,0.0,0.0,0.0,0.0,0.0,0.0,0.0,0.0,0.0,0.0,0.0,0.0,0.0,0.0,0.0
,,144739.180903,0.78049635887146,0.0,0.0,0.0,0.0,0.0,0.0,0.0,0.0,0.0,0.0,0.0,0,1,2,3,4,5,6,7,8,9,734030.0,-0.88,-0.08,0.47,-0.06,-0.12,0.06,0.6,221.46,74.12,0.0,0.0,0.0,0.0,0.0,0.0,0.0,0.0,0.0,0.0,0.0,0.0,0.0,0.0,0.0,0.0,0.0,0.0,0.0,0.0,0.0,0.0
,,144739.200936,0.8005285263061523,0.0,0.0,0.0,0.0,0.0,0.0,0.0,0.0,0.0,0.0,0.0,0,1,2,3,4,5,6,7,8,9,734050.0,-0.86,-0.07,0.49,-0.06,-0.06,0.06,1.05,222.81,73.07,0.0,0.0,0.0,0.0,0.0,0.0,0.0,0.0,0.0,0.0,0.0,0.0,0.0,0.0,0.0,0.0,0.0,0.0,0.0,0.0,0.0,0.0
,,144739.220966,0.8205599784851074,0.0,0.0,0.0,0.0,0.0,0.0,0.0,0.0,0.0,0.0,0.0,0,1,2,3,4,5,6,7,8,9,734070.0,-0.87,-0.08,0.48,-0.06,-0.12,-0.06,-0.45,222.21,72.77,0.0,0.0,0.0,0.0,0.0,0.0,0.0,0.0,0.0,0.0,0.0,0.0,0.0,0.0,0.0,0.0,0.0,0.0,0.0,0.0,0.0,0.0
,,144739.240911,0.8404989242553711,0.0,0.0,0.0,0.0,0.0,0.0,0.0,0.0,0.0,0.0,0.0,0,1,2,3,4,5,6,7,8,9,734090.0,-0.87,-0.08,0.49,0.06,0.0,0.12,0.15,222.66,74.57,0.0,0.0,0.0,0.0,0.0,0.0,0.0,0.0,0.0,0.0,0.0,0.0,0.0,0.0,0.0,0.0,0.0,0.0,0.0,0.0,0.0,0.0
,,144739.260906,0.8604938983917236,0.0,0.0,0.0,0.0,0.0,0.0,0.0,0.0,0.0,0.0,0.0,0,1,2,3,4,5,6,7,8,9,734110.0,-0.86,-0.09,0.48,0.0,0.0,0.06,1.05,221.16,72.77,0.0,0.0,0.0,0.0,0.0,0.0,0.0,0.0,0.0,0.0,0.0,0.0,0.0,0.0,0.0,0.0,0.0,0.0,0.0,0.0,0.0,0.0
,,144739.280956,0.8805665969848633,0.0,0.0,0.0,0.0,0.0,0.0,0.0,0.0,0.0,0.0,0.0,0,1,2,3,4,5,6,7,8,9,734130.0,-0.87,-0.08,0.48,-0.06,-0.06,-0.06,1.2,223.41,73.22,0.0,0.0,0.0,0.0,0.0,0.0,0.0,0.0,0.0,0.0,0.0,0.0,0.0,0.0,0.0,0.0,0.0,0.0,0.0,0.0,0.0,0.0
,,144739.300965,0.900559663772583,0.0,0.0,0.0,0.0,0.0,0.0,0.0,0.0,0.0,0.0,0.0,0,1,2,3,4,5,6,7,8,9,734150.0,-0.86,-0.08,0.47,0.0,0.0,0.0,0.15,221.61,74.27,0.0,0.0,0.0,0.0,0.0,0.0,0.0,0.0,0.0,0.0,0.0,0.0,0.0,0.0,0.0,0.0,0.0,0.0,0.0,0.0,0.0,0.0
,,144739.320959,0.9205529689788818,0.0,0.0,0.0,0.0,0.0,0.0,0.0,0.0,0.0,0.0,0.0,0,1,2,3,4,5,6,7,8,9,734150.0,-0.86,-0.08,0.47,0.0,0.0,0.0,0.15,221.61,74.27,0.0,0.0,0.0,0.0,0.0,0.0,0.0,0.0,0.0,0.0,0.0,0.0,0.0,0.0,0.0,0.0,0.0,0.0,0.0,0.0,0.0,0.0
,,144739.340989,0.9405837059020996,0.0,0.0,0.0,0.0,0.0,0.0,0.0,0.0,0.0,0.0,0.0,0,1,2,3,4,5,6,7,8,9,734150.0,-0.86,-0.08,0.47,0.0,0.0,0.0,0.15,221.61,74.27,0.0,0.0,0.0,0.0,0.0,0.0,0.0,0.0,0.0,0.0,0.0,0.0,0.0,0.0,0.0,0.0,0.0,0.0,0.0,0.0,0.0,0.0
,,144739.360952,0.9605443477630615,0.0,0.0,0.0,0.0,0.0,0.0,0.0,0.0,0.0,0.0,0.0,0,1,2,3,4,5,6,7,8,9,734150.0,-0.86,-0.08,0.47,0.0,0.0,0.0,0.15,221.61,74.27,0.0,0.0,0.0,0.0,0.0,0.0,0.0,0.0,0.0,0.0,0.0,0.0,0.0,0.0,0.0,0.0,0.0,0.0,0.0,0.0,0.0,0.0
,,144739.380968,0.9805631637573242,0.0,0.0,0.0,0.0,0.0,0.0,0.0,0.0,0.0,0.0,0.0,0,1,2,3,4,5,6,7,8,9,734230.0,-0.87,-0.07,0.47,-0.06,-0.12,0.0,0.6,221.46,74.12,0.0,0.0,0.0,0.0,0.0,0.0,0.0,0.0,0.0,0.0,0.0,0.0,0.0,0.0,0.0,0.0,0.0,0.0,0.0,0.0,0.0,0.0
,,144739.401009,1.0006053447723389,0.0,0.0,0.0,0.0,0.0,0.0,0.0,0.0,0.0,0.0,0.0,0,1,2,3,4,5,6,7,8,9,734247.0,-0.86,-0.07,0.49,0.0,0.0,0.06,0.3,222.81,74.12,0.0,0.0,0.0,0.0,0.0,0.0,0.0,0.0,0.0,0.0,0.0,0.0,0.0,0.0,0.0,0.0,0.0,0.0,0.0,0.0,0.0,0.0
,,144739.420964,1.0205581188201904,0.0,0.0,0.0,0.0,0.0,0.0,0.0,0.0,0.0,0.0,0.0,0,1,2,3,4,5,6,7,8,9,734270.0,-0.87,-0.08,0.47,0.06,0.0,-0.12,0.15,221.31,73.22,0.0,0.0,0.0,0.0,0.0,0.0,0.0,0.0,0.0,0.0,0.0,0.0,0.0,0.0,0.0,0.0,0.0,0.0,0.0,0.0,0.0,0.0
,,144739.440917,1.040506362915039,0.0,0.0,0.0,0.0,0.0,0.0,0.0,0.0,0.0,0.0,0.0,0,1,2,3,4,5,6,7,8,9,734290.0,-0.87,-0.08,0.48,-0.06,-0.06,0.0,0.3,222.21,72.77,0.0,0.0,0.0,0.0,0.0,0.0,0.0,0.0,0.0,0.0,0.0,0.0,0.0,0.0,0.0,0.0,0.0,0.0,0.0,0.0,0.0,0.0
,,144739.460891,1.0604832172393799,0.0,0.0,0.0,0.0,0.0,0.0,0.0,0.0,0.0,0.0,0.0,0,1,2,3,4,5,6,7,8,9,734310.0,-0.87,-0.07,0.48,-0.06,-0.06,0.0,-1.5,222.51,73.37,0.0,0.0,0.0,0.0,0.0,0.0,0.0,0.0,0.0,0.0,0.0,0.0,0.0,0.0,0.0,0.0,0.0,0.0,0.0,0.0,0.0,0.0
,,144739.480928,1.0805203914642334,0.0,0.0,0.0,0.0,0.0,0.0,0.0,0.0,0.0,0.0,0.0,0,1,2,3,4,5,6,7,8,9,734330.0,-0.87,-0.07,0.48,-0.06,-0.18,0.12,-0.45,222.21,73.07,0.0,0.0,0.0,0.0,0.0,0.0,0.0,0.0,0.0,0.0,0.0,0.0,0.0,0.0,0.0,0.0,0.0,0.0,0.0,0.0,0.0,0.0
,,144739.500983,1.1005914211273193,0.0,0.0,0.0,0.0,0.0,0.0,0.0,0.0,0.0,0.0,0.0,0,1,2,3,4,5,6,7,8,9,734350.0,-0.86,-0.08,0.49,-0.06,-0.06,0.06,0.15,221.61,73.97,0.0,0.0,0.0,0.0,0.0,0.0,0.0,0.0,0.0,0.0,0.0,0.0,0.0,0.0,0.0,0.0,0.0,0.0,0.0,0.0,0.0,0.0
,,144739.520953,1.1205480098724365,0.0,0.0,0.0,0.0,0.0,0.0,0.0,0.0,0.0,0.0,0.0,0,1,2,3,4,5,6,7,8,9,734370.0,-0.87,-0.07,0.49,0.0,-0.06,0.12,1.05,222.21,73.37,0.0,0.0,0.0,0.0,0.0,0.0,0.0,0.0,0.0,0.0,0.0,0.0,0.0,0.0,0.0,0.0,0.0,0.0,0.0,0.0,0.0,0.0
,,144739.540995,1.140589952468872,0.0,0.0,0.0,0.0,0.0,0.0,0.0,0.0,0.0,0.0,0.0,0,1,2,3,4,5,6,7,8,9,734390.0,-0.87,-0.08,0.49,-0.06,-0.06,0.0,1.35,221.46,73.37,0.0,0.0,0.0,0.0,0.0,0.0,0.0,0.0,0.0,0.0,0.0,0.0,0.0,0.0,0.0,0.0,0.0,0.0,0.0,0.0,0.0,0.0
,,144739.560982,1.1605777740478516,0.0,0.0,0.0,0.0,0.0,0.0,0.0,0.0,0.0,0.0,0.0,0,1,2,3,4,5,6,7,8,9,734411.0,-0.87,-0.07,0.48,-0.06,-0.12,0.0,2.1,222.21,73.07,0.0,0.0,0.0,0.0,0.0,0.0,0.0,0.0,0.0,0.0,0.0,0.0,0.0,0.0,0.0,0.0,0.0,0.0,0.0,0.0,0.0,0.0
,,144739.580964,1.1805617809295654,0.0,0.0,0.0,0.0,0.0,0.0,0.0,0.0,0.0,0.0,0.0,0,1,2,3,4,5,6,7,8,9,734431.0,-0.87,-0.08,0.48,-0.06,-0.06,0.0,-1.95,222.06,73.67,0.0,0.0,0.0,0.0,0.0,0.0,0.0,0.0,0.0,0.0,0.0,0.0,0.0,0.0,0.0,0.0,0.0,0.0,0.0,0.0,0.0,0.0
,,144739.600917,1.2005133628845215,0.0,0.0,0.0,0.0,0.0,0.0,0.0,0.0,0.0,0.0,0.0,0,1,2,3,4,5,6,7,8,9,734431.0,-0.87,-0.08,0.48,-0.06,-0.06,0.0,-1.95,222.06,73.67,0.0,0.0,0.0,0.0,0.0,0.0,0.0,0.0,0.0,0.0,0.0,0.0,0.0,0.0,0.0,0.0,0.0,0.0,0.0,0.0,0.0,0.0
,,144739.620948,1.2205476760864258,0.0,0.0,0.0,0.0,0.0,0.0,0.0,0.0,0.0,0.0,0.0,0,1,2,3,4,5,6,7,8,9,734431.0,-0.87,-0.08,0.48,-0.06,-0.06,0.0,-1.95,222.06,73.67,0.0,0.0,0.0,0.0,0.0,0.0,0.0,0.0,0.0,0.0,0.0,0.0,0.0,0.0,0.0,0.0,0.0,0.0,0.0,0.0,0.0,0.0
,,144739.640971,1.2405693531036377,0.0,0.0,0.0,0.0,0.0,0.0,0.0,0.0,0.0,0.0,0.0,0,1,2,3,4,5,6,7,8,9,734431.0,-0.87,-0.08,0.48,-0.06,-0.06,0.0,-1.95,222.06,73.67,0.0,0.0,0.0,0.0,0.0,0.0,0.0,0.0,0.0,0.0,0.0,0.0,0.0,0.0,0.0,0.0,0.0,0.0,0.0,0.0,0.0,0.0
,,144739.660947,1.260542392730713,0.0,0.0,0.0,0.0,0.0,0.0,0.0,0.0,0.0,0.0,0.0,0,1,2,3,4,5,6,7,8,9,734511.0,-0.87,-0.07,0.46,-0.06,-0.06,0.0,1.2,222.66,75.62,0.0,0.0,0.0,0.0,0.0,0.0,0.0,0.0,0.0,0.0,0.0,0.0,0.0,0.0,0.0,0.0,0.0,0.0,0.0,0.0,0.0,0.0
,,144739.680957,1.2805535793304443,0.0,0.0,0.0,0.0,0.0,0.0,0.0,0.0,0.0,0.0,0.0,0,1,2,3,4,5,6,7,8,9,734528.0,-0.87,-0.07,0.48,-0.06,-0.18,0.06,0.3,221.46,73.37,0.0,0.0,0.0,0.0,0.0,0.0,0.0,0.0,0.0,0.0,0.0,0.0,0.0,0.0,0.0,0.0,0.0,0.0,0.0,0.0,0.0,0.0
,,144739.700947,1.3005461692810059,0.0,0.0,0.0,0.0,0.0,0.0,0.0,0.0,0.0,0.0,0.0,0,1,2,3,4,5,6,7,8,9,734550.0,-0.86,-0.08,0.48,-0.06,-0.06,0.0,0.15,222.06,73.22,0.0,0.0,0.0,0.0,0.0,0.0,0.0,0.0,0.0,0.0,0.0,0.0,0.0,0.0,0.0,0.0,0.0,0.0,0.0,0.0,0.0,0.0
,,144739.720956,1.320554256439209,0.0,0.0,0.0,0.0,0.0,0.0,0.0,0.0,0.0,0.0,0.0,0,1,2,3,4,5,6,7,8,9,734571.0,-0.86,-0.07,0.48,-0.12,-0.18,0.0,-0.6,221.31,75.62,0.0,0.0,0.0,0.0,0.0,0.0,0.0,0.0,0.0,0.0,0.0,0.0,0.0,0.0,0.0,0.0,0.0,0.0,0.0,0.0,0.0,0.0
,,144739.740916,1.3405065536499023,0.0,0.0,0.0,0.0,0.0,0.0,0.0,0.0,0.0,0.0,0.0,0,1,2,3,4,5,6,7,8,9,734591.0,-0.88,-0.07,0.49,0.0,0.06,0.0,0.45,222.36,73.22,0.0,0.0,0.0,0.0,0.0,0.0,0.0,0.0,0.0,0.0,0.0,0.0,0.0,0.0,0.0,0.0,0.0,0.0,0.0,0.0,0.0,0.0
,,144739.76098,1.36057448387146,0.0,0.0,0.0,0.0,0.0,0.0,0.0,0.0,0.0,0.0,0.0,0,1,2,3,4,5,6,7,8,9,734611.0,-0.87,-0.07,0.48,-0.06,-0.12,0.0,-0.45,221.46,73.07,0.0,0.0,0.0,0.0,0.0,0.0,0.0,0.0,0.0,0.0,0.0,0.0,0.0,0.0,0.0,0.0,0.0,0.0,0.0,0.0,0.0,0.0
,,144739.780973,1.380582571029663,0.0,0.0,0.0,0.0,0.0,0.0,0.0,0.0,0.0,0.0,0.0,0,1,2,3,4,5,6,7,8,9,734630.0,-0.87,-0.08,0.47,-0.06,-0.06,0.0,0.6,222.51,73.37,0.0,0.0,0.0,0.0,0.0,0.0,0.0,0.0,0.0,0.0,0.0,0.0,0.0,0.0,0.0,0.0,0.0,0.0,0.0,0.0,0.0,0.0
,,144739.800993,1.400588035583496,0.0,0.0,0.0,0.0,0.0,0.0,0.0,0.0,0.0,0.0,0.0,0,1,2,3,4,5,6,7,8,9,734650.0,-0.86,-0.08,0.47,-0.06,-0.06,0.12,0.0,222.81,73.07,0.0,0.0,0.0,0.0,0.0,0.0,0.0,0.0,0.0,0.0,0.0,0.0,0.0,0.0,0.0,0.0,0.0,0.0,0.0,0.0,0.0,0.0
,,144739.820922,1.4205150604248047,0.0,0.0,0.0,0.0,0.0,0.0,0.0,0.0,0.0,0.0,0.0,0,1,2,3,4,5,6,7,8,9,734670.0,-0.87,-0.08,0.47,-0.06,-0.18,-0.06,0.75,222.36,74.57,0.0,0.0,0.0,0.0,0.0,0.0,0.0,0.0,0.0,0.0,0.0,0.0,0.0,0.0,0.0,0.0,0.0,0.0,0.0,0.0,0.0,0.0
,,144739.840972,1.4405665397644043,0.0,0.0,0.0,0.0,0.0,0.0,0.0,0.0,0.0,0.0,0.0,0,1,2,3,4,5,6,7,8,9,734690.0,-0.87,-0.07,0.48,0.0,0.06,0.0,0.0,220.41,72.47,0.0,0.0,0.0,0.0,0.0,0.0,0.0,0.0,0.0,0.0,0.0,0.0,0.0,0.0,0.0,0.0,0.0,0.0,0.0,0.0,0.0,0.0
,,144739.860946,1.460557460784912,0.0,0.0,0.0,0.0,0.0,0.0,0.0,0.0,0.0,0.0,0.0,0,1,2,3,4,5,6,7,8,9,734711.0,-0.87,-0.07,0.48,0.0,0.06,-0.06,0.6,221.46,73.07,0.0,0.0,0.0,0.0,0.0,0.0,0.0,0.0,0.0,0.0,0.0,0.0,0.0,0.0,0.0,0.0,0.0,0.0,0.0,0.0,0.0,0.0
,,144739.880928,1.4805281162261963,0.0,0.0,0.0,0.0,0.0,0.0,0.0,0.0,0.0,0.0,0.0,0,1,2,3,4,5,6,7,8,9,734711.0,-0.87,-0.07,0.48,0.0,0.06,-0.06,0.6,221.46,73.07,0.0,0.0,0.0,0.0,0.0,0.0,0.0,0.0,0.0,0.0,0.0,0.0,0.0,0.0,0.0,0.0,0.0,0.0,0.0,0.0,0.0,0.0
,,144739.900973,1.5005710124969482,0.0,0.0,0.0,0.0,0.0,0.0,0.0,0.0,0.0,0.0,0.0,0,1,2,3,4,5,6,7,8,9,734711.0,-0.87,-0.07,0.48,0.0,0.06,-0.06,0.6,221.46,73.07,0.0,0.0,0.0,0.0,0.0,0.0,0.0,0.0,0.0,0.0,0.0,0.0,0.0,0.0,0.0,0.0,0.0,0.0,0.0,0.0,0.0,0.0
,,144739.921004,1.5206029415130615,0.0,0.0,0.0,0.0,0.0,0.0,0.0,0.0,0.0,0.0,0.0,0,1,2,3,4,5,6,7,8,9,734711.0,-0.87,-0.07,0.48,0.0,0.06,-0.06,0.6,221.46,73.07,0.0,0.0,0.0,0.0,0.0,0.0,0.0,0.0,0.0,0.0,0.0,0.0,0.0,0.0,0.0,0.0,0.0,0.0,0.0,0.0,0.0,0.0
,,144739.940931,1.5405256748199463,0.0,0.0,0.0,0.0,0.0,0.0,0.0,0.0,0.0,0.0,0.0,0,1,2,3,4,5,6,7,8,9,734792.0,-0.87,-0.08,0.48,-0.18,-0.12,0.0,0.6,221.76,73.82,0.0,0.0,0.0,0.0,0.0,0.0,0.0,0.0,0.0,0.0,0.0,0.0,0.0,0.0,0.0,0.0,0.0,0.0,0.0,0.0,0.0,0.0
,,144739.960982,1.5605721473693848,0.0,0.0,0.0,0.0,0.0,0.0,0.0,0.0,0.0,0.0,0.0,0,1,2,3,4,5,6,7,8,9,734809.0,-0.87,-0.08,0.47,-0.06,-0.06,0.0,1.05,222.51,73.37,0.0,0.0,0.0,0.0,0.0,0.0,0.0,0.0,0.0,0.0,0.0,0.0,0.0,0.0,0.0,0.0,0.0,0.0,0.0,0.0,0.0,0.0
,,144739.980897,1.580488681793213,0.0,0.0,0.0,0.0,0.0,0.0,0.0,0.0,0.0,0.0,0.0,0,1,2,3,4,5,6,7,8,9,734831.0,-0.87,-0.08,0.47,0.12,0.0,-0.06,0.45,221.61,73.22,0.0,0.0,0.0,0.0,0.0,0.0,0.0,0.0,0.0,0.0,0.0,0.0,0.0,0.0,0.0,0.0,0.0,0.0,0.0,0.0,0.0,0.0
,,144740.000977,1.600576400756836,0.0,0.0,0.0,0.0,0.0,0.0,0.0,0.0,0.0,0.0,0.0,0,1,2,3,4,5,6,7,8,9,734851.0,-0.86,-0.07,0.48,-0.06,-0.06,0.0,-0.9,221.01,73.67,0.0,0.0,0.0,0.0,0.0,0.0,0.0,0.0,0.0,0.0,0.0,0.0,0.0,0.0,0.0,0.0,0.0,0.0,0.0,0.0,0.0,0.0
,,144740.020964,1.6205589771270752,0.0,0.0,0.0,0.0,0.0,0.0,0.0,0.0,0.0,0.0,0.0,0,1,2,3,4,5,6,7,8,9,734871.0,-0.87,-0.08,0.48,0.0,0.0,0.06,0.45,223.41,73.22,0.0,0.0,0.0,0.0,0.0,0.0,0.0,0.0,0.0,0.0,0.0,0.0,0.0,0.0,0.0,0.0,0.0,0.0,0.0,0.0,0.0,0.0
,,144740.040889,1.6404802799224854,0.0,0.0,0.0,0.0,0.0,0.0,0.0,0.0,0.0,0.0,0.0,0,1,2,3,4,5,6,7,8,9,734890.0,-0.86,-0.07,0.47,0.0,-0.06,0.0,0.45,223.11,73.97,0.0,0.0,0.0,0.0,0.0,0.0,0.0,0.0,0.0,0.0,0.0,0.0,0.0,0.0,0.0,0.0,0.0,0.0,0.0,0.0,0.0,0.0
,,144740.060889,1.6604804992675781,0.0,0.0,0.0,0.0,0.0,0.0,0.0,0.0,0.0,0.0,0.0,0,1,2,3,4,5,6,7,8,9,734910.0,-0.88,-0.08,0.49,0.0,0.0,0.12,-0.3,221.31,74.27,0.0,0.0,0.0,0.0,0.0,0.0,0.0,0.0,0.0,0.0,0.0,0.0,0.0,0.0,0.0,0.0,0.0,0.0,0.0,0.0,0.0,0.0
,,144740.080936,1.6805305480957031,0.0,0.0,0.0,0.0,0.0,0.0,0.0,0.0,0.0,0.0,0.0,0,1,2,3,4,5,6,7,8,9,734931.0,-0.87,-0.08,0.48,-0.06,-0.18,0.12,-0.6,220.56,73.67,0.0,0.0,0.0,0.0,0.0,0.0,0.0,0.0,0.0,0.0,0.0,0.0,0.0,0.0,0.0,0.0,0.0,0.0,0.0,0.0,0.0,0.0
,,144740.100972,1.7005712985992432,0.0,0.0,0.0,0.0,0.0,0.0,0.0,0.0,0.0,0.0,0.0,0,1,2,3,4,5,6,7,8,9,734951.0,-0.87,-0.07,0.48,0.0,0.0,0.0,-0.6,221.01,72.92,0.0,0.0,0.0,0.0,0.0,0.0,0.0,0.0,0.0,0.0,0.0,0.0,0.0,0.0,0.0,0.0,0.0,0.0,0.0,0.0,0.0,0.0
,,144740.120993,1.720590591430664,0.0,0.0,0.0,0.0,0.0,0.0,0.0,0.0,0.0,0.0,0.0,0,1,2,3,4,5,6,7,8,9,734971.0,-0.87,-0.07,0.48,0.12,0.12,0.0,0.6,221.16,73.07,0.0,0.0,0.0,0.0,0.0,0.0,0.0,0.0,0.0,0.0,0.0,0.0,0.0,0.0,0.0,0.0,0.0,0.0,0.0,0.0,0.0,0.0
,,144740.141007,1.7406017780303955,0.0,0.0,0.0,0.0,0.0,0.0,0.0,0.0,0.0,0.0,0.0,0,1,2,3,4,5,6,7,8,9,734991.0,-0.88,-0.08,0.48,-0.06,-0.06,0.06,0.0,222.51,74.42,0.0,0.0,0.0,0.0,0.0,0.0,0.0,0.0,0.0,0.0,0.0,0.0,0.0,0.0,0.0,0.0,0.0,0.0,0.0,0.0,0.0,0.0
,,144740.160913,1.7605044841766357,0.0,0.0,0.0,0.0,0.0,0.0,0.0,0.0,0.0,0.0,0.0,0,1,2,3,4,5,6,7,8,9,734991.0,-0.88,-0.08,0.48,-0.06,-0.06,0.06,0.0,222.51,74.42,0.0,0.0,0.0,0.0,0.0,0.0,0.0,0.0,0.0,0.0,0.0,0.0,0.0,0.0,0.0,0.0,0.0,0.0,0.0,0.0,0.0,0.0
,,144740.180931,1.7805213928222656,0.0,0.0,0.0,0.0,0.0,0.0,0.0,0.0,0.0,0.0,0.0,0,1,2,3,4,5,6,7,8,9,734991.0,-0.88,-0.08,0.48,-0.06,-0.06,0.06,0.0,222.51,74.42,0.0,0.0,0.0,0.0,0.0,0.0,0.0,0.0,0.0,0.0,0.0,0.0,0.0,0.0,0.0,0.0,0.0,0.0,0.0,0.0,0.0,0.0
,,144740.200998,1.8005950450897217,0.0,0.0,0.0,0.0,0.0,0.0,0.0,0.0,0.0,0.0,0.0,0,1,2,3,4,5,6,7,8,9,734991.0,-0.88,-0.08,0.48,-0.06,-0.06,0.06,0.0,222.51,74.42,0.0,0.0,0.0,0.0,0.0,0.0,0.0,0.0,0.0,0.0,0.0,0.0,0.0,0.0,0.0,0.0,0.0,0.0,0.0,0.0,0.0,0.0
,,144740.220989,1.8205859661102295,0.0,0.0,0.0,0.0,0.0,0.0,0.0,0.0,0.0,0.0,0.0,0,1,2,3,4,5,6,7,8,9,735069.0,-0.87,-0.08,0.48,-0.06,-0.12,0.0,1.65,222.81,73.82,0.0,0.0,0.0,0.0,0.0,0.0,0.0,0.0,0.0,0.0,0.0,0.0,0.0,0.0,0.0,0.0,0.0,0.0,0.0,0.0,0.0,0.0
,,144740.240962,1.8405563831329346,0.0,0.0,0.0,0.0,0.0,0.0,0.0,0.0,0.0,0.0,0.0,0,1,2,3,4,5,6,7,8,9,735087.0,-0.87,-0.07,0.48,-0.06,-0.12,-0.06,-0.6,221.01,74.57,0.0,0.0,0.0,0.0,0.0,0.0,0.0,0.0,0.0,0.0,0.0,0.0,0.0,0.0,0.0,0.0,0.0,0.0,0.0,0.0,0.0,0.0
,,144740.260941,1.8605320453643799,0.0,0.0,0.0,0.0,0.0,0.0,0.0,0.0,0.0,0.0,0.0,0,1,2,3,4,5,6,7,8,9,735104.0,-0.87,-0.08,0.47,0.0,-0.12,0.0,2.55,222.66,73.67,0.0,0.0,0.0,0.0,0.0,0.0,0.0,0.0,0.0,0.0,0.0,0.0,0.0,0.0,0.0,0.0,0.0,0.0,0.0,0.0,0.0,0.0
,,144740.280944,1.88053297996521,0.0,0.0,0.0,0.0,0.0,0.0,0.0,0.0,0.0,0.0,0.0,0,1,2,3,4,5,6,7,8,9,735131.0,-0.86,-0.08,0.47,0.0,-0.06,-0.06,0.3,221.76,72.77,0.0,0.0,0.0,0.0,0.0,0.0,0.0,0.0,0.0,0.0,0.0,0.0,0.0,0.0,0.0,0.0,0.0,0.0,0.0,0.0,0.0,0.0
,,144740.300994,1.900590181350708,0.0,0.0,0.0,0.0,0.0,0.0,0.0,0.0,0.0,0.0,0.0,0,1,2,3,4,5,6,7,8,9,735151.0,-0.86,-0.08,0.49,0.12,0.0,0.0,2.25,222.66,73.97,0.0,0.0,0.0,0.0,0.0,0.0,0.0,0.0,0.0,0.0,0.0,0.0,0.0,0.0,0.0,0.0,0.0,0.0,0.0,0.0,0.0,0.0
,,144740.320921,1.9205148220062256,0.0,0.0,0.0,0.0,0.0,0.0,0.0,0.0,0.0,0.0,0.0,0,1,2,3,4,5,6,7,8,9,735171.0,-0.86,-0.08,0.48,0.06,-0.06,0.0,-0.3,223.11,73.67,0.0,0.0,0.0,0.0,0.0,0.0,0.0,0.0,0.0,0.0,0.0,0.0,0.0,0.0,0.0,0.0,0.0,0.0,0.0,0.0,0.0,0.0
,,144740.340944,1.940532922744751,0.0,0.0,0.0,0.0,0.0,0.0,0.0,0.0,0.0,0.0,0.0,0,1,2,3,4,5,6,7,8,9,735191.0,-0.88,-0.08,0.48,-0.06,-0.06,0.06,0.15,223.11,74.27,0.0,0.0,0.0,0.0,0.0,0.0,0.0,0.0,0.0,0.0,0.0,0.0,0.0,0.0,0.0,0.0,0.0,0.0,0.0,0.0,0.0,0.0
,,144740.360919,1.9605090618133545,0.0,0.0,0.0,0.0,0.0,0.0,0.0,0.0,0.0,0.0,0.0,0,1,2,3,4,5,6,7,8,9,735211.0,-0.87,-0.08,0.48,-0.12,-0.06,-0.06,0.15,222.36,72.62,0.0,0.0,0.0,0.0,0.0,0.0,0.0,0.0,0.0,0.0,0.0,0.0,0.0,0.0,0.0,0.0,0.0,0.0,0.0,0.0,0.0,0.0
,,144740.380904,1.980496883392334,0.0,0.0,0.0,0.0,0.0,0.0,0.0,0.0,0.0,0.0,0.0,0,1,2,3,4,5,6,7,8,9,735231.0,-0.86,-0.08,0.48,-0.12,-0.18,-0.06,0.75,223.41,73.22,0.0,0.0,0.0,0.0,0.0,0.0,0.0,0.0,0.0,0.0,0.0,0.0,0.0,0.0,0.0,0.0,0.0,0.0,0.0,0.0,0.0,0.0
,,144740.400917,2.0005123615264893,0.0,0.0,0.0,0.0,0.0,0.0,0.0,0.0,0.0,0.0,0.0,0,1,2,3,4,5,6,7,8,9,735251.0,-0.87,-0.08,0.48,0.06,0.06,-0.06,0.15,222.66,72.92,0.0,0.0,0.0,0.0,0.0,0.0,0.0,0.0,0.0,0.0,0.0,0.0,0.0,0.0,0.0,0.0,0.0,0.0,0.0,0.0,0.0,0.0
,,144740.42094,2.020533323287964,0.0,0.0,0.0,0.0,0.0,0.0,0.0,0.0,0.0,0.0,0.0,0,1,2,3,4,5,6,7,8,9,735271.0,-0.87,-0.09,0.48,-0.06,-0.06,0.0,0.75,222.66,73.22,0.0,0.0,0.0,0.0,0.0,0.0,0.0,0.0,0.0,0.0,0.0,0.0,0.0,0.0,0.0,0.0,0.0,0.0,0.0,0.0,0.0,0.0
,,144740.440868,2.040457010269165,0.0,0.0,0.0,0.0,0.0,0.0,0.0,0.0,0.0,0.0,0.0,0,1,2,3,4,5,6,7,8,9,735271.0,-0.87,-0.09,0.48,-0.06,-0.06,0.0,0.75,222.66,73.22,0.0,0.0,0.0,0.0,0.0,0.0,0.0,0.0,0.0,0.0,0.0,0.0,0.0,0.0,0.0,0.0,0.0,0.0,0.0,0.0,0.0,0.0
,,144740.460926,2.060515880584717,0.0,0.0,0.0,0.0,0.0,0.0,0.0,0.0,0.0,0.0,0.0,0,1,2,3,4,5,6,7,8,9,735271.0,-0.87,-0.09,0.48,-0.06,-0.06,0.0,0.75,222.66,73.22,0.0,0.0,0.0,0.0,0.0,0.0,0.0,0.0,0.0,0.0,0.0,0.0,0.0,0.0,0.0,0.0,0.0,0.0,0.0,0.0,0.0,0.0
,,144740.480938,2.080533504486084,0.0,0.0,0.0,0.0,0.0,0.0,0.0,0.0,0.0,0.0,0.0,0,1,2,3,4,5,6,7,8,9,735271.0,-0.87,-0.09,0.48,-0.06,-0.06,0.0,0.75,222.66,73.22,0.0,0.0,0.0,0.0,0.0,0.0,0.0,0.0,0.0,0.0,0.0,0.0,0.0,0.0,0.0,0.0,0.0,0.0,0.0,0.0,0.0,0.0
,,144740.500923,2.1005189418792725,0.0,0.0,0.0,0.0,0.0,0.0,0.0,0.0,0.0,0.0,0.0,0,1,2,3,4,5,6,7,8,9,735352.0,-0.87,-0.07,0.48,-0.12,-0.12,-0.06,0.45,221.31,73.22,0.0,0.0,0.0,0.0,0.0,0.0,0.0,0.0,0.0,0.0,0.0,0.0,0.0,0.0,0.0,0.0,0.0,0.0,0.0,0.0,0.0,0.0
,,144740.520946,2.1205716133117676,0.0,0.0,0.0,0.0,0.0,0.0,0.0,0.0,0.0,0.0,0.0,0,1,2,3,4,5,6,7,8,9,735369.0,-0.87,-0.08,0.48,-0.06,-0.12,0.0,-0.3,221.31,73.22,0.0,0.0,0.0,0.0,0.0,0.0,0.0,0.0,0.0,0.0,0.0,0.0,0.0,0.0,0.0,0.0,0.0,0.0,0.0,0.0,0.0,0.0
,,144740.540964,2.140554428100586,0.0,0.0,0.0,0.0,0.0,0.0,0.0,0.0,0.0,0.0,0.0,0,1,2,3,4,5,6,7,8,9,735390.0,-0.86,-0.08,0.48,0.06,-0.06,0.0,0.0,222.51,72.47,0.0,0.0,0.0,0.0,0.0,0.0,0.0,0.0,0.0,0.0,0.0,0.0,0.0,0.0,0.0,0.0,0.0,0.0,0.0,0.0,0.0,0.0
,,144740.560969,2.1605660915374756,0.0,0.0,0.0,0.0,0.0,0.0,0.0,0.0,0.0,0.0,0.0,0,1,2,3,4,5,6,7,8,9,735411.0,-0.87,-0.09,0.48,0.0,0.0,-0.06,0.6,221.76,72.77,0.0,0.0,0.0,0.0,0.0,0.0,0.0,0.0,0.0,0.0,0.0,0.0,0.0,0.0,0.0,0.0,0.0,0.0,0.0,0.0,0.0,0.0
,,144740.580937,2.1805334091186523,0.0,0.0,0.0,0.0,0.0,0.0,0.0,0.0,0.0,0.0,0.0,0,1,2,3,4,5,6,7,8,9,735431.0,-0.87,-0.07,0.48,-0.06,-0.12,0.18,-0.45,222.21,72.47,0.0,0.0,0.0,0.0,0.0,0.0,0.0,0.0,0.0,0.0,0.0,0.0,0.0,0.0,0.0,0.0,0.0,0.0,0.0,0.0,0.0,0.0
,,144740.600997,2.2005975246429443,0.0,0.0,0.0,0.0,0.0,0.0,0.0,0.0,0.0,0.0,0.0,0,1,2,3,4,5,6,7,8,9,735451.0,-0.87,-0.07,0.48,-0.06,-0.06,-0.06,1.2,222.36,73.67,0.0,0.0,0.0,0.0,0.0,0.0,0.0,0.0,0.0,0.0,0.0,0.0,0.0,0.0,0.0,0.0,0.0,0.0,0.0,0.0,0.0,0.0
,,144740.620958,2.220551013946533,0.0,0.0,0.0,0.0,0.0,0.0,0.0,0.0,0.0,0.0,0.0,0,1,2,3,4,5,6,7,8,9,735471.0,-0.87,-0.07,0.49,0.0,-0.06,0.0,-0.45,222.21,72.77,0.0,0.0,0.0,0.0,0.0,0.0,0.0,0.0,0.0,0.0,0.0,0.0,0.0,0.0,0.0,0.0,0.0,0.0,0.0,0.0,0.0,0.0
,,144740.640949,2.24054217338562,0.0,0.0,0.0,0.0,0.0,0.0,0.0,0.0,0.0,0.0,0.0,0,1,2,3,4,5,6,7,8,9,735491.0,-0.87,-0.08,0.47,-0.06,-0.12,-0.12,0.75,221.31,74.27,0.0,0.0,0.0,0.0,0.0,0.0,0.0,0.0,0.0,0.0,0.0,0.0,0.0,0.0,0.0,0.0,0.0,0.0,0.0,0.0,0.0,0.0
,,144740.660949,2.2605440616607666,0.0,0.0,0.0,0.0,0.0,0.0,0.0,0.0,0.0,0.0,0.0,0,1,2,3,4,5,6,7,8,9,735511.0,-0.87,-0.08,0.48,0.0,0.06,0.0,0.3,221.76,74.12,0.0,0.0,0.0,0.0,0.0,0.0,0.0,0.0,0.0,0.0,0.0,0.0,0.0,0.0,0.0,0.0,0.0,0.0,0.0,0.0,0.0,0.0
,,144740.68093,2.2805233001708984,0.0,0.0,0.0,0.0,0.0,0.0,0.0,0.0,0.0,0.0,0.0,0,1,2,3,4,5,6,7,8,9,735531.0,-0.86,-0.08,0.48,-0.06,-0.12,0.0,1.05,222.21,72.77,0.0,0.0,0.0,0.0,0.0,0.0,0.0,0.0,0.0,0.0,0.0,0.0,0.0,0.0,0.0,0.0,0.0,0.0,0.0,0.0,0.0,0.0
,,144740.700929,2.3005244731903076,0.0,0.0,0.0,0.0,0.0,0.0,0.0,0.0,0.0,0.0,0.0,0,1,2,3,4,5,6,7,8,9,735551.0,-0.87,-0.07,0.47,0.0,-0.06,0.12,1.2,222.06,73.97,0.0,0.0,0.0,0.0,0.0,0.0,0.0,0.0,0.0,0.0,0.0,0.0,0.0,0.0,0.0,0.0,0.0,0.0,0.0,0.0,0.0,0.0
,,144740.72091,2.320505380630493,0.0,0.0,0.0,0.0,0.0,0.0,0.0,0.0,0.0,0.0,0.0,0,1,2,3,4,5,6,7,8,9,735551.0,-0.87,-0.07,0.47,0.0,-0.06,0.12,1.2,222.06,73.97,0.0,0.0,0.0,0.0,0.0,0.0,0.0,0.0,0.0,0.0,0.0,0.0,0.0,0.0,0.0,0.0,0.0,0.0,0.0,0.0,0.0,0.0
,,144740.740994,2.3406178951263428,0.0,0.0,0.0,0.0,0.0,0.0,0.0,0.0,0.0,0.0,0.0,0,1,2,3,4,5,6,7,8,9,735551.0,-0.87,-0.07,0.47,0.0,-0.06,0.12,1.2,222.06,73.97,0.0,0.0,0.0,0.0,0.0,0.0,0.0,0.0,0.0,0.0,0.0,0.0,0.0,0.0,0.0,0.0,0.0,0.0,0.0,0.0,0.0,0.0
,,144740.760998,2.360593318939209,0.0,0.0,0.0,0.0,0.0,0.0,0.0,0.0,0.0,0.0,0.0,0,1,2,3,4,5,6,7,8,9,735551.0,-0.87,-0.07,0.47,0.0,-0.06,0.12,1.2,222.06,73.97,0.0,0.0,0.0,0.0,0.0,0.0,0.0,0.0,0.0,0.0,0.0,0.0,0.0,0.0,0.0,0.0,0.0,0.0,0.0,0.0,0.0,0.0
,,144740.780932,2.380526065826416,0.0,0.0,0.0,0.0,0.0,0.0,0.0,0.0,0.0,0.0,0.0,0,1,2,3,4,5,6,7,8,9,735631.0,-0.87,-0.08,0.47,0.0,-0.06,0.06,1.35,223.26,74.42,0.0,0.0,0.0,0.0,0.0,0.0,0.0,0.0,0.0,0.0,0.0,0.0,0.0,0.0,0.0,0.0,0.0,0.0,0.0,0.0,0.0,0.0
,,144740.800996,2.40059232711792,0.0,0.0,0.0,0.0,0.0,0.0,0.0,0.0,0.0,0.0,0.0,0,1,2,3,4,5,6,7,8,9,735648.0,-0.87,-0.07,0.48,-0.06,-0.06,-0.06,0.75,222.06,73.67,0.0,0.0,0.0,0.0,0.0,0.0,0.0,0.0,0.0,0.0,0.0,0.0,0.0,0.0,0.0,0.0,0.0,0.0,0.0,0.0,0.0,0.0
,,144740.820957,2.420551300048828,0.0,0.0,0.0,0.0,0.0,0.0,0.0,0.0,0.0,0.0,0.0,0,1,2,3,4,5,6,7,8,9,735671.0,-0.86,-0.07,0.48,-0.06,-0.12,-0.12,1.05,222.81,74.12,0.0,0.0,0.0,0.0,0.0,0.0,0.0,0.0,0.0,0.0,0.0,0.0,0.0,0.0,0.0,0.0,0.0,0.0,0.0,0.0,0.0,0.0
,,144740.840948,2.4405412673950195,0.0,0.0,0.0,0.0,0.0,0.0,0.0,0.0,0.0,0.0,0.0,0,1,2,3,4,5,6,7,8,9,735691.0,-0.87,-0.08,0.48,0.0,-0.06,0.0,0.6,222.51,73.37,0.0,0.0,0.0,0.0,0.0,0.0,0.0,0.0,0.0,0.0,0.0,0.0,0.0,0.0,0.0,0.0,0.0,0.0,0.0,0.0,0.0,0.0
,,144740.860993,2.4606168270111084,0.0,0.0,0.0,0.0,0.0,0.0,0.0,0.0,0.0,0.0,0.0,0,1,2,3,4,5,6,7,8,9,735711.0,-0.87,-0.08,0.47,0.06,0.0,-0.12,-0.6,222.36,73.22,0.0,0.0,0.0,0.0,0.0,0.0,0.0,0.0,0.0,0.0,0.0,0.0,0.0,0.0,0.0,0.0,0.0,0.0,0.0,0.0,0.0,0.0
,,144740.880939,2.4805281162261963,0.0,0.0,0.0,0.0,0.0,0.0,0.0,0.0,0.0,0.0,0.0,0,1,2,3,4,5,6,7,8,9,735731.0,-0.87,-0.08,0.47,-0.12,-0.12,0.12,1.65,222.21,73.37,0.0,0.0,0.0,0.0,0.0,0.0,0.0,0.0,0.0,0.0,0.0,0.0,0.0,0.0,0.0,0.0,0.0,0.0,0.0,0.0,0.0,0.0
,,144740.90093,2.5005249977111816,0.0,0.0,0.0,0.0,0.0,0.0,0.0,0.0,0.0,0.0,0.0,0,1,2,3,4,5,6,7,8,9,735751.0,-0.88,-0.09,0.48,0.12,-0.12,0.06,-0.3,223.11,72.32,0.0,0.0,0.0,0.0,0.0,0.0,0.0,0.0,0.0,0.0,0.0,0.0,0.0,0.0,0.0,0.0,0.0,0.0,0.0,0.0,0.0,0.0
,,144740.920966,2.5205600261688232,0.0,0.0,0.0,0.0,0.0,0.0,0.0,0.0,0.0,0.0,0.0,0,1,2,3,4,5,6,7,8,9,735771.0,-0.87,-0.09,0.48,-0.12,-0.12,0.0,-1.35,222.06,73.22,0.0,0.0,0.0,0.0,0.0,0.0,0.0,0.0,0.0,0.0,0.0,0.0,0.0,0.0,0.0,0.0,0.0,0.0,0.0,0.0,0.0,0.0
,,144740.940923,2.5405116081237793,0.0,0.0,0.0,0.0,0.0,0.0,0.0,0.0,0.0,0.0,0.0,0,1,2,3,4,5,6,7,8,9,735791.0,-0.86,-0.07,0.48,-0.06,-0.12,-0.06,0.6,222.51,73.07,0.0,0.0,0.0,0.0,0.0,0.0,0.0,0.0,0.0,0.0,0.0,0.0,0.0,0.0,0.0,0.0,0.0,0.0,0.0,0.0,0.0,0.0
,,144740.960921,2.5605103969573975,0.0,0.0,0.0,0.0,0.0,0.0,0.0,0.0,0.0,0.0,0.0,0,1,2,3,4,5,6,7,8,9,735811.0,-0.87,-0.08,0.47,-0.06,-0.12,-0.06,0.45,221.31,72.92,0.0,0.0,0.0,0.0,0.0,0.0,0.0,0.0,0.0,0.0,0.0,0.0,0.0,0.0,0.0,0.0,0.0,0.0,0.0,0.0,0.0,0.0
,,144740.980942,2.580535411834717,0.0,0.0,0.0,0.0,0.0,0.0,0.0,0.0,0.0,0.0,0.0,0,1,2,3,4,5,6,7,8,9,735831.0,-0.88,-0.08,0.47,-0.06,-0.12,-0.18,0.45,221.61,73.22,0.0,0.0,0.0,0.0,0.0,0.0,0.0,0.0,0.0,0.0,0.0,0.0,0.0,0.0,0.0,0.0,0.0,0.0,0.0,0.0,0.0,0.0
,,144741.000919,2.6005144119262695,0.0,0.0,0.0,0.0,0.0,0.0,0.0,0.0,0.0,0.0,0.0,0,1,2,3,4,5,6,7,8,9,735831.0,-0.88,-0.08,0.47,-0.06,-0.12,-0.18,0.45,221.61,73.22,0.0,0.0,0.0,0.0,0.0,0.0,0.0,0.0,0.0,0.0,0.0,0.0,0.0,0.0,0.0,0.0,0.0,0.0,0.0,0.0,0.0,0.0
,,144741.02089,2.620480537414551,0.0,0.0,0.0,0.0,0.0,0.0,0.0,0.0,0.0,0.0,0.0,0,1,2,3,4,5,6,7,8,9,735831.0,-0.88,-0.08,0.47,-0.06,-0.12,-0.18,0.45,221.61,73.22,0.0,0.0,0.0,0.0,0.0,0.0,0.0,0.0,0.0,0.0,0.0,0.0,0.0,0.0,0.0,0.0,0.0,0.0,0.0,0.0,0.0,0.0
,,144741.040946,2.6405577659606934,0.0,0.0,0.0,0.0,0.0,0.0,0.0,0.0,0.0,0.0,0.0,0,1,2,3,4,5,6,7,8,9,735831.0,-0.88,-0.08,0.47,-0.06,-0.12,-0.18,0.45,221.61,73.22,0.0,0.0,0.0,0.0,0.0,0.0,0.0,0.0,0.0,0.0,0.0,0.0,0.0,0.0,0.0,0.0,0.0,0.0,0.0,0.0,0.0,0.0
,,144741.060944,2.660539150238037,0.0,0.0,0.0,0.0,0.0,0.0,0.0,0.0,0.0,0.0,0.0,0,1,2,3,4,5,6,7,8,9,735912.0,-0.87,-0.07,0.48,-0.06,-0.06,0.06,0.15,221.61,75.02,0.0,0.0,0.0,0.0,0.0,0.0,0.0,0.0,0.0,0.0,0.0,0.0,0.0,0.0,0.0,0.0,0.0,0.0,0.0,0.0,0.0,0.0
,,144741.081025,2.6806387901306152,0.0,0.0,0.0,0.0,0.0,0.0,0.0,0.0,0.0,0.0,0.0,0,1,2,3,4,5,6,7,8,9,735929.0,-0.87,-0.08,0.49,0.0,-0.06,0.0,1.2,222.66,74.27,0.0,0.0,0.0,0.0,0.0,0.0,0.0,0.0,0.0,0.0,0.0,0.0,0.0,0.0,0.0,0.0,0.0,0.0,0.0,0.0,0.0,0.0
,,144741.100941,2.700538158416748,0.0,0.0,0.0,0.0,0.0,0.0,0.0,0.0,0.0,0.0,0.0,0,1,2,3,4,5,6,7,8,9,735951.0,-0.87,-0.08,0.48,0.0,-0.18,0.06,0.3,221.76,73.07,0.0,0.0,0.0,0.0,0.0,0.0,0.0,0.0,0.0,0.0,0.0,0.0,0.0,0.0,0.0,0.0,0.0,0.0,0.0,0.0,0.0,0.0
,,144741.120912,2.7205052375793457,0.0,0.0,0.0,0.0,0.0,0.0,0.0,0.0,0.0,0.0,0.0,0,1,2,3,4,5,6,7,8,9,735971.0,-0.87,-0.08,0.48,-0.12,-0.12,0.06,0.15,221.31,74.57,0.0,0.0,0.0,0.0,0.0,0.0,0.0,0.0,0.0,0.0,0.0,0.0,0.0,0.0,0.0,0.0,0.0,0.0,0.0,0.0,0.0,0.0
,,144741.140949,2.74053955078125,0.0,0.0,0.0,0.0,0.0,0.0,0.0,0.0,0.0,0.0,0.0,0,1,2,3,4,5,6,7,8,9,735991.0,-0.87,-0.08,0.48,-0.12,-0.06,-0.06,-0.9,223.11,73.67,0.0,0.0,0.0,0.0,0.0,0.0,0.0,0.0,0.0,0.0,0.0,0.0,0.0,0.0,0.0,0.0,0.0,0.0,0.0,0.0,0.0,0.0
,,144741.160971,2.7605645656585693,0.0,0.0,0.0,0.0,0.0,0.0,0.0,0.0,0.0,0.0,0.0,0,1,2,3,4,5,6,7,8,9,736011.0,-0.87,-0.08,0.48,-0.06,0.06,0.0,0.6,222.81,72.47,0.0,0.0,0.0,0.0,0.0,0.0,0.0,0.0,0.0,0.0,0.0,0.0,0.0,0.0,0.0,0.0,0.0,0.0,0.0,0.0,0.0,0.0
,,144741.180942,2.7805354595184326,0.0,0.0,0.0,0.0,0.0,0.0,0.0,0.0,0.0,0.0,0.0,0,1,2,3,4,5,6,7,8,9,736031.0,-0.87,-0.07,0.48,-0.06,-0.12,0.0,0.15,222.66,72.92,0.0,0.0,0.0,0.0,0.0,0.0,0.0,0.0,0.0,0.0,0.0,0.0,0.0,0.0,0.0,0.0,0.0,0.0,0.0,0.0,0.0,0.0
,,144741.200948,2.8005425930023193,0.0,0.0,0.0,0.0,0.0,0.0,0.0,0.0,0.0,0.0,0.0,0,1,2,3,4,5,6,7,8,9,736051.0,-0.86,-0.07,0.48,-0.06,-0.06,0.0,1.05,223.26,73.82,0.0,0.0,0.0,0.0,0.0,0.0,0.0,0.0,0.0,0.0,0.0,0.0,0.0,0.0,0.0,0.0,0.0,0.0,0.0,0.0,0.0,0.0
,,144741.220942,2.820530414581299,0.0,0.0,0.0,0.0,0.0,0.0,0.0,0.0,0.0,0.0,0.0,0,1,2,3,4,5,6,7,8,9,736071.0,-0.87,-0.07,0.47,0.06,0.0,-0.06,0.3,222.21,73.07,0.0,0.0,0.0,0.0,0.0,0.0,0.0,0.0,0.0,0.0,0.0,0.0,0.0,0.0,0.0,0.0,0.0,0.0,0.0,0.0,0.0,0.0
,,144741.240952,2.840547561645508,0.0,0.0,0.0,0.0,0.0,0.0,0.0,0.0,0.0,0.0,0.0,0,1,2,3,4,5,6,7,8,9,736091.0,-0.87,-0.08,0.48,-0.12,-0.06,-0.06,0.75,223.41,72.92,0.0,0.0,0.0,0.0,0.0,0.0,0.0,0.0,0.0,0.0,0.0,0.0,0.0,0.0,0.0,0.0,0.0,0.0,0.0,0.0,0.0,0.0
,,144741.260958,2.860551595687866,0.0,0.0,0.0,0.0,0.0,0.0,0.0,0.0,0.0,0.0,0.0,0,1,2,3,4,5,6,7,8,9,736111.0,-0.87,-0.08,0.46,0.0,0.0,-0.12,-1.95,220.56,71.27,0.0,0.0,0.0,0.0,0.0,0.0,0.0,0.0,0.0,0.0,0.0,0.0,0.0,0.0,0.0,0.0,0.0,0.0,0.0,0.0,0.0,0.0
,,144741.280933,2.880527973175049,0.0,0.0,0.0,0.0,0.0,0.0,0.0,0.0,0.0,0.0,0.0,0,1,2,3,4,5,6,7,8,9,736111.0,-0.87,-0.08,0.46,0.0,0.0,-0.12,-1.95,220.56,71.27,0.0,0.0,0.0,0.0,0.0,0.0,0.0,0.0,0.0,0.0,0.0,0.0,0.0,0.0,0.0,0.0,0.0,0.0,0.0,0.0,0.0,0.0
,,144741.300978,2.9005908966064453,0.0,0.0,0.0,0.0,0.0,0.0,0.0,0.0,0.0,0.0,0.0,0,1,2,3,4,5,6,7,8,9,736111.0,-0.87,-0.08,0.46,0.0,0.0,-0.12,-1.95,220.56,71.27,0.0,0.0,0.0,0.0,0.0,0.0,0.0,0.0,0.0,0.0,0.0,0.0,0.0,0.0,0.0,0.0,0.0,0.0,0.0,0.0,0.0,0.0
,,144741.320996,2.9206042289733887,0.0,0.0,0.0,0.0,0.0,0.0,0.0,0.0,0.0,0.0,0.0,0,1,2,3,4,5,6,7,8,9,736111.0,-0.87,-0.08,0.46,0.0,0.0,-0.12,-1.95,220.56,71.27,0.0,0.0,0.0,0.0,0.0,0.0,0.0,0.0,0.0,0.0,0.0,0.0,0.0,0.0,0.0,0.0,0.0,0.0,0.0,0.0,0.0,0.0
,,144741.34095,2.940544366836548,0.0,0.0,0.0,0.0,0.0,0.0,0.0,0.0,0.0,0.0,0.0,0,1,2,3,4,5,6,7,8,9,736186.0,-0.87,-0.08,0.47,-0.06,-0.12,0.0,0.0,221.76,73.82,0.0,0.0,0.0,0.0,0.0,0.0,0.0,0.0,0.0,0.0,0.0,0.0,0.0,0.0,0.0,0.0,0.0,0.0,0.0,0.0,0.0,0.0
,,144741.360941,2.9605352878570557,0.0,0.0,0.0,0.0,0.0,0.0,0.0,0.0,0.0,0.0,0.0,0,1,2,3,4,5,6,7,8,9,736212.0,-0.88,-0.08,0.48,-0.06,-0.06,-0.12,0.75,222.06,73.22,0.0,0.0,0.0,0.0,0.0,0.0,0.0,0.0,0.0,0.0,0.0,0.0,0.0,0.0,0.0,0.0,0.0,0.0,0.0,0.0,0.0,0.0
,,144741.380936,2.980534791946411,0.0,0.0,0.0,0.0,0.0,0.0,0.0,0.0,0.0,0.0,0.0,0,1,2,3,4,5,6,7,8,9,736231.0,-0.87,-0.08,0.47,-0.06,-0.06,0.0,-0.75,222.81,75.17,0.0,0.0,0.0,0.0,0.0,0.0,0.0,0.0,0.0,0.0,0.0,0.0,0.0,0.0,0.0,0.0,0.0,0.0,0.0,0.0,0.0,0.0
,,144741.400987,3.00061297416687,0.0,0.0,0.0,0.0,0.0,0.0,0.0,0.0,0.0,0.0,0.0,0,1,2,3,4,5,6,7,8,9,736251.0,-0.87,-0.08,0.49,-0.06,-0.12,-0.06,-0.3,223.41,72.92,0.0,0.0,0.0,0.0,0.0,0.0,0.0,0.0,0.0,0.0,0.0,0.0,0.0,0.0,0.0,0.0,0.0,0.0,0.0,0.0,0.0,0.0
,,144741.420939,3.0205328464508057,0.0,0.0,0.0,0.0,0.0,0.0,0.0,0.0,0.0,0.0,0.0,0,1,2,3,4,5,6,7,8,9,736271.0,-0.86,-0.07,0.47,-0.12,-0.06,-0.06,0.6,221.76,72.47,0.0,0.0,0.0,0.0,0.0,0.0,0.0,0.0,0.0,0.0,0.0,0.0,0.0,0.0,0.0,0.0,0.0,0.0,0.0,0.0,0.0,0.0
,,144741.44091,3.040498733520508,0.0,0.0,0.0,0.0,0.0,0.0,0.0,0.0,0.0,0.0,0.0,0,1,2,3,4,5,6,7,8,9,736291.0,-0.87,-0.08,0.48,-0.06,-0.06,-0.06,1.2,222.36,71.57,0.0,0.0,0.0,0.0,0.0,0.0,0.0,0.0,0.0,0.0,0.0,0.0,0.0,0.0,0.0,0.0,0.0,0.0,0.0,0.0,0.0,0.0
,,144741.460925,3.0605156421661377,0.0,0.0,0.0,0.0,0.0,0.0,0.0,0.0,0.0,0.0,0.0,0,1,2,3,4,5,6,7,8,9,736311.0,-0.86,-0.08,0.47,0.0,0.0,0.0,0.6,221.16,74.42,0.0,0.0,0.0,0.0,0.0,0.0,0.0,0.0,0.0,0.0,0.0,0.0,0.0,0.0,0.0,0.0,0.0,0.0,0.0,0.0,0.0,0.0
,,144741.480951,3.0805447101593018,0.0,0.0,0.0,0.0,0.0,0.0,0.0,0.0,0.0,0.0,0.0,0,1,2,3,4,5,6,7,8,9,736331.0,-0.87,-0.07,0.48,-0.12,-0.06,0.06,0.6,220.41,74.72,0.0,0.0,0.0,0.0,0.0,0.0,0.0,0.0,0.0,0.0,0.0,0.0,0.0,0.0,0.0,0.0,0.0,0.0,0.0,0.0,0.0,0.0
,,144741.501001,3.100607395172119,0.0,0.0,0.0,0.0,0.0,0.0,0.0,0.0,0.0,0.0,0.0,0,1,2,3,4,5,6,7,8,9,736351.0,-0.86,-0.07,0.49,0.0,-0.06,0.06,-0.3,223.11,73.22,0.0,0.0,0.0,0.0,0.0,0.0,0.0,0.0,0.0,0.0,0.0,0.0,0.0,0.0,0.0,0.0,0.0,0.0,0.0,0.0,0.0,0.0
,,144741.52093,3.1205224990844727,0.0,0.0,0.0,0.0,0.0,0.0,0.0,0.0,0.0,0.0,0.0,0,1,2,3,4,5,6,7,8,9,736371.0,-0.87,-0.09,0.49,0.0,0.0,-0.06,0.0,222.51,72.77,0.0,0.0,0.0,0.0,0.0,0.0,0.0,0.0,0.0,0.0,0.0,0.0,0.0,0.0,0.0,0.0,0.0,0.0,0.0,0.0,0.0,0.0
,,144741.540994,3.1405885219573975,0.0,0.0,0.0,0.0,0.0,0.0,0.0,0.0,0.0,0.0,0.0,0,1,2,3,4,5,6,7,8,9,736391.0,-0.87,-0.08,0.48,-0.06,-0.12,-0.06,-0.45,221.76,73.37,0.0,0.0,0.0,0.0,0.0,0.0,0.0,0.0,0.0,0.0,0.0,0.0,0.0,0.0,0.0,0.0,0.0,0.0,0.0,0.0,0.0,0.0
,,144741.560907,3.1604979038238525,0.0,0.0,0.0,0.0,0.0,0.0,0.0,0.0,0.0,0.0,0.0,0,1,2,3,4,5,6,7,8,9,736391.0,-0.87,-0.08,0.48,-0.06,-0.12,-0.06,-0.45,221.76,73.37,0.0,0.0,0.0,0.0,0.0,0.0,0.0,0.0,0.0,0.0,0.0,0.0,0.0,0.0,0.0,0.0,0.0,0.0,0.0,0.0,0.0,0.0
,,144741.580954,3.180551767349243,0.0,0.0,0.0,0.0,0.0,0.0,0.0,0.0,0.0,0.0,0.0,0,1,2,3,4,5,6,7,8,9,736391.0,-0.87,-0.08,0.48,-0.06,-0.12,-0.06,-0.45,221.76,73.37,0.0,0.0,0.0,0.0,0.0,0.0,0.0,0.0,0.0,0.0,0.0,0.0,0.0,0.0,0.0,0.0,0.0,0.0,0.0,0.0,0.0,0.0
,,144741.600977,3.2005791664123535,0.0,0.0,0.0,0.0,0.0,0.0,0.0,0.0,0.0,0.0,0.0,0,1,2,3,4,5,6,7,8,9,736391.0,-0.87,-0.08,0.48,-0.06,-0.12,-0.06,-0.45,221.76,73.37,0.0,0.0,0.0,0.0,0.0,0.0,0.0,0.0,0.0,0.0,0.0,0.0,0.0,0.0,0.0,0.0,0.0,0.0,0.0,0.0,0.0,0.0
,,144741.62097,3.220567464828491,0.0,0.0,0.0,0.0,0.0,0.0,0.0,0.0,0.0,0.0,0.0,0,1,2,3,4,5,6,7,8,9,736473.0,-0.87,-0.07,0.47,-0.06,-0.06,0.0,1.35,221.16,74.72,0.0,0.0,0.0,0.0,0.0,0.0,0.0,0.0,0.0,0.0,0.0,0.0,0.0,0.0,0.0,0.0,0.0,0.0,0.0,0.0,0.0,0.0
,,144741.640973,3.240568161010742,0.0,0.0,0.0,0.0,0.0,0.0,0.0,0.0,0.0,0.0,0.0,0,1,2,3,4,5,6,7,8,9,736490.0,-0.87,-0.08,0.48,-0.06,-0.06,0.0,0.3,221.46,71.72,0.0,0.0,0.0,0.0,0.0,0.0,0.0,0.0,0.0,0.0,0.0,0.0,0.0,0.0,0.0,0.0,0.0,0.0,0.0,0.0,0.0,0.0
,,144741.660923,3.2605128288269043,0.0,0.0,0.0,0.0,0.0,0.0,0.0,0.0,0.0,0.0,0.0,0,1,2,3,4,5,6,7,8,9,736511.0,-0.87,-0.07,0.48,0.0,0.0,-0.06,1.05,222.21,74.12,0.0,0.0,0.0,0.0,0.0,0.0,0.0,0.0,0.0,0.0,0.0,0.0,0.0,0.0,0.0,0.0,0.0,0.0,0.0,0.0,0.0,0.0
,,144741.680943,3.2805380821228027,0.0,0.0,0.0,0.0,0.0,0.0,0.0,0.0,0.0,0.0,0.0,0,1,2,3,4,5,6,7,8,9,736531.0,-0.86,-0.07,0.48,-0.06,-0.18,0.0,0.15,221.61,73.97,0.0,0.0,0.0,0.0,0.0,0.0,0.0,0.0,0.0,0.0,0.0,0.0,0.0,0.0,0.0,0.0,0.0,0.0,0.0,0.0,0.0,0.0
,,144741.700965,3.3005635738372803,0.0,0.0,0.0,0.0,0.0,0.0,0.0,0.0,0.0,0.0,0.0,0,1,2,3,4,5,6,7,8,9,736551.0,-0.87,-0.07,0.47,0.06,0.0,0.0,0.0,222.21,73.82,0.0,0.0,0.0,0.0,0.0,0.0,0.0,0.0,0.0,0.0,0.0,0.0,0.0,0.0,0.0,0.0,0.0,0.0,0.0,0.0,0.0,0.0
,,144741.720923,3.320516586303711,0.0,0.0,0.0,0.0,0.0,0.0,0.0,0.0,0.0,0.0,0.0,0,1,2,3,4,5,6,7,8,9,736571.0,-0.87,-0.07,0.48,0.06,0.0,0.06,0.15,221.61,73.97,0.0,0.0,0.0,0.0,0.0,0.0,0.0,0.0,0.0,0.0,0.0,0.0,0.0,0.0,0.0,0.0,0.0,0.0,0.0,0.0,0.0,0.0
,,144741.740921,3.340514659881592,0.0,0.0,0.0,0.0,0.0,0.0,0.0,0.0,0.0,0.0,0.0,0,1,2,3,4,5,6,7,8,9,736591.0,-0.87,-0.07,0.48,0.06,0.06,-0.06,0.75,222.06,73.67,0.0,0.0,0.0,0.0,0.0,0.0,0.0,0.0,0.0,0.0,0.0,0.0,0.0,0.0,0.0,0.0,0.0,0.0,0.0,0.0,0.0,0.0
,,144741.760909,3.360501289367676,0.0,0.0,0.0,0.0,0.0,0.0,0.0,0.0,0.0,0.0,0.0,0,1,2,3,4,5,6,7,8,9,736611.0,-0.87,-0.08,0.48,0.0,-0.06,0.06,0.75,221.61,73.22,0.0,0.0,0.0,0.0,0.0,0.0,0.0,0.0,0.0,0.0,0.0,0.0,0.0,0.0,0.0,0.0,0.0,0.0,0.0,0.0,0.0,0.0
,,144741.780998,3.3805954456329346,0.0,0.0,0.0,0.0,0.0,0.0,0.0,0.0,0.0,0.0,0.0,0,1,2,3,4,5,6,7,8,9,736631.0,-0.87,-0.07,0.47,0.0,0.0,0.06,0.6,222.81,73.37,0.0,0.0,0.0,0.0,0.0,0.0,0.0,0.0,0.0,0.0,0.0,0.0,0.0,0.0,0.0,0.0,0.0,0.0,0.0,0.0,0.0,0.0
,,144741.800963,3.4005579948425293,0.0,0.0,0.0,0.0,0.0,0.0,0.0,0.0,0.0,0.0,0.0,0,1,2,3,4,5,6,7,8,9,736651.0,-0.87,-0.07,0.47,-0.06,-0.12,0.06,0.45,222.06,72.92,0.0,0.0,0.0,0.0,0.0,0.0,0.0,0.0,0.0,0.0,0.0,0.0,0.0,0.0,0.0,0.0,0.0,0.0,0.0,0.0,0.0,0.0
,,144741.82093,3.4205193519592285,0.0,0.0,0.0,0.0,0.0,0.0,0.0,0.0,0.0,0.0,0.0,0,1,2,3,4,5,6,7,8,9,736671.0,-0.86,-0.08,0.47,0.06,0.0,-0.06,0.15,222.36,71.87,0.0,0.0,0.0,0.0,0.0,0.0,0.0,0.0,0.0,0.0,0.0,0.0,0.0,0.0,0.0,0.0,0.0,0.0,0.0,0.0,0.0,0.0
,,144741.840919,3.440512180328369,0.0,0.0,0.0,0.0,0.0,0.0,0.0,0.0,0.0,0.0,0.0,0,1,2,3,4,5,6,7,8,9,736671.0,-0.86,-0.08,0.47,0.06,0.0,-0.06,0.15,222.36,71.87,0.0,0.0,0.0,0.0,0.0,0.0,0.0,0.0,0.0,0.0,0.0,0.0,0.0,0.0,0.0,0.0,0.0,0.0,0.0,0.0,0.0,0.0
,,144741.860973,3.46056866645813,0.0,0.0,0.0,0.0,0.0,0.0,0.0,0.0,0.0,0.0,0.0,0,1,2,3,4,5,6,7,8,9,736671.0,-0.86,-0.08,0.47,0.06,0.0,-0.06,0.15,222.36,71.87,0.0,0.0,0.0,0.0,0.0,0.0,0.0,0.0,0.0,0.0,0.0,0.0,0.0,0.0,0.0,0.0,0.0,0.0,0.0,0.0,0.0,0.0
,,144741.880968,3.480564594268799,0.0,0.0,0.0,0.0,0.0,0.0,0.0,0.0,0.0,0.0,0.0,0,1,2,3,4,5,6,7,8,9,736671.0,-0.86,-0.08,0.47,0.06,0.0,-0.06,0.15,222.36,71.87,0.0,0.0,0.0,0.0,0.0,0.0,0.0,0.0,0.0,0.0,0.0,0.0,0.0,0.0,0.0,0.0,0.0,0.0,0.0,0.0,0.0,0.0
,,144741.900953,3.500547170639038,0.0,0.0,0.0,0.0,0.0,0.0,0.0,0.0,0.0,0.0,0.0,0,1,2,3,4,5,6,7,8,9,736749.0,-0.86,-0.07,0.48,-0.06,-0.06,0.0,0.3,222.81,73.37,0.0,0.0,0.0,0.0,0.0,0.0,0.0,0.0,0.0,0.0,0.0,0.0,0.0,0.0,0.0,0.0,0.0,0.0,0.0,0.0,0.0,0.0
,,144741.920947,3.5205440521240234,0.0,0.0,0.0,0.0,0.0,0.0,0.0,0.0,0.0,0.0,0.0,0,1,2,3,4,5,6,7,8,9,736767.0,-0.86,-0.07,0.49,-0.06,-0.12,0.0,0.15,222.06,72.62,0.0,0.0,0.0,0.0,0.0,0.0,0.0,0.0,0.0,0.0,0.0,0.0,0.0,0.0,0.0,0.0,0.0,0.0,0.0,0.0,0.0,0.0
,,144741.940957,3.540553331375122,0.0,0.0,0.0,0.0,0.0,0.0,0.0,0.0,0.0,0.0,0.0,0,1,2,3,4,5,6,7,8,9,736791.0,-0.86,-0.09,0.48,0.06,-0.06,-0.12,-0.75,223.56,73.37,0.0,0.0,0.0,0.0,0.0,0.0,0.0,0.0,0.0,0.0,0.0,0.0,0.0,0.0,0.0,0.0,0.0,0.0,0.0,0.0,0.0,0.0
,,144741.960977,3.560575246810913,0.0,0.0,0.0,0.0,0.0,0.0,0.0,0.0,0.0,0.0,0.0,0,1,2,3,4,5,6,7,8,9,736811.0,-0.87,-0.08,0.48,0.0,0.0,-0.12,-0.3,222.36,73.22,0.0,0.0,0.0,0.0,0.0,0.0,0.0,0.0,0.0,0.0,0.0,0.0,0.0,0.0,0.0,0.0,0.0,0.0,0.0,0.0,0.0,0.0
,,144741.980949,3.5805435180664062,0.0,0.0,0.0,0.0,0.0,0.0,0.0,0.0,0.0,0.0,0.0,0,1,2,3,4,5,6,7,8,9,736831.0,-0.86,-0.07,0.48,0.0,0.0,0.0,0.45,221.31,71.57,0.0,0.0,0.0,0.0,0.0,0.0,0.0,0.0,0.0,0.0,0.0,0.0,0.0,0.0,0.0,0.0,0.0,0.0,0.0,0.0,0.0,0.0
,,144742.000991,3.60058856010437,0.0,0.0,0.0,0.0,0.0,0.0,0.0,0.0,0.0,0.0,0.0,0,1,2,3,4,5,6,7,8,9,736851.0,-0.87,-0.08,0.48,-0.06,-0.06,-0.12,-0.3,221.31,74.27,0.0,0.0,0.0,0.0,0.0,0.0,0.0,0.0,0.0,0.0,0.0,0.0,0.0,0.0,0.0,0.0,0.0,0.0,0.0,0.0,0.0,0.0
,,144742.020944,3.620535135269165,0.0,0.0,0.0,0.0,0.0,0.0,0.0,0.0,0.0,0.0,0.0,0,1,2,3,4,5,6,7,8,9,736871.0,-0.87,-0.08,0.48,-0.06,-0.12,0.0,1.2,221.01,73.97,0.0,0.0,0.0,0.0,0.0,0.0,0.0,0.0,0.0,0.0,0.0,0.0,0.0,0.0,0.0,0.0,0.0,0.0,0.0,0.0,0.0,0.0
,,144742.04099,3.6405937671661377,0.0,0.0,0.0,0.0,0.0,0.0,0.0,0.0,0.0,0.0,0.0,0,1,2,3,4,5,6,7,8,9,736891.0,-0.87,-0.08,0.47,-0.12,-0.06,0.0,1.8,222.36,73.67,0.0,0.0,0.0,0.0,0.0,0.0,0.0,0.0,0.0,0.0,0.0,0.0,0.0,0.0,0.0,0.0,0.0,0.0,0.0,0.0,0.0,0.0
,,144742.060951,3.6605446338653564,0.0,0.0,0.0,0.0,0.0,0.0,0.0,0.0,0.0,0.0,0.0,0,1,2,3,4,5,6,7,8,9,736911.0,-0.86,-0.06,0.48,0.0,0.0,0.0,-0.3,222.06,72.92,0.0,0.0,0.0,0.0,0.0,0.0,0.0,0.0,0.0,0.0,0.0,0.0,0.0,0.0,0.0,0.0,0.0,0.0,0.0,0.0,0.0,0.0
,,144742.080982,3.6805760860443115,0.0,0.0,0.0,0.0,0.0,0.0,0.0,0.0,0.0,0.0,0.0,0,1,2,3,4,5,6,7,8,9,736931.0,-0.87,-0.07,0.5,0.0,0.0,-0.06,-0.45,223.26,73.37,0.0,0.0,0.0,0.0,0.0,0.0,0.0,0.0,0.0,0.0,0.0,0.0,0.0,0.0,0.0,0.0,0.0,0.0,0.0,0.0,0.0,0.0
,,144742.100918,3.7005093097686768,0.0,0.0,0.0,0.0,0.0,0.0,0.0,0.0,0.0,0.0,0.0,0,1,2,3,4,5,6,7,8,9,736951.0,-0.86,-0.07,0.48,-0.12,-0.06,-0.06,-1.5,221.46,73.82,0.0,0.0,0.0,0.0,0.0,0.0,0.0,0.0,0.0,0.0,0.0,0.0,0.0,0.0,0.0,0.0,0.0,0.0,0.0,0.0,0.0,0.0
,,144742.120907,3.720496892929077,0.0,0.0,0.0,0.0,0.0,0.0,0.0,0.0,0.0,0.0,0.0,0,1,2,3,4,5,6,7,8,9,736951.0,-0.86,-0.07,0.48,-0.12,-0.06,-0.06,-1.5,221.46,73.82,0.0,0.0,0.0,0.0,0.0,0.0,0.0,0.0,0.0,0.0,0.0,0.0,0.0,0.0,0.0,0.0,0.0,0.0,0.0,0.0,0.0,0.0
,,144742.141003,3.7405989170074463,0.0,0.0,0.0,0.0,0.0,0.0,0.0,0.0,0.0,0.0,0.0,0,1,2,3,4,5,6,7,8,9,736951.0,-0.86,-0.07,0.48,-0.12,-0.06,-0.06,-1.5,221.46,73.82,0.0,0.0,0.0,0.0,0.0,0.0,0.0,0.0,0.0,0.0,0.0,0.0,0.0,0.0,0.0,0.0,0.0,0.0,0.0,0.0,0.0,0.0
,,144742.16094,3.760535478591919,0.0,0.0,0.0,0.0,0.0,0.0,0.0,0.0,0.0,0.0,0.0,0,1,2,3,4,5,6,7,8,9,736951.0,-0.86,-0.07,0.48,-0.12,-0.06,-0.06,-1.5,221.46,73.82,0.0,0.0,0.0,0.0,0.0,0.0,0.0,0.0,0.0,0.0,0.0,0.0,0.0,0.0,0.0,0.0,0.0,0.0,0.0,0.0,0.0,0.0
,,144742.180992,3.780587673187256,0.0,0.0,0.0,0.0,0.0,0.0,0.0,0.0,0.0,0.0,0.0,0,1,2,3,4,5,6,7,8,9,737030.0,-0.87,-0.08,0.47,-0.06,-0.06,0.0,1.8,222.36,74.27,0.0,0.0,0.0,0.0,0.0,0.0,0.0,0.0,0.0,0.0,0.0,0.0,0.0,0.0,0.0,0.0,0.0,0.0,0.0,0.0,0.0,0.0
,,144742.200986,3.800581216812134,0.0,0.0,0.0,0.0,0.0,0.0,0.0,0.0,0.0,0.0,0.0,0,1,2,3,4,5,6,7,8,9,737047.0,-0.86,-0.07,0.46,-0.06,-0.12,0.0,0.3,223.86,73.07,0.0,0.0,0.0,0.0,0.0,0.0,0.0,0.0,0.0,0.0,0.0,0.0,0.0,0.0,0.0,0.0,0.0,0.0,0.0,0.0,0.0,0.0
,,144742.22098,3.820575714111328,0.0,0.0,0.0,0.0,0.0,0.0,0.0,0.0,0.0,0.0,0.0,0,1,2,3,4,5,6,7,8,9,737071.0,-0.87,-0.07,0.48,0.0,0.0,0.12,0.0,222.21,72.77,0.0,0.0,0.0,0.0,0.0,0.0,0.0,0.0,0.0,0.0,0.0,0.0,0.0,0.0,0.0,0.0,0.0,0.0,0.0,0.0,0.0,0.0
,,144742.240908,3.8404977321624756,0.0,0.0,0.0,0.0,0.0,0.0,0.0,0.0,0.0,0.0,0.0,0,1,2,3,4,5,6,7,8,9,737091.0,-0.86,-0.08,0.49,-0.06,-0.06,0.0,2.1,221.16,72.77,0.0,0.0,0.0,0.0,0.0,0.0,0.0,0.0,0.0,0.0,0.0,0.0,0.0,0.0,0.0,0.0,0.0,0.0,0.0,0.0,0.0,0.0
,,144742.260916,3.860504627227783,0.0,0.0,0.0,0.0,0.0,0.0,0.0,0.0,0.0,0.0,0.0,0,1,2,3,4,5,6,7,8,9,737111.0,-0.86,-0.08,0.47,0.06,0.0,-0.06,0.15,222.66,71.57,0.0,0.0,0.0,0.0,0.0,0.0,0.0,0.0,0.0,0.0,0.0,0.0,0.0,0.0,0.0,0.0,0.0,0.0,0.0,0.0,0.0,0.0
,,144742.280933,3.880537748336792,0.0,0.0,0.0,0.0,0.0,0.0,0.0,0.0,0.0,0.0,0.0,0,1,2,3,4,5,6,7,8,9,737132.0,-0.87,-0.08,0.47,-0.06,0.0,0.0,-0.6,221.61,73.97,0.0,0.0,0.0,0.0,0.0,0.0,0.0,0.0,0.0,0.0,0.0,0.0,0.0,0.0,0.0,0.0,0.0,0.0,0.0,0.0,0.0,0.0
,,144742.300916,3.900517463684082,0.0,0.0,0.0,0.0,0.0,0.0,0.0,0.0,0.0,0.0,0.0,0,1,2,3,4,5,6,7,8,9,737151.0,-0.87,-0.07,0.47,0.0,0.0,-0.06,-0.6,221.01,73.67,0.0,0.0,0.0,0.0,0.0,0.0,0.0,0.0,0.0,0.0,0.0,0.0,0.0,0.0,0.0,0.0,0.0,0.0,0.0,0.0,0.0,0.0
,,144742.320875,3.920464038848877,0.0,0.0,0.0,0.0,0.0,0.0,0.0,0.0,0.0,0.0,0.0,0,1,2,3,4,5,6,7,8,9,737171.0,-0.86,-0.07,0.46,0.0,0.0,-0.06,0.15,221.31,72.92,0.0,0.0,0.0,0.0,0.0,0.0,0.0,0.0,0.0,0.0,0.0,0.0,0.0,0.0,0.0,0.0,0.0,0.0,0.0,0.0,0.0,0.0
,,144742.340942,3.940535068511963,0.0,0.0,0.0,0.0,0.0,0.0,0.0,0.0,0.0,0.0,0.0,0,1,2,3,4,5,6,7,8,9,737191.0,-0.86,-0.08,0.47,-0.12,-0.06,-0.06,-0.6,221.01,73.97,0.0,0.0,0.0,0.0,0.0,0.0,0.0,0.0,0.0,0.0,0.0,0.0,0.0,0.0,0.0,0.0,0.0,0.0,0.0,0.0,0.0,0.0
,,144742.360941,3.9605348110198975,0.0,0.0,0.0,0.0,0.0,0.0,0.0,0.0,0.0,0.0,0.0,0,1,2,3,4,5,6,7,8,9,737211.0,-0.87,-0.08,0.48,0.0,0.06,-0.06,-0.6,222.36,75.02,0.0,0.0,0.0,0.0,0.0,0.0,0.0,0.0,0.0,0.0,0.0,0.0,0.0,0.0,0.0,0.0,0.0,0.0,0.0,0.0,0.0,0.0
,,144742.380942,3.9805350303649902,0.0,0.0,0.0,0.0,0.0,0.0,0.0,0.0,0.0,0.0,0.0,0,1,2,3,4,5,6,7,8,9,737231.0,-0.87,-0.07,0.48,0.0,0.0,0.0,0.45,222.06,72.92,0.0,0.0,0.0,0.0,0.0,0.0,0.0,0.0,0.0,0.0,0.0,0.0,0.0,0.0,0.0,0.0,0.0,0.0,0.0,0.0,0.0,0.0
,,144742.400981,4.0005762577056885,0.0,0.0,0.0,0.0,0.0,0.0,0.0,0.0,0.0,0.0,0.0,0,1,2,3,4,5,6,7,8,9,737231.0,-0.87,-0.07,0.48,0.0,0.0,0.0,0.45,222.06,72.92,0.0,0.0,0.0,0.0,0.0,0.0,0.0,0.0,0.0,0.0,0.0,0.0,0.0,0.0,0.0,0.0,0.0,0.0,0.0,0.0,0.0,0.0
,,144742.420981,4.020580530166626,0.0,0.0,0.0,0.0,0.0,0.0,0.0,0.0,0.0,0.0,0.0,0,1,2,3,4,5,6,7,8,9,737231.0,-0.87,-0.07,0.48,0.0,0.0,0.0,0.45,222.06,72.92,0.0,0.0,0.0,0.0,0.0,0.0,0.0,0.0,0.0,0.0,0.0,0.0,0.0,0.0,0.0,0.0,0.0,0.0,0.0,0.0,0.0,0.0
,,144742.440967,4.040579080581665,0.0,0.0,0.0,0.0,0.0,0.0,0.0,0.0,0.0,0.0,0.0,0,1,2,3,4,5,6,7,8,9,737231.0,-0.87,-0.07,0.48,0.0,0.0,0.0,0.45,222.06,72.92,0.0,0.0,0.0,0.0,0.0,0.0,0.0,0.0,0.0,0.0,0.0,0.0,0.0,0.0,0.0,0.0,0.0,0.0,0.0,0.0,0.0,0.0
,,144742.460949,4.060540199279785,0.0,0.0,0.0,0.0,0.0,0.0,0.0,0.0,0.0,0.0,0.0,0,1,2,3,4,5,6,7,8,9,737309.0,-0.86,-0.08,0.46,0.06,0.06,-0.06,0.15,222.36,72.92,0.0,0.0,0.0,0.0,0.0,0.0,0.0,0.0,0.0,0.0,0.0,0.0,0.0,0.0,0.0,0.0,0.0,0.0,0.0,0.0,0.0,0.0
,,144742.480945,4.080536842346191,0.0,0.0,0.0,0.0,0.0,0.0,0.0,0.0,0.0,0.0,0.0,0,1,2,3,4,5,6,7,8,9,737326.0,-0.87,-0.07,0.48,-0.06,-0.06,-0.06,-1.2,222.21,73.07,0.0,0.0,0.0,0.0,0.0,0.0,0.0,0.0,0.0,0.0,0.0,0.0,0.0,0.0,0.0,0.0,0.0,0.0,0.0,0.0,0.0,0.0
,,144742.500961,4.100556373596191,0.0,0.0,0.0,0.0,0.0,0.0,0.0,0.0,0.0,0.0,0.0,0,1,2,3,4,5,6,7,8,9,737351.0,-0.86,-0.07,0.47,-0.06,-0.12,0.06,0.15,223.41,73.67,0.0,0.0,0.0,0.0,0.0,0.0,0.0,0.0,0.0,0.0,0.0,0.0,0.0,0.0,0.0,0.0,0.0,0.0,0.0,0.0,0.0,0.0
,,144742.520963,4.120556354522705,0.0,0.0,0.0,0.0,0.0,0.0,0.0,0.0,0.0,0.0,0.0,0,1,2,3,4,5,6,7,8,9,737371.0,-0.87,-0.08,0.48,-0.06,-0.06,0.06,-0.9,220.56,73.67,0.0,0.0,0.0,0.0,0.0,0.0,0.0,0.0,0.0,0.0,0.0,0.0,0.0,0.0,0.0,0.0,0.0,0.0,0.0,0.0,0.0,0.0
,,144742.540896,4.140486478805542,0.0,0.0,0.0,0.0,0.0,0.0,0.0,0.0,0.0,0.0,0.0,0,1,2,3,4,5,6,7,8,9,737391.0,-0.87,-0.08,0.48,-0.06,-0.06,0.0,0.3,222.51,73.07,0.0,0.0,0.0,0.0,0.0,0.0,0.0,0.0,0.0,0.0,0.0,0.0,0.0,0.0,0.0,0.0,0.0,0.0,0.0,0.0,0.0,0.0
,,144742.560914,4.160503149032593,0.0,0.0,0.0,0.0,0.0,0.0,0.0,0.0,0.0,0.0,0.0,0,1,2,3,4,5,6,7,8,9,737411.0,-0.88,-0.08,0.48,-0.06,-0.06,-0.06,-0.3,222.06,73.97,0.0,0.0,0.0,0.0,0.0,0.0,0.0,0.0,0.0,0.0,0.0,0.0,0.0,0.0,0.0,0.0,0.0,0.0,0.0,0.0,0.0,0.0
,,144742.580942,4.180552959442139,0.0,0.0,0.0,0.0,0.0,0.0,0.0,0.0,0.0,0.0,0.0,0,1,2,3,4,5,6,7,8,9,737431.0,-0.87,-0.08,0.48,0.0,0.06,0.06,0.15,221.61,72.62,0.0,0.0,0.0,0.0,0.0,0.0,0.0,0.0,0.0,0.0,0.0,0.0,0.0,0.0,0.0,0.0,0.0,0.0,0.0,0.0,0.0,0.0
,,144742.600945,4.200540065765381,0.0,0.0,0.0,0.0,0.0,0.0,0.0,0.0,0.0,0.0,0.0,0,1,2,3,4,5,6,7,8,9,737451.0,-0.87,-0.08,0.48,-0.06,-0.12,0.06,0.45,221.61,72.32,0.0,0.0,0.0,0.0,0.0,0.0,0.0,0.0,0.0,0.0,0.0,0.0,0.0,0.0,0.0,0.0,0.0,0.0,0.0,0.0,0.0,0.0
,,144742.620934,4.220529079437256,0.0,0.0,0.0,0.0,0.0,0.0,0.0,0.0,0.0,0.0,0.0,0,1,2,3,4,5,6,7,8,9,737471.0,-0.86,-0.08,0.47,0.0,-0.12,0.06,1.5,222.66,71.87,0.0,0.0,0.0,0.0,0.0,0.0,0.0,0.0,0.0,0.0,0.0,0.0,0.0,0.0,0.0,0.0,0.0,0.0,0.0,0.0,0.0,0.0
,,144742.640944,4.240550994873047,0.0,0.0,0.0,0.0,0.0,0.0,0.0,0.0,0.0,0.0,0.0,0,1,2,3,4,5,6,7,8,9,737491.0,-0.88,-0.08,0.48,0.0,0.0,0.12,-0.6,220.56,72.32,0.0,0.0,0.0,0.0,0.0,0.0,0.0,0.0,0.0,0.0,0.0,0.0,0.0,0.0,0.0,0.0,0.0,0.0,0.0,0.0,0.0,0.0
,,144742.660963,4.260556936264038,0.0,0.0,0.0,0.0,0.0,0.0,0.0,0.0,0.0,0.0,0.0,0,1,2,3,4,5,6,7,8,9,737512.0,-0.88,-0.07,0.47,-0.06,-0.12,0.06,0.6,222.51,74.12,0.0,0.0,0.0,0.0,0.0,0.0,0.0,0.0,0.0,0.0,0.0,0.0,0.0,0.0,0.0,0.0,0.0,0.0,0.0,0.0,0.0,0.0
,,144742.680873,4.2804718017578125,0.0,0.0,0.0,0.0,0.0,0.0,0.0,0.0,0.0,0.0,0.0,0,1,2,3,4,5,6,7,8,9,737512.0,-0.88,-0.07,0.47,-0.06,-0.12,0.06,0.6,222.51,74.12,0.0,0.0,0.0,0.0,0.0,0.0,0.0,0.0,0.0,0.0,0.0,0.0,0.0,0.0,0.0,0.0,0.0,0.0,0.0,0.0,0.0,0.0
,,144742.700929,4.300524950027466,0.0,0.0,0.0,0.0,0.0,0.0,0.0,0.0,0.0,0.0,0.0,0,1,2,3,4,5,6,7,8,9,737512.0,-0.88,-0.07,0.47,-0.06,-0.12,0.06,0.6,222.51,74.12,0.0,0.0,0.0,0.0,0.0,0.0,0.0,0.0,0.0,0.0,0.0,0.0,0.0,0.0,0.0,0.0,0.0,0.0,0.0,0.0,0.0,0.0
,,144742.720985,4.320585489273071,0.0,0.0,0.0,0.0,0.0,0.0,0.0,0.0,0.0,0.0,0.0,0,1,2,3,4,5,6,7,8,9,737512.0,-0.88,-0.07,0.47,-0.06,-0.12,0.06,0.6,222.51,74.12,0.0,0.0,0.0,0.0,0.0,0.0,0.0,0.0,0.0,0.0,0.0,0.0,0.0,0.0,0.0,0.0,0.0,0.0,0.0,0.0,0.0,0.0
,,144742.740997,4.34061598777771,0.0,0.0,0.0,0.0,0.0,0.0,0.0,0.0,0.0,0.0,0.0,0,1,2,3,4,5,6,7,8,9,737591.0,-0.86,-0.08,0.48,0.0,0.0,0.0,2.4,222.81,73.37,0.0,0.0,0.0,0.0,0.0,0.0,0.0,0.0,0.0,0.0,0.0,0.0,0.0,0.0,0.0,0.0,0.0,0.0,0.0,0.0,0.0,0.0
,,144742.760944,4.360539436340332,0.0,0.0,0.0,0.0,0.0,0.0,0.0,0.0,0.0,0.0,0.0,0,1,2,3,4,5,6,7,8,9,737608.0,-0.88,-0.08,0.47,0.0,-0.06,0.0,0.75,221.01,74.27,0.0,0.0,0.0,0.0,0.0,0.0,0.0,0.0,0.0,0.0,0.0,0.0,0.0,0.0,0.0,0.0,0.0,0.0,0.0,0.0,0.0,0.0
,,144742.780949,4.380552530288696,0.0,0.0,0.0,0.0,0.0,0.0,0.0,0.0,0.0,0.0,0.0,0,1,2,3,4,5,6,7,8,9,737631.0,-0.87,-0.07,0.47,-0.12,-0.12,0.06,0.3,221.16,74.42,0.0,0.0,0.0,0.0,0.0,0.0,0.0,0.0,0.0,0.0,0.0,0.0,0.0,0.0,0.0,0.0,0.0,0.0,0.0,0.0,0.0,0.0
,,144742.800975,4.400571584701538,0.0,0.0,0.0,0.0,0.0,0.0,0.0,0.0,0.0,0.0,0.0,0,1,2,3,4,5,6,7,8,9,737651.0,-0.87,-0.07,0.49,-0.06,-0.06,-0.06,-1.5,220.71,73.37,0.0,0.0,0.0,0.0,0.0,0.0,0.0,0.0,0.0,0.0,0.0,0.0,0.0,0.0,0.0,0.0,0.0,0.0,0.0,0.0,0.0,0.0
,,144742.820948,4.420551776885986,0.0,0.0,0.0,0.0,0.0,0.0,0.0,0.0,0.0,0.0,0.0,0,1,2,3,4,5,6,7,8,9,737671.0,-0.87,-0.08,0.47,0.12,0.06,0.0,0.6,222.51,73.82,0.0,0.0,0.0,0.0,0.0,0.0,0.0,0.0,0.0,0.0,0.0,0.0,0.0,0.0,0.0,0.0,0.0,0.0,0.0,0.0,0.0,0.0
,,144742.840943,4.4405412673950195,0.0,0.0,0.0,0.0,0.0,0.0,0.0,0.0,0.0,0.0,0.0,0,1,2,3,4,5,6,7,8,9,737691.0,-0.86,-0.07,0.48,-0.12,-0.18,0.0,0.75,222.66,73.67,0.0,0.0,0.0,0.0,0.0,0.0,0.0,0.0,0.0,0.0,0.0,0.0,0.0,0.0,0.0,0.0,0.0,0.0,0.0,0.0,0.0,0.0
,,144742.860947,4.460540771484375,0.0,0.0,0.0,0.0,0.0,0.0,0.0,0.0,0.0,0.0,0.0,0,1,2,3,4,5,6,7,8,9,737711.0,-0.87,-0.07,0.47,0.0,-0.12,0.0,-0.75,222.81,72.77,0.0,0.0,0.0,0.0,0.0,0.0,0.0,0.0,0.0,0.0,0.0,0.0,0.0,0.0,0.0,0.0,0.0,0.0,0.0,0.0,0.0,0.0
,,144742.880944,4.480541229248047,0.0,0.0,0.0,0.0,0.0,0.0,0.0,0.0,0.0,0.0,0.0,0,1,2,3,4,5,6,7,8,9,737731.0,-0.87,-0.07,0.48,0.0,0.0,0.06,1.05,220.71,74.72,0.0,0.0,0.0,0.0,0.0,0.0,0.0,0.0,0.0,0.0,0.0,0.0,0.0,0.0,0.0,0.0,0.0,0.0,0.0,0.0,0.0,0.0
,,144742.900995,4.500591993331909,0.0,0.0,0.0,0.0,0.0,0.0,0.0,0.0,0.0,0.0,0.0,0,1,2,3,4,5,6,7,8,9,737751.0,-0.86,-0.07,0.48,0.0,-0.12,0.0,-0.6,222.06,72.62,0.0,0.0,0.0,0.0,0.0,0.0,0.0,0.0,0.0,0.0,0.0,0.0,0.0,0.0,0.0,0.0,0.0,0.0,0.0,0.0,0.0,0.0
,,144742.920943,4.520541191101074,0.0,0.0,0.0,0.0,0.0,0.0,0.0,0.0,0.0,0.0,0.0,0,1,2,3,4,5,6,7,8,9,737772.0,-0.87,-0.07,0.47,0.0,-0.12,-0.06,0.15,221.61,71.87,0.0,0.0,0.0,0.0,0.0,0.0,0.0,0.0,0.0,0.0,0.0,0.0,0.0,0.0,0.0,0.0,0.0,0.0,0.0,0.0,0.0,0.0
,,144742.940945,4.540539026260376,0.0,0.0,0.0,0.0,0.0,0.0,0.0,0.0,0.0,0.0,0.0,0,1,2,3,4,5,6,7,8,9,737792.0,-0.87,-0.08,0.49,0.06,0.0,-0.06,0.15,223.11,72.62,0.0,0.0,0.0,0.0,0.0,0.0,0.0,0.0,0.0,0.0,0.0,0.0,0.0,0.0,0.0,0.0,0.0,0.0,0.0,0.0,0.0,0.0
,,144742.960903,4.560497999191284,0.0,0.0,0.0,0.0,0.0,0.0,0.0,0.0,0.0,0.0,0.0,0,1,2,3,4,5,6,7,8,9,737792.0,-0.87,-0.08,0.49,0.06,0.0,-0.06,0.15,223.11,72.62,0.0,0.0,0.0,0.0,0.0,0.0,0.0,0.0,0.0,0.0,0.0,0.0,0.0,0.0,0.0,0.0,0.0,0.0,0.0,0.0,0.0,0.0
,,144742.980915,4.580508470535278,0.0,0.0,0.0,0.0,0.0,0.0,0.0,0.0,0.0,0.0,0.0,0,1,2,3,4,5,6,7,8,9,737792.0,-0.87,-0.08,0.49,0.06,0.0,-0.06,0.15,223.11,72.62,0.0,0.0,0.0,0.0,0.0,0.0,0.0,0.0,0.0,0.0,0.0,0.0,0.0,0.0,0.0,0.0,0.0,0.0,0.0,0.0,0.0,0.0
,,144743.001021,4.600622177124023,0.0,0.0,0.0,0.0,0.0,0.0,0.0,0.0,0.0,0.0,0.0,0,1,2,3,4,5,6,7,8,9,737792.0,-0.87,-0.08,0.49,0.06,0.0,-0.06,0.15,223.11,72.62,0.0,0.0,0.0,0.0,0.0,0.0,0.0,0.0,0.0,0.0,0.0,0.0,0.0,0.0,0.0,0.0,0.0,0.0,0.0,0.0,0.0,0.0
,,144743.020928,4.620522975921631,0.0,0.0,0.0,0.0,0.0,0.0,0.0,0.0,0.0,0.0,0.0,0,1,2,3,4,5,6,7,8,9,737871.0,-0.86,-0.07,0.47,-0.06,-0.12,-0.06,2.1,223.56,75.17,0.0,0.0,0.0,0.0,0.0,0.0,0.0,0.0,0.0,0.0,0.0,0.0,0.0,0.0,0.0,0.0,0.0,0.0,0.0,0.0,0.0,0.0
,,144743.040929,4.640523910522461,0.0,0.0,0.0,0.0,0.0,0.0,0.0,0.0,0.0,0.0,0.0,0,1,2,3,4,5,6,7,8,9,737888.0,-0.87,-0.08,0.48,0.0,-0.12,0.06,-0.9,222.36,73.67,0.0,0.0,0.0,0.0,0.0,0.0,0.0,0.0,0.0,0.0,0.0,0.0,0.0,0.0,0.0,0.0,0.0,0.0,0.0,0.0,0.0,0.0
,,144743.060972,4.660566329956055,0.0,0.0,0.0,0.0,0.0,0.0,0.0,0.0,0.0,0.0,0.0,0,1,2,3,4,5,6,7,8,9,737912.0,-0.87,-0.08,0.47,0.0,0.0,0.0,0.45,223.71,73.22,0.0,0.0,0.0,0.0,0.0,0.0,0.0,0.0,0.0,0.0,0.0,0.0,0.0,0.0,0.0,0.0,0.0,0.0,0.0,0.0,0.0,0.0
,,144743.080941,4.680530548095703,0.0,0.0,0.0,0.0,0.0,0.0,0.0,0.0,0.0,0.0,0.0,0,1,2,3,4,5,6,7,8,9,737931.0,-0.87,-0.08,0.48,-0.18,-0.06,0.0,0.6,221.46,73.37,0.0,0.0,0.0,0.0,0.0,0.0,0.0,0.0,0.0,0.0,0.0,0.0,0.0,0.0,0.0,0.0,0.0,0.0,0.0,0.0,0.0,0.0
,,144743.100941,4.700535297393799,0.0,0.0,0.0,0.0,0.0,0.0,0.0,0.0,0.0,0.0,0.0,0,1,2,3,4,5,6,7,8,9,737951.0,-0.87,-0.08,0.49,-0.12,-0.06,0.0,1.05,223.56,73.82,0.0,0.0,0.0,0.0,0.0,0.0,0.0,0.0,0.0,0.0,0.0,0.0,0.0,0.0,0.0,0.0,0.0,0.0,0.0,0.0,0.0,0.0
,,144743.12092,4.720514297485352,0.0,0.0,0.0,0.0,0.0,0.0,0.0,0.0,0.0,0.0,0.0,0,1,2,3,4,5,6,7,8,9,737971.0,-0.87,-0.08,0.48,0.0,0.06,-0.06,1.05,223.26,72.77,0.0,0.0,0.0,0.0,0.0,0.0,0.0,0.0,0.0,0.0,0.0,0.0,0.0,0.0,0.0,0.0,0.0,0.0,0.0,0.0,0.0,0.0
,,144743.140955,4.74055027961731,0.0,0.0,0.0,0.0,0.0,0.0,0.0,0.0,0.0,0.0,0.0,0,1,2,3,4,5,6,7,8,9,737991.0,-0.87,-0.08,0.48,-0.12,-0.06,0.0,1.35,222.81,74.42,0.0,0.0,0.0,0.0,0.0,0.0,0.0,0.0,0.0,0.0,0.0,0.0,0.0,0.0,0.0,0.0,0.0,0.0,0.0,0.0,0.0,0.0
