name,date,time,time_since_start,vicon_sequence,vicon_time_stamp,vicon_frame_id,vicon_child_frame_id,vicon_translation_x,vicon_translation_y,vicon_translation_z,vicon_rotation_x,vicon_rotation_y,vicon_rotation_z,vicon_rotation_w,int_imu_time_stamp,int_imu_acc_x,int_imu_acc_y,int_imu_acc_z,int_imu_gyro_x,int_imu_gyro_y,int_imu_gyro_z,int_imu_mag_x,int_imu_mag_y,int_imu_mag_z,ext_imu_time_stamp,ext_imu_acc_x,ext_imu_acc_y,ext_imu_acc_z,ext_imu_gyro_x,ext_imu_gyro_y,ext_imu_gyro_z,ext_imu_mag_x,ext_imu_mag_y,ext_imu_mag_z,dji_imu_sequence,dji_imu_time_stamp,dji_imu_frame_id,dji_imu_orientation_x,dji_imu_orientation_y,dji_imu_orientation_z,dji_imu_orientation_w,dji_imu_ang_vel_x,dji_imu_ang_vel_y,dji_imu_ang_vel_z,dji_imu_lin_acc_x,dji_imu_lin_acc_y,dji_imu_lin_acc_z,rc_sequence,rc_time_stamp,rc_frame_id,rc_roll,rc_pitch,rc_yaw,rc_throttle,rc_mode,rc_landing_gear
/home/wc18ny/Desktop/VibrationTest/test.csv,20201020,93229.370514,2.09808349609375e-05,0.0,0.0,0.0,0.0,0.0,0.0,0.0,0.0,0.0,0.0,0.0,2592126.0,0.0,-0.01,-1.01,-0.06,0.0,-0.06,-0.75,49.51,-39.01,2592134.0,-0.01,-0.01,-1.01,0.06,-0.06,0.0,-2.25,50.56,-38.41,0.0,0.0,0.0,0.0,0.0,0.0,0.0,0.0,0.0,0.0,0.0,0.0,0.0,0.0,0.0,0.0,0.0,0.0,0.0,0.0,0.0,0.0
,,93229.372441,0.0019440650939941406,0.0,0.0,0.0,0.0,0.0,0.0,0.0,0.0,0.0,0.0,0.0,2592143.0,0.0,-0.0,-1.01,-0.06,0.0,-0.12,-3.3,51.31,-39.76,2592151.0,-0.0,0.0,-1.0,-0.06,-0.06,-0.12,-3.9,50.86,-39.31,0.0,0.0,0.0,0.0,0.0,0.0,0.0,0.0,0.0,0.0,0.0,0.0,0.0,0.0,0.0,0.0,0.0,0.0,0.0,0.0,0.0,0.0
,,93229.392779,0.022286415100097656,0.0,0.0,0.0,0.0,0.0,0.0,0.0,0.0,0.0,0.0,0.0,2592160.0,-0.01,-0.0,-1.01,0.0,0.0,-0.06,-1.65,50.41,-37.81,2592168.0,0.0,-0.0,-1.01,0.0,0.0,-0.06,-3.6,50.41,-37.81,0.0,0.0,0.0,0.0,0.0,0.0,0.0,0.0,0.0,0.0,0.0,0.0,0.0,0.0,0.0,0.0,0.0,0.0,0.0,0.0,0.0,0.0
,,93229.413592,0.04310154914855957,0.0,0.0,0.0,0.0,0.0,0.0,0.0,0.0,0.0,0.0,0.0,2592211.0,0.0,0.0,-1.0,-0.06,-0.12,0.12,0.15,51.16,-36.76,2592219.0,-0.0,-0.0,-1.0,-0.06,-0.12,0.0,-3.0,51.76,-38.26,0.0,0.0,0.0,0.0,0.0,0.0,0.0,0.0,0.0,0.0,0.0,0.0,0.0,0.0,0.0,0.0,0.0,0.0,0.0,0.0,0.0,0.0
,,93229.432906,0.06242537498474121,0.0,0.0,0.0,0.0,0.0,0.0,0.0,0.0,0.0,0.0,0.0,2592228.0,-0.0,-0.0,-1.0,-0.06,-0.06,0.0,-3.0,51.76,-38.26,2592236.0,-0.0,0.0,-1.01,-0.12,-0.12,-0.06,-3.6,51.61,-39.31,0.0,0.0,0.0,0.0,0.0,0.0,0.0,0.0,0.0,0.0,0.0,0.0,0.0,0.0,0.0,0.0,0.0,0.0,0.0,0.0,0.0,0.0
,,93229.455973,0.08552312850952148,0.0,0.0,0.0,0.0,0.0,0.0,0.0,0.0,0.0,0.0,0.0,2592245.0,-0.0,-0.01,-1.01,-0.06,-0.06,-0.12,-1.95,49.66,-38.86,2592254.0,0.0,0.0,-1.01,0.24,0.0,-0.06,-1.8,49.81,-39.31,0.0,0.0,0.0,0.0,0.0,0.0,0.0,0.0,0.0,0.0,0.0,0.0,0.0,0.0,0.0,0.0,0.0,0.0,0.0,0.0,0.0,0.0
,,93229.476706,0.10625457763671875,0.0,0.0,0.0,0.0,0.0,0.0,0.0,0.0,0.0,0.0,0.0,2592262.0,0.0,0.0,-1.0,-0.06,-0.06,0.06,-2.7,50.41,-38.86,2592271.0,-0.0,-0.0,-1.0,0.0,-0.06,-0.18,-3.9,48.76,-39.01,0.0,0.0,0.0,0.0,0.0,0.0,0.0,0.0,0.0,0.0,0.0,0.0,0.0,0.0,0.0,0.0,0.0,0.0,0.0,0.0,0.0,0.0
,,93229.494375,0.12391519546508789,0.0,0.0,0.0,0.0,0.0,0.0,0.0,0.0,0.0,0.0,0.0,2592280.0,0.0,-0.0,-1.01,-0.06,-0.06,0.0,-2.25,49.21,-38.71,2592288.0,-0.01,-0.0,-1.01,0.0,0.06,-0.06,-2.25,49.21,-38.71,0.0,0.0,0.0,0.0,0.0,0.0,0.0,0.0,0.0,0.0,0.0,0.0,0.0,0.0,0.0,0.0,0.0,0.0,0.0,0.0,0.0,0.0
,,93229.514619,0.14414715766906738,0.0,0.0,0.0,0.0,0.0,0.0,0.0,0.0,0.0,0.0,0.0,2592297.0,0.0,-0.0,-1.02,-0.06,-0.06,-0.12,-3.0,51.16,-39.61,2592305.0,0.0,-0.01,-1.0,-0.06,-0.06,0.06,-2.25,49.81,-38.41,0.0,0.0,0.0,0.0,0.0,0.0,0.0,0.0,0.0,0.0,0.0,0.0,0.0,0.0,0.0,0.0,0.0,0.0,0.0,0.0,0.0,0.0
,,93229.535397,0.16492342948913574,0.0,0.0,0.0,0.0,0.0,0.0,0.0,0.0,0.0,0.0,0.0,2592314.0,-0.0,-0.0,-1.02,0.0,0.0,0.12,-3.45,48.91,-38.86,2592322.0,0.0,0.01,-1.02,0.0,0.0,0.0,-1.65,50.41,-38.56,0.0,0.0,0.0,0.0,0.0,0.0,0.0,0.0,0.0,0.0,0.0,0.0,0.0,0.0,0.0,0.0,0.0,0.0,0.0,0.0,0.0,0.0
,,93229.554932,0.18445897102355957,0.0,0.0,0.0,0.0,0.0,0.0,0.0,0.0,0.0,0.0,0.0,2592366.0,-0.0,0.0,-1.01,0.06,0.0,0.06,-0.6,50.71,-38.26,2592374.0,-0.0,0.0,-1.01,-0.12,-0.12,-0.06,-1.95,51.46,-36.76,0.0,0.0,0.0,0.0,0.0,0.0,0.0,0.0,0.0,0.0,0.0,0.0,0.0,0.0,0.0,0.0,0.0,0.0,0.0,0.0,0.0,0.0
,,93229.575777,0.20531415939331055,0.0,0.0,0.0,0.0,0.0,0.0,0.0,0.0,0.0,0.0,0.0,2592383.0,0.01,-0.0,-1.0,0.0,0.0,-0.06,-1.65,51.46,-39.16,2592391.0,0.0,-0.0,-1.02,0.06,0.0,0.0,-2.25,50.56,-39.01,0.0,0.0,0.0,0.0,0.0,0.0,0.0,0.0,0.0,0.0,0.0,0.0,0.0,0.0,0.0,0.0,0.0,0.0,0.0,0.0,0.0,0.0
,,93229.595665,0.22521138191223145,0.0,0.0,0.0,0.0,0.0,0.0,0.0,0.0,0.0,0.0,0.0,2592400.0,0.0,-0.0,-1.01,0.06,0.0,0.0,-3.0,50.71,-37.51,2592408.0,0.0,-0.0,-1.01,0.06,0.0,-0.06,-3.0,50.71,-37.51,0.0,0.0,0.0,0.0,0.0,0.0,0.0,0.0,0.0,0.0,0.0,0.0,0.0,0.0,0.0,0.0,0.0,0.0,0.0,0.0,0.0,0.0
,,93229.61572,0.2452526092529297,0.0,0.0,0.0,0.0,0.0,0.0,0.0,0.0,0.0,0.0,0.0,2592416.0,0.0,-0.01,-1.0,-0.06,-0.06,0.06,-1.65,49.66,-38.56,2592425.0,0.0,-0.0,-1.01,-0.06,-0.06,0.0,-2.55,50.56,-38.71,0.0,0.0,0.0,0.0,0.0,0.0,0.0,0.0,0.0,0.0,0.0,0.0,0.0,0.0,0.0,0.0,0.0,0.0,0.0,0.0,0.0,0.0
,,93229.636109,0.26565003395080566,0.0,0.0,0.0,0.0,0.0,0.0,0.0,0.0,0.0,0.0,0.0,2592434.0,0.0,-0.01,-1.01,0.06,0.0,0.0,-3.3,51.31,-39.01,2592442.0,0.01,-0.0,-1.0,-0.06,-0.12,-0.06,-2.85,50.56,-37.66,0.0,0.0,0.0,0.0,0.0,0.0,0.0,0.0,0.0,0.0,0.0,0.0,0.0,0.0,0.0,0.0,0.0,0.0,0.0,0.0,0.0,0.0
,,93229.655952,0.28550100326538086,0.0,0.0,0.0,0.0,0.0,0.0,0.0,0.0,0.0,0.0,0.0,2592451.0,-0.0,0.0,-1.01,0.0,0.0,0.12,-2.7,48.31,-41.26,2592459.0,-0.01,-0.0,-1.02,-0.06,-0.12,-0.18,-2.4,49.66,-38.86,0.0,0.0,0.0,0.0,0.0,0.0,0.0,0.0,0.0,0.0,0.0,0.0,0.0,0.0,0.0,0.0,0.0,0.0,0.0,0.0,0.0,0.0
,,93229.676324,0.3058657646179199,0.0,0.0,0.0,0.0,0.0,0.0,0.0,0.0,0.0,0.0,0.0,2592468.0,-0.0,-0.0,-1.02,0.0,-0.12,0.0,-2.4,49.66,-38.86,2592476.0,-0.0,-0.0,-1.02,-0.06,-0.24,0.0,-2.7,49.96,-38.56,0.0,0.0,0.0,0.0,0.0,0.0,0.0,0.0,0.0,0.0,0.0,0.0,0.0,0.0,0.0,0.0,0.0,0.0,0.0,0.0,0.0,0.0
,,93229.695944,0.32549023628234863,0.0,0.0,0.0,0.0,0.0,0.0,0.0,0.0,0.0,0.0,0.0,2592515.0,-0.0,0.0,-1.01,-0.12,-0.18,-0.06,-2.25,50.26,-37.36,2592524.0,-0.01,-0.0,-1.02,-0.06,-0.12,-0.12,-1.5,49.81,-36.31,0.0,0.0,0.0,0.0,0.0,0.0,0.0,0.0,0.0,0.0,0.0,0.0,0.0,0.0,0.0,0.0,0.0,0.0,0.0,0.0,0.0,0.0
,,93229.71588,0.34542083740234375,0.0,0.0,0.0,0.0,0.0,0.0,0.0,0.0,0.0,0.0,0.0,2592532.0,-0.0,-0.0,-1.02,-0.06,-0.06,-0.06,-2.25,51.31,-39.76,2592541.0,-0.01,0.0,-1.0,0.06,0.0,-0.12,-2.25,49.51,-39.31,0.0,0.0,0.0,0.0,0.0,0.0,0.0,0.0,0.0,0.0,0.0,0.0,0.0,0.0,0.0,0.0,0.0,0.0,0.0,0.0,0.0,0.0
,,93229.736132,0.365673303604126,0.0,0.0,0.0,0.0,0.0,0.0,0.0,0.0,0.0,0.0,0.0,2592550.0,0.0,0.01,-1.02,0.0,0.06,-0.06,-2.55,49.81,-37.96,2592558.0,-0.01,-0.0,-1.02,-0.06,-0.12,0.06,-3.6,50.26,-37.96,0.0,0.0,0.0,0.0,0.0,0.0,0.0,0.0,0.0,0.0,0.0,0.0,0.0,0.0,0.0,0.0,0.0,0.0,0.0,0.0,0.0,0.0
,,93229.755794,0.3853292465209961,0.0,0.0,0.0,0.0,0.0,0.0,0.0,0.0,0.0,0.0,0.0,2592567.0,-0.0,0.01,-1.02,0.0,0.06,0.06,-3.6,50.26,-37.66,2592575.0,-0.01,-0.0,-1.01,0.06,0.06,-0.06,-3.3,50.86,-39.01,0.0,0.0,0.0,0.0,0.0,0.0,0.0,0.0,0.0,0.0,0.0,0.0,0.0,0.0,0.0,0.0,0.0,0.0,0.0,0.0,0.0,0.0
,,93229.776073,0.4056253433227539,0.0,0.0,0.0,0.0,0.0,0.0,0.0,0.0,0.0,0.0,0.0,2592584.0,0.01,0.0,-1.0,0.0,0.0,-0.06,-1.95,50.71,-38.56,2592592.0,-0.0,-0.0,-1.01,-0.12,-0.06,-0.12,-2.25,51.31,-37.66,0.0,0.0,0.0,0.0,0.0,0.0,0.0,0.0,0.0,0.0,0.0,0.0,0.0,0.0,0.0,0.0,0.0,0.0,0.0,0.0,0.0,0.0
,,93229.79605,0.4255983829498291,0.0,0.0,0.0,0.0,0.0,0.0,0.0,0.0,0.0,0.0,0.0,2592601.0,0.0,-0.0,-1.0,0.0,0.0,-0.12,-2.7,49.36,-38.56,2592609.0,-0.0,-0.0,-1.0,0.0,0.0,-0.12,-4.8,50.71,-39.61,0.0,0.0,0.0,0.0,0.0,0.0,0.0,0.0,0.0,0.0,0.0,0.0,0.0,0.0,0.0,0.0,0.0,0.0,0.0,0.0,0.0,0.0
,,93229.816771,0.4463174343109131,0.0,0.0,0.0,0.0,0.0,0.0,0.0,0.0,0.0,0.0,0.0,2592618.0,0.0,0.0,-1.0,-0.06,-0.12,0.06,-4.8,50.71,-39.61,2592627.0,-0.01,0.01,-1.01,0.0,0.0,0.06,-1.35,51.46,-39.16,0.0,0.0,0.0,0.0,0.0,0.0,0.0,0.0,0.0,0.0,0.0,0.0,0.0,0.0,0.0,0.0,0.0,0.0,0.0,0.0,0.0,0.0
,,93229.836157,0.46570515632629395,0.0,0.0,0.0,0.0,0.0,0.0,0.0,0.0,0.0,0.0,0.0,2592676.0,0.01,-0.0,-1.0,0.0,0.0,0.06,0.3,49.81,-37.96,2592684.0,-0.0,-0.0,-1.0,0.0,0.0,-0.06,-2.25,50.86,-37.06,0.0,0.0,0.0,0.0,0.0,0.0,0.0,0.0,0.0,0.0,0.0,0.0,0.0,0.0,0.0,0.0,0.0,0.0,0.0,0.0,0.0,0.0
,,93229.855864,0.4853987693786621,0.0,0.0,0.0,0.0,0.0,0.0,0.0,0.0,0.0,0.0,0.0,2592692.0,-0.0,0.0,-1.0,0.0,-0.06,-0.12,-3.45,50.71,-39.91,2592701.0,0.0,0.0,-1.0,-0.06,-0.12,0.0,-1.5,49.21,-37.66,0.0,0.0,0.0,0.0,0.0,0.0,0.0,0.0,0.0,0.0,0.0,0.0,0.0,0.0,0.0,0.0,0.0,0.0,0.0,0.0,0.0,0.0
,,93229.875969,0.505523681640625,0.0,0.0,0.0,0.0,0.0,0.0,0.0,0.0,0.0,0.0,0.0,2592710.0,-0.01,0.0,-1.02,0.06,-0.06,0.0,-2.4,49.96,-37.51,2592718.0,-0.01,-0.01,-1.01,0.06,0.0,0.0,-1.2,49.96,-37.51,0.0,0.0,0.0,0.0,0.0,0.0,0.0,0.0,0.0,0.0,0.0,0.0,0.0,0.0,0.0,0.0,0.0,0.0,0.0,0.0,0.0,0.0
,,93229.896047,0.5255861282348633,0.0,0.0,0.0,0.0,0.0,0.0,0.0,0.0,0.0,0.0,0.0,2592726.0,-0.0,-0.0,-1.01,-0.06,-0.06,-0.12,-1.2,50.56,-37.36,2592735.0,0.0,-0.0,-1.02,-0.12,-0.12,0.06,-3.0,50.41,-37.51,0.0,0.0,0.0,0.0,0.0,0.0,0.0,0.0,0.0,0.0,0.0,0.0,0.0,0.0,0.0,0.0,0.0,0.0,0.0,0.0,0.0,0.0
,,93229.915895,0.5454449653625488,0.0,0.0,0.0,0.0,0.0,0.0,0.0,0.0,0.0,0.0,0.0,2592744.0,0.0,0.01,-1.01,-0.12,-0.06,-0.12,-1.95,51.46,-38.26,2592753.0,-0.01,-0.0,-1.0,-0.06,-0.06,-0.06,-3.0,51.16,-37.21,0.0,0.0,0.0,0.0,0.0,0.0,0.0,0.0,0.0,0.0,0.0,0.0,0.0,0.0,0.0,0.0,0.0,0.0,0.0,0.0,0.0,0.0
,,93229.935598,0.5651321411132812,0.0,0.0,0.0,0.0,0.0,0.0,0.0,0.0,0.0,0.0,0.0,2592761.0,-0.01,-0.01,-1.01,-0.06,-0.06,0.0,-3.6,49.51,-39.76,2592770.0,0.0,0.0,-1.02,-0.12,-0.06,0.06,-1.95,47.86,-37.81,0.0,0.0,0.0,0.0,0.0,0.0,0.0,0.0,0.0,0.0,0.0,0.0,0.0,0.0,0.0,0.0,0.0,0.0,0.0,0.0,0.0,0.0
,,93229.955662,0.5851960182189941,0.0,0.0,0.0,0.0,0.0,0.0,0.0,0.0,0.0,0.0,0.0,2592778.0,0.0,0.01,-1.01,0.06,-0.12,0.06,-2.85,51.31,-37.36,2592787.0,-0.0,0.0,-1.01,0.06,0.0,0.0,-2.85,51.31,-37.36,0.0,0.0,0.0,0.0,0.0,0.0,0.0,0.0,0.0,0.0,0.0,0.0,0.0,0.0,0.0,0.0,0.0,0.0,0.0,0.0,0.0,0.0
,,93229.976032,0.6055750846862793,0.0,0.0,0.0,0.0,0.0,0.0,0.0,0.0,0.0,0.0,0.0,2592829.0,-0.0,0.0,-1.01,0.0,0.0,0.06,-2.25,51.31,-39.31,2592837.0,-0.01,0.01,-1.01,-0.06,0.0,-0.06,-2.25,51.31,-39.31,0.0,0.0,0.0,0.0,0.0,0.0,0.0,0.0,0.0,0.0,0.0,0.0,0.0,0.0,0.0,0.0,0.0,0.0,0.0,0.0,0.0,0.0
,,93229.995678,0.6252110004425049,0.0,0.0,0.0,0.0,0.0,0.0,0.0,0.0,0.0,0.0,0.0,2592845.0,-0.01,0.0,-1.01,-0.12,-0.06,0.0,-2.7,48.91,-38.26,2597866.0,-0.0,0.0,-1.0,0.0,0.0,0.0,-2.7,51.16,-39.61,0.0,0.0,0.0,0.0,0.0,0.0,0.0,0.0,0.0,0.0,0.0,0.0,0.0,0.0,0.0,0.0,0.0,0.0,0.0,0.0,0.0,0.0
,,93230.015747,0.6452813148498535,0.0,0.0,0.0,0.0,0.0,0.0,0.0,0.0,0.0,0.0,0.0,2597875.0,-0.0,-0.01,-1.01,-0.12,-0.12,0.0,-2.25,49.51,-39.76,2597883.0,-0.0,0.0,-1.01,-0.06,-0.12,0.0,-0.75,50.56,-37.66,0.0,0.0,0.0,0.0,0.0,0.0,0.0,0.0,0.0,0.0,0.0,0.0,0.0,0.0,0.0,0.0,0.0,0.0,0.0,0.0,0.0,0.0
,,93230.036788,0.6663291454315186,0.0,0.0,0.0,0.0,0.0,0.0,0.0,0.0,0.0,0.0,0.0,2597892.0,0.01,0.0,-1.02,-0.06,-0.18,0.0,-2.7,48.91,-39.16,2597901.0,0.0,-0.0,-1.01,-0.12,-0.12,-0.06,-2.25,49.81,-39.76,0.0,0.0,0.0,0.0,0.0,0.0,0.0,0.0,0.0,0.0,0.0,0.0,0.0,0.0,0.0,0.0,0.0,0.0,0.0,0.0,0.0,0.0
,,93230.140283,0.7698383331298828,0.0,0.0,0.0,0.0,0.0,0.0,0.0,0.0,0.0,0.0,0.0,2597910.0,0.0,0.01,-1.01,0.0,0.0,0.0,-2.25,50.26,-38.71,2598023.0,0.0,0.0,-1.01,-0.06,-0.12,0.0,-1.65,49.66,-38.56,0.0,0.0,0.0,0.0,0.0,0.0,0.0,0.0,0.0,0.0,0.0,0.0,0.0,0.0,0.0,0.0,0.0,0.0,0.0,0.0,0.0,0.0
,,93230.15991,0.7894690036773682,0.0,0.0,0.0,0.0,0.0,0.0,0.0,0.0,0.0,0.0,0.0,2598033.0,0.0,-0.0,-1.02,-0.12,-0.06,0.06,-1.35,49.96,-38.56,2598042.0,-0.0,-0.0,-1.01,-0.06,-0.06,-0.06,-2.7,49.36,-39.16,0.0,0.0,0.0,0.0,0.0,0.0,0.0,0.0,0.0,0.0,0.0,0.0,0.0,0.0,0.0,0.0,0.0,0.0,0.0,0.0,0.0,0.0
,,93230.180511,0.8100636005401611,0.0,0.0,0.0,0.0,0.0,0.0,0.0,0.0,0.0,0.0,0.0,2598052.0,-0.0,0.0,-1.01,0.24,0.06,-0.06,-3.6,50.56,-38.41,2598063.0,0.0,0.0,-1.01,-0.06,-0.06,-0.12,-3.0,50.71,-39.16,0.0,0.0,0.0,0.0,0.0,0.0,0.0,0.0,0.0,0.0,0.0,0.0,0.0,0.0,0.0,0.0,0.0,0.0,0.0,0.0,0.0,0.0
,,93230.200072,0.8296163082122803,0.0,0.0,0.0,0.0,0.0,0.0,0.0,0.0,0.0,0.0,0.0,2598072.0,0.0,-0.01,-1.01,-0.06,-0.06,-0.06,-2.7,50.41,-38.56,2598083.0,-0.01,-0.0,-1.0,-0.12,-0.12,-0.06,-2.7,50.71,-38.86,0.0,0.0,0.0,0.0,0.0,0.0,0.0,0.0,0.0,0.0,0.0,0.0,0.0,0.0,0.0,0.0,0.0,0.0,0.0,0.0,0.0,0.0
,,93230.219942,0.8494863510131836,0.0,0.0,0.0,0.0,0.0,0.0,0.0,0.0,0.0,0.0,0.0,2598092.0,-0.01,-0.0,-1.01,0.0,-0.06,-0.12,-2.25,50.86,-39.31,2598102.0,-0.0,0.0,-1.0,0.0,-0.06,-0.06,-2.4,50.41,-40.51,0.0,0.0,0.0,0.0,0.0,0.0,0.0,0.0,0.0,0.0,0.0,0.0,0.0,0.0,0.0,0.0,0.0,0.0,0.0,0.0,0.0,0.0
,,93230.240269,0.8698282241821289,0.0,0.0,0.0,0.0,0.0,0.0,0.0,0.0,0.0,0.0,0.0,2598112.0,0.0,0.0,-1.02,0.06,-0.06,-0.06,-3.0,51.76,-37.51,2598123.0,-0.0,-0.0,-1.01,0.06,-0.06,0.0,-1.95,50.71,-39.16,0.0,0.0,0.0,0.0,0.0,0.0,0.0,0.0,0.0,0.0,0.0,0.0,0.0,0.0,0.0,0.0,0.0,0.0,0.0,0.0,0.0,0.0
,,93230.259917,0.8894710540771484,0.0,0.0,0.0,0.0,0.0,0.0,0.0,0.0,0.0,0.0,0.0,2598132.0,0.0,0.01,-1.02,-0.12,-0.18,0.0,-1.95,49.96,-38.56,2598142.0,0.0,0.0,-1.01,-0.06,-0.06,0.06,-2.85,48.76,-38.41,0.0,0.0,0.0,0.0,0.0,0.0,0.0,0.0,0.0,0.0,0.0,0.0,0.0,0.0,0.0,0.0,0.0,0.0,0.0,0.0,0.0,0.0
,,93230.311604,0.9411530494689941,0.0,0.0,0.0,0.0,0.0,0.0,0.0,0.0,0.0,0.0,0.0,2598153.0,-0.01,0.0,-1.02,-0.18,-0.12,0.0,-1.8,49.51,-38.41,2598194.0,-0.0,-0.0,-1.01,-0.06,0.0,-0.06,0.45,51.46,-36.76,0.0,0.0,0.0,0.0,0.0,0.0,0.0,0.0,0.0,0.0,0.0,0.0,0.0,0.0,0.0,0.0,0.0,0.0,0.0,0.0,0.0,0.0
,,93230.328351,0.9578907489776611,0.0,0.0,0.0,0.0,0.0,0.0,0.0,0.0,0.0,0.0,0.0,2598202.0,0.0,-0.0,-1.01,-0.12,0.0,0.06,-1.5,51.91,-37.36,2598211.0,0.0,0.0,-1.01,0.0,0.12,-0.12,-2.55,51.61,-37.96,0.0,0.0,0.0,0.0,0.0,0.0,0.0,0.0,0.0,0.0,0.0,0.0,0.0,0.0,0.0,0.0,0.0,0.0,0.0,0.0,0.0,0.0
,,93230.34574,0.9752786159515381,0.0,0.0,0.0,0.0,0.0,0.0,0.0,0.0,0.0,0.0,0.0,2598219.0,-0.0,0.0,-1.0,-0.12,-0.06,0.06,-3.75,49.36,-40.51,2598228.0,-0.0,-0.0,-1.01,-0.06,-0.06,-0.06,-1.8,50.56,-38.41,0.0,0.0,0.0,0.0,0.0,0.0,0.0,0.0,0.0,0.0,0.0,0.0,0.0,0.0,0.0,0.0,0.0,0.0,0.0,0.0,0.0,0.0
,,93230.362738,0.9922895431518555,0.0,0.0,0.0,0.0,0.0,0.0,0.0,0.0,0.0,0.0,0.0,2598237.0,-0.0,-0.0,-1.01,0.0,0.0,0.06,-2.25,49.51,-37.96,2598245.0,-0.0,0.0,-1.01,0.0,-0.06,0.0,-2.25,49.51,-37.96,0.0,0.0,0.0,0.0,0.0,0.0,0.0,0.0,0.0,0.0,0.0,0.0,0.0,0.0,0.0,0.0,0.0,0.0,0.0,0.0,0.0,0.0
,,93230.379786,1.0093226432800293,0.0,0.0,0.0,0.0,0.0,0.0,0.0,0.0,0.0,0.0,0.0,2598254.0,0.0,-0.0,-1.0,-0.06,-0.06,0.0,-1.95,50.71,-37.81,2598262.0,-0.0,0.0,-1.02,-0.06,-0.12,-0.06,-1.65,50.41,-38.26,0.0,0.0,0.0,0.0,0.0,0.0,0.0,0.0,0.0,0.0,0.0,0.0,0.0,0.0,0.0,0.0,0.0,0.0,0.0,0.0,0.0,0.0
,,93230.397285,1.0268287658691406,0.0,0.0,0.0,0.0,0.0,0.0,0.0,0.0,0.0,0.0,0.0,2598271.0,-0.0,0.0,-1.01,0.0,-0.12,-0.12,-2.85,49.51,-37.66,2598280.0,0.01,-0.0,-1.01,-0.06,-0.18,-0.06,-2.25,50.56,-38.41,0.0,0.0,0.0,0.0,0.0,0.0,0.0,0.0,0.0,0.0,0.0,0.0,0.0,0.0,0.0,0.0,0.0,0.0,0.0,0.0,0.0,0.0
,,93230.414367,1.0439462661743164,0.0,0.0,0.0,0.0,0.0,0.0,0.0,0.0,0.0,0.0,0.0,2598288.0,0.0,0.0,-1.0,-0.06,-0.12,-0.06,-2.7,50.41,-38.86,2598297.0,-0.01,-0.0,-1.01,0.06,-0.12,0.0,-3.9,50.26,-38.41,0.0,0.0,0.0,0.0,0.0,0.0,0.0,0.0,0.0,0.0,0.0,0.0,0.0,0.0,0.0,0.0,0.0,0.0,0.0,0.0,0.0,0.0
,,93230.463605,1.093137264251709,0.0,0.0,0.0,0.0,0.0,0.0,0.0,0.0,0.0,0.0,0.0,2598305.0,-0.0,-0.01,-1.0,0.06,-0.12,0.0,-3.9,50.26,-38.41,2598346.0,0.01,-0.01,-1.02,0.0,0.0,-0.06,-0.9,49.96,-36.46,0.0,0.0,0.0,0.0,0.0,0.0,0.0,0.0,0.0,0.0,0.0,0.0,0.0,0.0,0.0,0.0,0.0,0.0,0.0,0.0,0.0,0.0
,,93230.480871,1.1104025840759277,0.0,0.0,0.0,0.0,0.0,0.0,0.0,0.0,0.0,0.0,0.0,2598355.0,0.0,-0.0,-1.01,-0.06,-0.06,0.12,-1.35,49.66,-37.21,2598363.0,-0.0,-0.0,-1.01,-0.06,-0.18,-0.06,-3.3,51.91,-39.76,0.0,0.0,0.0,0.0,0.0,0.0,0.0,0.0,0.0,0.0,0.0,0.0,0.0,0.0,0.0,0.0,0.0,0.0,0.0,0.0,0.0,0.0
,,93230.497527,1.1270649433135986,0.0,0.0,0.0,0.0,0.0,0.0,0.0,0.0,0.0,0.0,0.0,2598372.0,0.0,0.0,-1.02,-0.06,-0.06,0.0,-3.75,50.41,-38.56,2598381.0,-0.0,0.0,-1.02,0.0,0.0,-0.18,-3.75,49.96,-38.26,0.0,0.0,0.0,0.0,0.0,0.0,0.0,0.0,0.0,0.0,0.0,0.0,0.0,0.0,0.0,0.0,0.0,0.0,0.0,0.0,0.0,0.0
,,93230.514803,1.144343376159668,0.0,0.0,0.0,0.0,0.0,0.0,0.0,0.0,0.0,0.0,0.0,2598389.0,0.0,-0.0,-0.99,0.0,0.06,0.0,-2.85,49.81,-38.41,2598397.0,0.0,0.01,-1.03,-0.06,-0.06,-0.06,-3.6,49.51,-39.01,0.0,0.0,0.0,0.0,0.0,0.0,0.0,0.0,0.0,0.0,0.0,0.0,0.0,0.0,0.0,0.0,0.0,0.0,0.0,0.0,0.0,0.0
,,93230.531866,1.1614043712615967,0.0,0.0,0.0,0.0,0.0,0.0,0.0,0.0,0.0,0.0,0.0,2598406.0,-0.0,0.0,-1.01,0.0,0.0,0.12,-3.6,49.51,-39.01,2598415.0,-0.01,0.0,-1.02,-0.06,-0.18,0.0,-1.65,48.91,-38.86,0.0,0.0,0.0,0.0,0.0,0.0,0.0,0.0,0.0,0.0,0.0,0.0,0.0,0.0,0.0,0.0,0.0,0.0,0.0,0.0,0.0,0.0
,,93230.549644,1.179185390472412,0.0,0.0,0.0,0.0,0.0,0.0,0.0,0.0,0.0,0.0,0.0,2598423.0,0.0,0.0,-1.01,-0.12,-0.06,0.0,-2.25,50.86,-39.01,2598432.0,-0.0,0.0,-1.0,-0.06,-0.06,0.06,-2.55,48.76,-39.31,0.0,0.0,0.0,0.0,0.0,0.0,0.0,0.0,0.0,0.0,0.0,0.0,0.0,0.0,0.0,0.0,0.0,0.0,0.0,0.0,0.0,0.0
,,93230.569863,1.1994123458862305,0.0,0.0,0.0,0.0,0.0,0.0,0.0,0.0,0.0,0.0,0.0,2598440.0,-0.0,0.0,-1.01,-0.06,-0.18,-0.06,-3.45,51.76,-39.16,2598449.0,-0.0,-0.0,-1.0,-0.06,-0.06,-0.12,-2.25,50.86,-38.41,0.0,0.0,0.0,0.0,0.0,0.0,0.0,0.0,0.0,0.0,0.0,0.0,0.0,0.0,0.0,0.0,0.0,0.0,0.0,0.0,0.0,0.0
,,93230.616564,1.2461204528808594,0.0,0.0,0.0,0.0,0.0,0.0,0.0,0.0,0.0,0.0,0.0,2598458.0,0.0,-0.01,-1.01,-0.06,-0.06,0.0,-1.8,50.56,-38.71,2598499.0,-0.0,-0.0,-1.0,0.12,0.0,0.0,-1.95,51.46,-36.76,0.0,0.0,0.0,0.0,0.0,0.0,0.0,0.0,0.0,0.0,0.0,0.0,0.0,0.0,0.0,0.0,0.0,0.0,0.0,0.0,0.0,0.0
,,93230.63387,1.2634177207946777,0.0,0.0,0.0,0.0,0.0,0.0,0.0,0.0,0.0,0.0,0.0,2598507.0,-0.0,-0.01,-1.02,-0.06,-0.06,-0.06,-1.95,50.71,-39.61,2598516.0,0.0,-0.0,-1.0,-0.12,-0.18,0.0,-1.95,50.71,-39.61,0.0,0.0,0.0,0.0,0.0,0.0,0.0,0.0,0.0,0.0,0.0,0.0,0.0,0.0,0.0,0.0,0.0,0.0,0.0,0.0,0.0,0.0
,,93230.650511,1.2800507545471191,0.0,0.0,0.0,0.0,0.0,0.0,0.0,0.0,0.0,0.0,0.0,2598524.0,0.0,0.0,-1.01,-0.06,-0.12,-0.06,-3.6,50.86,-39.01,2598533.0,-0.01,0.0,-1.02,0.0,-0.06,0.0,-2.55,49.81,-39.31,0.0,0.0,0.0,0.0,0.0,0.0,0.0,0.0,0.0,0.0,0.0,0.0,0.0,0.0,0.0,0.0,0.0,0.0,0.0,0.0,0.0,0.0
,,93230.667893,1.2974374294281006,0.0,0.0,0.0,0.0,0.0,0.0,0.0,0.0,0.0,0.0,0.0,2598541.0,-0.0,-0.0,-1.01,-0.06,-0.06,0.12,-2.4,51.16,-39.61,2598550.0,-0.01,-0.0,-1.0,-0.06,-0.12,0.12,-2.7,49.96,-39.16,0.0,0.0,0.0,0.0,0.0,0.0,0.0,0.0,0.0,0.0,0.0,0.0,0.0,0.0,0.0,0.0,0.0,0.0,0.0,0.0,0.0,0.0
,,93230.685086,1.314636468887329,0.0,0.0,0.0,0.0,0.0,0.0,0.0,0.0,0.0,0.0,0.0,2598559.0,-0.01,-0.0,-1.02,-0.06,-0.12,-0.12,-2.85,50.56,-39.01,2598568.0,-0.01,0.0,-1.02,0.06,0.0,0.0,-2.4,51.16,-38.56,0.0,0.0,0.0,0.0,0.0,0.0,0.0,0.0,0.0,0.0,0.0,0.0,0.0,0.0,0.0,0.0,0.0,0.0,0.0,0.0,0.0,0.0
,,93230.702043,1.3315880298614502,0.0,0.0,0.0,0.0,0.0,0.0,0.0,0.0,0.0,0.0,0.0,2598576.0,-0.01,0.01,-1.0,0.0,-0.06,0.0,-2.4,51.16,-38.56,2598584.0,-0.0,-0.01,-1.01,0.0,0.0,-0.12,-2.7,48.61,-38.26,0.0,0.0,0.0,0.0,0.0,0.0,0.0,0.0,0.0,0.0,0.0,0.0,0.0,0.0,0.0,0.0,0.0,0.0,0.0,0.0,0.0,0.0
,,93230.719212,1.3487646579742432,0.0,0.0,0.0,0.0,0.0,0.0,0.0,0.0,0.0,0.0,0.0,2598593.0,0.0,0.0,-1.01,0.0,0.0,-0.12,-2.55,50.26,-38.41,2598601.0,0.0,-0.0,-1.01,0.06,0.06,-0.12,-1.35,50.41,-38.56,0.0,0.0,0.0,0.0,0.0,0.0,0.0,0.0,0.0,0.0,0.0,0.0,0.0,0.0,0.0,0.0,0.0,0.0,0.0,0.0,0.0,0.0
,,93230.768287,1.3978314399719238,0.0,0.0,0.0,0.0,0.0,0.0,0.0,0.0,0.0,0.0,0.0,2598610.0,-0.01,-0.0,-1.01,0.0,0.0,0.0,-2.7,51.16,-38.86,2598651.0,-0.0,0.01,-1.01,-0.06,0.0,-0.06,-0.9,50.41,-37.21,0.0,0.0,0.0,0.0,0.0,0.0,0.0,0.0,0.0,0.0,0.0,0.0,0.0,0.0,0.0,0.0,0.0,0.0,0.0,0.0,0.0,0.0
,,93230.78532,1.4148647785186768,0.0,0.0,0.0,0.0,0.0,0.0,0.0,0.0,0.0,0.0,0.0,2598659.0,0.0,0.0,-0.99,0.06,0.06,0.0,-1.35,51.16,-39.16,2598668.0,-0.0,-0.01,-1.01,-0.12,-0.12,0.0,-3.3,50.26,-39.31,0.0,0.0,0.0,0.0,0.0,0.0,0.0,0.0,0.0,0.0,0.0,0.0,0.0,0.0,0.0,0.0,0.0,0.0,0.0,0.0,0.0,0.0
,,93230.802268,1.4318206310272217,0.0,0.0,0.0,0.0,0.0,0.0,0.0,0.0,0.0,0.0,0.0,2598676.0,-0.01,0.0,-1.02,0.06,0.0,0.0,-3.3,50.26,-39.31,2598685.0,-0.01,0.0,-1.01,0.06,-0.06,-0.06,-3.0,50.71,-38.56,0.0,0.0,0.0,0.0,0.0,0.0,0.0,0.0,0.0,0.0,0.0,0.0,0.0,0.0,0.0,0.0,0.0,0.0,0.0,0.0,0.0,0.0
,,93230.819245,1.4487881660461426,0.0,0.0,0.0,0.0,0.0,0.0,0.0,0.0,0.0,0.0,0.0,2598693.0,0.0,0.01,-1.02,-0.06,-0.12,0.0,-3.75,51.16,-37.51,2598702.0,-0.0,0.0,-1.0,0.0,0.0,-0.12,-3.0,49.36,-37.81,0.0,0.0,0.0,0.0,0.0,0.0,0.0,0.0,0.0,0.0,0.0,0.0,0.0,0.0,0.0,0.0,0.0,0.0,0.0,0.0,0.0,0.0
,,93230.836374,1.4659078121185303,0.0,0.0,0.0,0.0,0.0,0.0,0.0,0.0,0.0,0.0,0.0,2598710.0,-0.01,-0.01,-1.01,0.0,0.06,0.06,-3.3,50.56,-37.96,2598719.0,-0.01,0.01,-1.0,-0.06,-0.18,0.06,-2.55,50.86,-39.31,0.0,0.0,0.0,0.0,0.0,0.0,0.0,0.0,0.0,0.0,0.0,0.0,0.0,0.0,0.0,0.0,0.0,0.0,0.0,0.0,0.0,0.0
,,93230.853362,1.482905387878418,0.0,0.0,0.0,0.0,0.0,0.0,0.0,0.0,0.0,0.0,0.0,2598727.0,-0.0,-0.0,-1.01,0.0,0.0,-0.06,-2.4,48.61,-40.21,2598736.0,0.01,-0.0,-1.0,0.0,0.0,-0.06,-2.4,48.61,-40.21,0.0,0.0,0.0,0.0,0.0,0.0,0.0,0.0,0.0,0.0,0.0,0.0,0.0,0.0,0.0,0.0,0.0,0.0,0.0,0.0,0.0,0.0
,,93230.870732,1.5002775192260742,0.0,0.0,0.0,0.0,0.0,0.0,0.0,0.0,0.0,0.0,0.0,2598744.0,0.0,0.0,-1.01,-0.06,-0.12,-0.06,-2.85,49.51,-39.01,2598753.0,0.01,-0.0,-1.02,0.06,-0.12,0.06,-3.75,50.41,-39.16,0.0,0.0,0.0,0.0,0.0,0.0,0.0,0.0,0.0,0.0,0.0,0.0,0.0,0.0,0.0,0.0,0.0,0.0,0.0,0.0,0.0,0.0
,,93230.921165,1.5507183074951172,0.0,0.0,0.0,0.0,0.0,0.0,0.0,0.0,0.0,0.0,0.0,2598762.0,0.01,-0.01,-1.01,0.06,-0.06,-0.12,-3.3,51.61,-39.31,2598804.0,0.0,-0.0,-1.02,0.06,0.0,-0.06,0.15,51.16,-36.46,0.0,0.0,0.0,0.0,0.0,0.0,0.0,0.0,0.0,0.0,0.0,0.0,0.0,0.0,0.0,0.0,0.0,0.0,0.0,0.0,0.0,0.0
,,93230.938524,1.5680837631225586,0.0,0.0,0.0,0.0,0.0,0.0,0.0,0.0,0.0,0.0,0.0,2598812.0,0.0,-0.0,-1.02,0.0,-0.06,-0.06,-3.0,49.36,-38.26,2598820.0,-0.01,0.01,-1.02,-0.12,-0.18,0.06,-2.4,50.41,-38.26,0.0,0.0,0.0,0.0,0.0,0.0,0.0,0.0,0.0,0.0,0.0,0.0,0.0,0.0,0.0,0.0,0.0,0.0,0.0,0.0,0.0,0.0
,,93230.955517,1.5850815773010254,0.0,0.0,0.0,0.0,0.0,0.0,0.0,0.0,0.0,0.0,0.0,2598829.0,-0.01,-0.01,-1.01,0.18,0.0,0.0,-1.65,51.16,-38.26,2598838.0,-0.01,-0.0,-1.01,0.06,0.0,-0.12,-2.25,51.61,-39.31,0.0,0.0,0.0,0.0,0.0,0.0,0.0,0.0,0.0,0.0,0.0,0.0,0.0,0.0,0.0,0.0,0.0,0.0,0.0,0.0,0.0,0.0
,,93230.972443,1.60200834274292,0.0,0.0,0.0,0.0,0.0,0.0,0.0,0.0,0.0,0.0,0.0,2598846.0,-0.0,0.0,-0.99,0.0,0.0,0.0,-2.25,51.61,-39.31,2598854.0,-0.01,-0.0,-1.0,-0.12,-0.06,-0.06,-2.55,50.86,-38.41,0.0,0.0,0.0,0.0,0.0,0.0,0.0,0.0,0.0,0.0,0.0,0.0,0.0,0.0,0.0,0.0,0.0,0.0,0.0,0.0,0.0,0.0
,,93230.989594,1.6191489696502686,0.0,0.0,0.0,0.0,0.0,0.0,0.0,0.0,0.0,0.0,0.0,2598863.0,0.0,-0.01,-0.99,-0.12,-0.12,-0.12,-2.7,51.16,-38.86,2598872.0,-0.01,0.0,-1.02,0.0,0.06,-0.12,-2.4,50.41,-39.61,0.0,0.0,0.0,0.0,0.0,0.0,0.0,0.0,0.0,0.0,0.0,0.0,0.0,0.0,0.0,0.0,0.0,0.0,0.0,0.0,0.0,0.0
,,93231.006802,1.636348009109497,0.0,0.0,0.0,0.0,0.0,0.0,0.0,0.0,0.0,0.0,0.0,2598880.0,-0.0,-0.0,-1.01,0.0,-0.06,-0.06,-2.55,49.21,-38.41,2598889.0,-0.0,0.01,-1.02,0.0,-0.06,-0.06,-1.2,51.31,-37.36,0.0,0.0,0.0,0.0,0.0,0.0,0.0,0.0,0.0,0.0,0.0,0.0,0.0,0.0,0.0,0.0,0.0,0.0,0.0,0.0,0.0,0.0
,,93231.0238,1.6533536911010742,0.0,0.0,0.0,0.0,0.0,0.0,0.0,0.0,0.0,0.0,0.0,2598897.0,-0.01,-0.0,-1.0,-0.06,-0.12,-0.06,-2.25,50.26,-39.76,2598906.0,0.0,-0.0,-1.01,-0.18,-0.12,0.0,-2.25,50.26,-39.76,0.0,0.0,0.0,0.0,0.0,0.0,0.0,0.0,0.0,0.0,0.0,0.0,0.0,0.0,0.0,0.0,0.0,0.0,0.0,0.0,0.0,0.0
,,93231.073907,1.7034516334533691,0.0,0.0,0.0,0.0,0.0,0.0,0.0,0.0,0.0,0.0,0.0,2598915.0,0.0,0.0,-1.01,-0.06,-0.12,-0.18,-2.7,50.71,-39.61,2598956.0,0.0,-0.0,-1.01,-0.06,-0.06,0.0,-1.5,50.71,-36.76,0.0,0.0,0.0,0.0,0.0,0.0,0.0,0.0,0.0,0.0,0.0,0.0,0.0,0.0,0.0,0.0,0.0,0.0,0.0,0.0,0.0,0.0
,,93231.091187,1.720740556716919,0.0,0.0,0.0,0.0,0.0,0.0,0.0,0.0,0.0,0.0,0.0,2598965.0,0.0,-0.0,-1.01,0.0,-0.06,-0.12,-1.5,50.26,-37.06,2598973.0,-0.01,-0.0,-1.01,-0.12,-0.12,0.06,-2.85,50.86,-37.66,0.0,0.0,0.0,0.0,0.0,0.0,0.0,0.0,0.0,0.0,0.0,0.0,0.0,0.0,0.0,0.0,0.0,0.0,0.0,0.0,0.0,0.0
,,93231.108198,1.7377424240112305,0.0,0.0,0.0,0.0,0.0,0.0,0.0,0.0,0.0,0.0,0.0,2598982.0,-0.0,0.01,-1.02,-0.06,-0.12,-0.06,-3.3,49.81,-38.71,2598991.0,0.0,-0.0,-1.0,0.0,0.0,0.0,-2.85,50.86,-38.71,0.0,0.0,0.0,0.0,0.0,0.0,0.0,0.0,0.0,0.0,0.0,0.0,0.0,0.0,0.0,0.0,0.0,0.0,0.0,0.0,0.0,0.0
,,93231.1253,1.754845142364502,0.0,0.0,0.0,0.0,0.0,0.0,0.0,0.0,0.0,0.0,0.0,2598999.0,0.0,-0.0,-1.02,-0.12,-0.18,-0.12,-2.4,52.21,-38.26,2599008.0,0.0,0.0,-1.01,-0.06,-0.06,0.0,-2.55,50.26,-38.41,0.0,0.0,0.0,0.0,0.0,0.0,0.0,0.0,0.0,0.0,0.0,0.0,0.0,0.0,0.0,0.0,0.0,0.0,0.0,0.0,0.0,0.0
,,93231.142279,1.7718229293823242,0.0,0.0,0.0,0.0,0.0,0.0,0.0,0.0,0.0,0.0,0.0,2599016.0,-0.01,0.0,-1.0,-0.06,-0.06,0.0,-2.55,50.26,-38.41,2599025.0,-0.01,-0.01,-1.01,-0.12,0.0,0.0,-2.7,51.16,-38.56,0.0,0.0,0.0,0.0,0.0,0.0,0.0,0.0,0.0,0.0,0.0,0.0,0.0,0.0,0.0,0.0,0.0,0.0,0.0,0.0,0.0,0.0
,,93231.159731,1.7892706394195557,0.0,0.0,0.0,0.0,0.0,0.0,0.0,0.0,0.0,0.0,0.0,2599033.0,-0.01,0.0,-1.01,0.06,0.0,0.0,-4.65,50.56,-38.41,2599042.0,0.0,0.0,-1.01,0.0,-0.06,0.0,-3.0,50.71,-39.16,0.0,0.0,0.0,0.0,0.0,0.0,0.0,0.0,0.0,0.0,0.0,0.0,0.0,0.0,0.0,0.0,0.0,0.0,0.0,0.0,0.0,0.0
,,93231.179503,1.8090550899505615,0.0,0.0,0.0,0.0,0.0,0.0,0.0,0.0,0.0,0.0,0.0,2599050.0,0.0,0.01,-1.01,0.0,0.12,-0.06,-2.7,50.71,-38.56,2599059.0,0.0,-0.01,-1.01,0.0,0.12,0.06,-3.0,49.66,-39.91,0.0,0.0,0.0,0.0,0.0,0.0,0.0,0.0,0.0,0.0,0.0,0.0,0.0,0.0,0.0,0.0,0.0,0.0,0.0,0.0,0.0,0.0
,,93231.226937,1.8564798831939697,0.0,0.0,0.0,0.0,0.0,0.0,0.0,0.0,0.0,0.0,0.0,2599067.0,0.01,-0.0,-1.0,0.0,0.06,0.0,-1.8,49.81,-39.01,2599109.0,0.0,-0.01,-1.02,-0.06,-0.06,-0.12,-0.9,51.16,-37.81,0.0,0.0,0.0,0.0,0.0,0.0,0.0,0.0,0.0,0.0,0.0,0.0,0.0,0.0,0.0,0.0,0.0,0.0,0.0,0.0,0.0,0.0
,,93231.244041,1.8735740184783936,0.0,0.0,0.0,0.0,0.0,0.0,0.0,0.0,0.0,0.0,0.0,2599118.0,-0.01,-0.0,-1.01,0.06,0.06,0.0,-2.55,51.61,-38.41,2599126.0,-0.0,0.0,-1.0,-0.06,-0.12,-0.06,-2.55,51.61,-38.41,0.0,0.0,0.0,0.0,0.0,0.0,0.0,0.0,0.0,0.0,0.0,0.0,0.0,0.0,0.0,0.0,0.0,0.0,0.0,0.0,0.0,0.0
,,93231.261613,1.8911669254302979,0.0,0.0,0.0,0.0,0.0,0.0,0.0,0.0,0.0,0.0,0.0,2599135.0,0.01,-0.0,-1.0,-0.12,-0.06,0.0,-3.3,51.61,-37.66,2599143.0,-0.0,-0.01,-1.02,-0.06,-0.06,-0.06,-2.7,52.51,-38.86,0.0,0.0,0.0,0.0,0.0,0.0,0.0,0.0,0.0,0.0,0.0,0.0,0.0,0.0,0.0,0.0,0.0,0.0,0.0,0.0,0.0,0.0
,,93231.279055,1.9085931777954102,0.0,0.0,0.0,0.0,0.0,0.0,0.0,0.0,0.0,0.0,0.0,2599152.0,0.0,-0.01,-1.0,-0.06,-0.06,0.0,-2.4,48.61,-39.61,2599161.0,0.0,-0.0,-1.01,-0.06,-0.06,-0.12,-2.55,49.81,-39.76,0.0,0.0,0.0,0.0,0.0,0.0,0.0,0.0,0.0,0.0,0.0,0.0,0.0,0.0,0.0,0.0,0.0,0.0,0.0,0.0,0.0,0.0
,,93231.295343,1.9248909950256348,0.0,0.0,0.0,0.0,0.0,0.0,0.0,0.0,0.0,0.0,0.0,2599169.0,-0.0,0.0,-1.01,0.0,0.0,-0.12,-2.25,51.61,-39.31,2599178.0,-0.0,-0.01,-1.01,0.0,-0.06,0.0,-4.35,49.81,-38.71,0.0,0.0,0.0,0.0,0.0,0.0,0.0,0.0,0.0,0.0,0.0,0.0,0.0,0.0,0.0,0.0,0.0,0.0,0.0,0.0,0.0,0.0
,,93231.312653,1.9421954154968262,0.0,0.0,0.0,0.0,0.0,0.0,0.0,0.0,0.0,0.0,0.0,2599186.0,-0.0,-0.01,-1.01,-0.06,-0.06,-0.12,-4.35,49.81,-38.71,2599195.0,0.0,0.0,-1.0,-0.06,-0.12,0.0,-3.45,50.41,-37.81,0.0,0.0,0.0,0.0,0.0,0.0,0.0,0.0,0.0,0.0,0.0,0.0,0.0,0.0,0.0,0.0,0.0,0.0,0.0,0.0,0.0,0.0
,,93231.32943,1.95896315574646,0.0,0.0,0.0,0.0,0.0,0.0,0.0,0.0,0.0,0.0,0.0,2599203.0,0.0,0.0,-1.02,-0.06,-0.18,0.0,-1.8,51.31,-37.96,2599212.0,-0.01,0.0,-1.02,0.06,0.0,-0.06,-1.5,51.31,-37.66,0.0,0.0,0.0,0.0,0.0,0.0,0.0,0.0,0.0,0.0,0.0,0.0,0.0,0.0,0.0,0.0,0.0,0.0,0.0,0.0,0.0,0.0
,,93231.379994,2.009549617767334,0.0,0.0,0.0,0.0,0.0,0.0,0.0,0.0,0.0,0.0,0.0,2599220.0,0.0,-0.0,-1.02,-0.06,-0.06,-0.12,-3.6,50.56,-38.41,2599262.0,-0.01,-0.0,-1.01,0.0,0.0,-0.06,-1.65,51.16,-39.16,0.0,0.0,0.0,0.0,0.0,0.0,0.0,0.0,0.0,0.0,0.0,0.0,0.0,0.0,0.0,0.0,0.0,0.0,0.0,0.0,0.0,0.0
,,93231.397254,2.026797294616699,0.0,0.0,0.0,0.0,0.0,0.0,0.0,0.0,0.0,0.0,0.0,2599271.0,-0.01,0.0,-1.01,-0.12,-0.06,-0.06,0.0,51.31,-38.41,2599279.0,0.0,-0.0,-1.0,-0.06,-0.12,-0.12,-3.0,50.41,-37.51,0.0,0.0,0.0,0.0,0.0,0.0,0.0,0.0,0.0,0.0,0.0,0.0,0.0,0.0,0.0,0.0,0.0,0.0,0.0,0.0,0.0,0.0
,,93231.414174,2.043714761734009,0.0,0.0,0.0,0.0,0.0,0.0,0.0,0.0,0.0,0.0,0.0,2599288.0,0.0,-0.01,-1.01,0.0,-0.06,0.06,-2.7,50.41,-38.26,2599296.0,-0.0,-0.0,-1.01,-0.06,-0.06,0.12,-1.95,48.31,-39.91,0.0,0.0,0.0,0.0,0.0,0.0,0.0,0.0,0.0,0.0,0.0,0.0,0.0,0.0,0.0,0.0,0.0,0.0,0.0,0.0,0.0,0.0
,,93231.431311,2.060842514038086,0.0,0.0,0.0,0.0,0.0,0.0,0.0,0.0,0.0,0.0,0.0,2599305.0,-0.0,-0.0,-1.01,0.0,0.0,-0.06,-1.95,48.31,-39.91,2599313.0,-0.0,-0.0,-1.01,-0.06,-0.06,-0.06,-3.0,49.96,-39.16,0.0,0.0,0.0,0.0,0.0,0.0,0.0,0.0,0.0,0.0,0.0,0.0,0.0,0.0,0.0,0.0,0.0,0.0,0.0,0.0,0.0,0.0
,,93231.448619,2.0781733989715576,0.0,0.0,0.0,0.0,0.0,0.0,0.0,0.0,0.0,0.0,0.0,2599322.0,-0.01,-0.0,-1.0,-0.18,-0.18,-0.12,-1.95,51.16,-38.26,2599331.0,-0.0,0.0,-1.01,0.06,0.06,0.0,-2.25,50.26,-37.96,0.0,0.0,0.0,0.0,0.0,0.0,0.0,0.0,0.0,0.0,0.0,0.0,0.0,0.0,0.0,0.0,0.0,0.0,0.0,0.0,0.0,0.0
,,93231.465302,2.0948331356048584,0.0,0.0,0.0,0.0,0.0,0.0,0.0,0.0,0.0,0.0,0.0,2599339.0,-0.0,-0.0,-1.01,0.0,0.0,-0.12,-3.9,49.81,-39.31,2599348.0,0.0,0.0,-1.0,0.06,0.0,-0.06,-3.0,49.96,-36.16,0.0,0.0,0.0,0.0,0.0,0.0,0.0,0.0,0.0,0.0,0.0,0.0,0.0,0.0,0.0,0.0,0.0,0.0,0.0,0.0,0.0,0.0
,,93231.48245,2.111995220184326,0.0,0.0,0.0,0.0,0.0,0.0,0.0,0.0,0.0,0.0,0.0,2599356.0,0.0,0.0,-1.01,0.06,0.0,-0.24,-1.5,49.96,-36.16,2599365.0,-0.01,-0.01,-1.01,0.0,-0.06,-0.18,-1.5,48.76,-37.36,0.0,0.0,0.0,0.0,0.0,0.0,0.0,0.0,0.0,0.0,0.0,0.0,0.0,0.0,0.0,0.0,0.0,0.0,0.0,0.0,0.0,0.0
,,93231.533077,2.1626245975494385,0.0,0.0,0.0,0.0,0.0,0.0,0.0,0.0,0.0,0.0,0.0,2599373.0,-0.01,0.0,-1.01,-0.06,0.0,0.0,-2.4,51.46,-38.86,2599415.0,-0.01,0.01,-1.01,0.0,0.0,-0.12,-1.95,49.96,-36.46,0.0,0.0,0.0,0.0,0.0,0.0,0.0,0.0,0.0,0.0,0.0,0.0,0.0,0.0,0.0,0.0,0.0,0.0,0.0,0.0,0.0,0.0
,,93231.550441,2.179983615875244,0.0,0.0,0.0,0.0,0.0,0.0,0.0,0.0,0.0,0.0,0.0,2599424.0,0.0,-0.0,-1.01,-0.12,-0.12,0.0,-2.4,51.76,-37.21,2599432.0,-0.01,-0.0,-1.03,-0.06,-0.12,-0.06,-3.6,50.26,-37.36,0.0,0.0,0.0,0.0,0.0,0.0,0.0,0.0,0.0,0.0,0.0,0.0,0.0,0.0,0.0,0.0,0.0,0.0,0.0,0.0,0.0,0.0
,,93231.56746,2.1969943046569824,0.0,0.0,0.0,0.0,0.0,0.0,0.0,0.0,0.0,0.0,0.0,2599441.0,-0.0,0.0,-1.0,-0.06,-0.06,0.0,-3.3,50.86,-39.76,2599450.0,0.0,-0.0,-1.0,-0.18,-0.12,-0.06,-4.05,49.96,-38.56,0.0,0.0,0.0,0.0,0.0,0.0,0.0,0.0,0.0,0.0,0.0,0.0,0.0,0.0,0.0,0.0,0.0,0.0,0.0,0.0,0.0,0.0
,,93231.584784,2.2143285274505615,0.0,0.0,0.0,0.0,0.0,0.0,0.0,0.0,0.0,0.0,0.0,2599458.0,-0.01,0.0,-1.01,-0.06,-0.06,0.0,-1.65,48.91,-39.61,2599467.0,-0.0,0.0,-1.0,0.0,-0.06,-0.06,-2.85,49.21,-38.71,0.0,0.0,0.0,0.0,0.0,0.0,0.0,0.0,0.0,0.0,0.0,0.0,0.0,0.0,0.0,0.0,0.0,0.0,0.0,0.0,0.0,0.0
,,93231.602063,2.231616497039795,0.0,0.0,0.0,0.0,0.0,0.0,0.0,0.0,0.0,0.0,0.0,2599475.0,0.01,-0.0,-1.01,0.0,-0.06,-0.18,-2.85,49.21,-38.71,2599484.0,-0.0,0.01,-1.0,-0.06,-0.06,-0.06,-2.85,51.61,-38.71,0.0,0.0,0.0,0.0,0.0,0.0,0.0,0.0,0.0,0.0,0.0,0.0,0.0,0.0,0.0,0.0,0.0,0.0,0.0,0.0,0.0,0.0
,,93231.619016,2.24857234954834,0.0,0.0,0.0,0.0,0.0,0.0,0.0,0.0,0.0,0.0,0.0,2599493.0,-0.0,-0.0,-1.0,-0.06,-0.06,-0.06,-2.55,51.31,-38.71,2599501.0,-0.0,0.0,-1.02,-0.12,-0.12,0.0,-2.7,51.16,-38.26,0.0,0.0,0.0,0.0,0.0,0.0,0.0,0.0,0.0,0.0,0.0,0.0,0.0,0.0,0.0,0.0,0.0,0.0,0.0,0.0,0.0,0.0
,,93231.635819,2.2653605937957764,0.0,0.0,0.0,0.0,0.0,0.0,0.0,0.0,0.0,0.0,0.0,2599510.0,0.0,-0.01,-1.0,-0.06,-0.12,0.0,-4.05,51.16,-37.21,2599518.0,0.0,0.0,-1.01,-0.06,-0.06,-0.06,-2.4,51.16,-38.86,0.0,0.0,0.0,0.0,0.0,0.0,0.0,0.0,0.0,0.0,0.0,0.0,0.0,0.0,0.0,0.0,0.0,0.0,0.0,0.0,0.0,0.0
,,93231.68668,2.3162262439727783,0.0,0.0,0.0,0.0,0.0,0.0,0.0,0.0,0.0,0.0,0.0,2599527.0,-0.0,-0.0,-1.01,0.0,0.06,0.0,-2.4,50.71,-39.91,2599569.0,-0.0,0.0,-1.01,0.0,-0.06,-0.06,0.15,51.16,-36.76,0.0,0.0,0.0,0.0,0.0,0.0,0.0,0.0,0.0,0.0,0.0,0.0,0.0,0.0,0.0,0.0,0.0,0.0,0.0,0.0,0.0,0.0
,,93231.703626,2.333164691925049,0.0,0.0,0.0,0.0,0.0,0.0,0.0,0.0,0.0,0.0,0.0,2599577.0,0.01,0.01,-1.01,-0.06,-0.12,-0.06,-3.0,49.36,-38.86,2599586.0,-0.01,-0.01,-1.0,-0.06,-0.06,0.0,-3.0,49.36,-38.86,0.0,0.0,0.0,0.0,0.0,0.0,0.0,0.0,0.0,0.0,0.0,0.0,0.0,0.0,0.0,0.0,0.0,0.0,0.0,0.0,0.0,0.0
,,93231.720966,2.350522518157959,0.0,0.0,0.0,0.0,0.0,0.0,0.0,0.0,0.0,0.0,0.0,2599594.0,0.0,0.01,-1.01,-0.06,-0.12,0.0,-1.65,51.76,-38.56,2599603.0,-0.01,0.0,-1.02,-0.06,-0.06,0.0,-3.3,49.81,-38.41,0.0,0.0,0.0,0.0,0.0,0.0,0.0,0.0,0.0,0.0,0.0,0.0,0.0,0.0,0.0,0.0,0.0,0.0,0.0,0.0,0.0,0.0
,,93231.738114,2.36767315864563,0.0,0.0,0.0,0.0,0.0,0.0,0.0,0.0,0.0,0.0,0.0,2599611.0,-0.0,0.01,-1.01,-0.06,-0.06,-0.12,-2.7,51.16,-38.86,2599620.0,-0.0,-0.01,-1.01,-0.06,-0.06,0.0,-2.4,49.66,-38.56,0.0,0.0,0.0,0.0,0.0,0.0,0.0,0.0,0.0,0.0,0.0,0.0,0.0,0.0,0.0,0.0,0.0,0.0,0.0,0.0,0.0,0.0
,,93231.755074,2.384617805480957,0.0,0.0,0.0,0.0,0.0,0.0,0.0,0.0,0.0,0.0,0.0,2599629.0,0.0,-0.0,-1.0,-0.12,-0.06,0.0,-1.95,51.16,-38.86,2599637.0,-0.0,0.0,-1.01,-0.06,-0.12,-0.12,-3.45,49.36,-38.86,0.0,0.0,0.0,0.0,0.0,0.0,0.0,0.0,0.0,0.0,0.0,0.0,0.0,0.0,0.0,0.0,0.0,0.0,0.0,0.0,0.0,0.0
,,93231.772925,2.402466058731079,0.0,0.0,0.0,0.0,0.0,0.0,0.0,0.0,0.0,0.0,0.0,2599646.0,-0.0,0.0,-1.01,0.0,0.0,-0.06,-3.45,49.36,-38.86,2599654.0,-0.01,0.0,-1.01,0.0,0.0,-0.06,-1.95,50.71,-37.81,0.0,0.0,0.0,0.0,0.0,0.0,0.0,0.0,0.0,0.0,0.0,0.0,0.0,0.0,0.0,0.0,0.0,0.0,0.0,0.0,0.0,0.0
,,93231.792917,2.4224703311920166,0.0,0.0,0.0,0.0,0.0,0.0,0.0,0.0,0.0,0.0,0.0,2599663.0,-0.0,-0.0,-1.01,0.06,-0.06,-0.12,-3.75,49.36,-38.26,2599671.0,0.0,0.0,-1.02,0.0,0.06,-0.06,-2.7,51.46,-38.56,0.0,0.0,0.0,0.0,0.0,0.0,0.0,0.0,0.0,0.0,0.0,0.0,0.0,0.0,0.0,0.0,0.0,0.0,0.0,0.0,0.0,0.0
,,93231.841023,2.4705677032470703,0.0,0.0,0.0,0.0,0.0,0.0,0.0,0.0,0.0,0.0,0.0,2599680.0,0.0,-0.0,-1.01,0.06,0.0,0.12,-2.4,52.21,-38.26,2599723.0,-0.0,0.0,-1.0,0.0,-0.06,-0.06,-2.4,51.16,-38.56,0.0,0.0,0.0,0.0,0.0,0.0,0.0,0.0,0.0,0.0,0.0,0.0,0.0,0.0,0.0,0.0,0.0,0.0,0.0,0.0,0.0,0.0
,,93231.858696,2.4882397651672363,0.0,0.0,0.0,0.0,0.0,0.0,0.0,0.0,0.0,0.0,0.0,2599732.0,0.0,-0.0,-0.99,-0.12,-0.12,-0.06,-1.65,52.21,-36.46,2599741.0,-0.01,0.0,-1.01,-0.06,-0.06,-0.06,-2.7,50.71,-38.26,0.0,0.0,0.0,0.0,0.0,0.0,0.0,0.0,0.0,0.0,0.0,0.0,0.0,0.0,0.0,0.0,0.0,0.0,0.0,0.0,0.0,0.0
,,93231.875452,2.5049874782562256,0.0,0.0,0.0,0.0,0.0,0.0,0.0,0.0,0.0,0.0,0.0,2599749.0,0.01,0.0,-1.02,0.0,-0.06,-0.18,-1.65,49.36,-38.26,2599758.0,0.0,0.0,-1.02,0.06,0.0,0.0,-2.4,50.71,-38.26,0.0,0.0,0.0,0.0,0.0,0.0,0.0,0.0,0.0,0.0,0.0,0.0,0.0,0.0,0.0,0.0,0.0,0.0,0.0,0.0,0.0,0.0
,,93231.892818,2.5223710536956787,0.0,0.0,0.0,0.0,0.0,0.0,0.0,0.0,0.0,0.0,0.0,2599766.0,-0.01,-0.0,-1.01,-0.06,-0.06,0.0,-2.7,49.96,-38.86,2599775.0,0.0,0.0,-1.01,-0.12,-0.06,-0.18,-2.7,49.96,-38.86,0.0,0.0,0.0,0.0,0.0,0.0,0.0,0.0,0.0,0.0,0.0,0.0,0.0,0.0,0.0,0.0,0.0,0.0,0.0,0.0,0.0,0.0
,,93231.909968,2.5395002365112305,0.0,0.0,0.0,0.0,0.0,0.0,0.0,0.0,0.0,0.0,0.0,2599784.0,0.0,0.0,-1.01,-0.06,-0.18,0.0,-3.3,50.26,-39.76,2599792.0,-0.01,-0.0,-1.0,0.06,-0.06,0.06,-1.35,50.41,-38.86,0.0,0.0,0.0,0.0,0.0,0.0,0.0,0.0,0.0,0.0,0.0,0.0,0.0,0.0,0.0,0.0,0.0,0.0,0.0,0.0,0.0,0.0
,,93231.926872,2.556415557861328,0.0,0.0,0.0,0.0,0.0,0.0,0.0,0.0,0.0,0.0,0.0,2599801.0,-0.01,0.0,-1.02,0.0,0.0,0.12,-1.2,50.56,-38.41,2599809.0,-0.0,-0.0,-1.01,0.0,0.0,-0.06,-4.8,49.36,-40.21,0.0,0.0,0.0,0.0,0.0,0.0,0.0,0.0,0.0,0.0,0.0,0.0,0.0,0.0,0.0,0.0,0.0,0.0,0.0,0.0,0.0,0.0
,,93231.94402,2.573554515838623,0.0,0.0,0.0,0.0,0.0,0.0,0.0,0.0,0.0,0.0,0.0,2599818.0,0.0,-0.01,-1.01,-0.06,-0.12,-0.12,-1.65,51.16,-39.16,2599826.0,0.0,0.0,-1.02,0.0,0.06,-0.06,-1.65,51.46,-38.26,0.0,0.0,0.0,0.0,0.0,0.0,0.0,0.0,0.0,0.0,0.0,0.0,0.0,0.0,0.0,0.0,0.0,0.0,0.0,0.0,0.0,0.0
,,93231.995606,2.6251630783081055,0.0,0.0,0.0,0.0,0.0,0.0,0.0,0.0,0.0,0.0,0.0,2599835.0,-0.01,0.0,-1.0,0.0,0.0,0.06,-1.65,51.46,-38.26,2599877.0,-0.0,0.0,-1.02,-0.06,-0.12,0.0,0.0,49.51,-37.36,0.0,0.0,0.0,0.0,0.0,0.0,0.0,0.0,0.0,0.0,0.0,0.0,0.0,0.0,0.0,0.0,0.0,0.0,0.0,0.0,0.0,0.0
,,93232.013261,2.6427969932556152,0.0,0.0,0.0,0.0,0.0,0.0,0.0,0.0,0.0,0.0,0.0,2599886.0,0.0,-0.0,-1.0,0.0,0.0,0.06,-3.0,51.16,-37.81,2599895.0,-0.0,-0.01,-1.01,-0.06,-0.06,-0.06,-3.0,51.16,-37.81,0.0,0.0,0.0,0.0,0.0,0.0,0.0,0.0,0.0,0.0,0.0,0.0,0.0,0.0,0.0,0.0,0.0,0.0,0.0,0.0,0.0,0.0
,,93232.031477,2.6610329151153564,0.0,0.0,0.0,0.0,0.0,0.0,0.0,0.0,0.0,0.0,0.0,2599904.0,0.0,0.0,-1.01,-0.06,-0.06,0.0,-3.75,50.41,-36.76,2599913.0,-0.0,-0.01,-1.0,-0.06,-0.06,-0.12,-2.25,50.86,-39.76,0.0,0.0,0.0,0.0,0.0,0.0,0.0,0.0,0.0,0.0,0.0,0.0,0.0,0.0,0.0,0.0,0.0,0.0,0.0,0.0,0.0,0.0
,,93232.049584,2.6791417598724365,0.0,0.0,0.0,0.0,0.0,0.0,0.0,0.0,0.0,0.0,0.0,2599922.0,0.01,0.0,-1.01,-0.06,-0.12,-0.06,-2.4,50.71,-38.56,2599931.0,0.0,-0.0,-1.01,-0.06,-0.12,0.06,-2.85,49.81,-37.66,0.0,0.0,0.0,0.0,0.0,0.0,0.0,0.0,0.0,0.0,0.0,0.0,0.0,0.0,0.0,0.0,0.0,0.0,0.0,0.0,0.0,0.0
,,93232.067488,2.697021961212158,0.0,0.0,0.0,0.0,0.0,0.0,0.0,0.0,0.0,0.0,0.0,2599940.0,0.01,0.0,-1.0,0.0,0.06,-0.06,-2.7,49.36,-37.51,2599949.0,-0.0,-0.0,-1.01,0.06,0.06,0.06,-2.85,49.81,-40.06,0.0,0.0,0.0,0.0,0.0,0.0,0.0,0.0,0.0,0.0,0.0,0.0,0.0,0.0,0.0,0.0,0.0,0.0,0.0,0.0,0.0,0.0
,,93232.085608,2.7151753902435303,0.0,0.0,0.0,0.0,0.0,0.0,0.0,0.0,0.0,0.0,0.0,2599959.0,-0.0,-0.0,-1.0,0.12,0.0,-0.06,-1.95,51.16,-38.56,2599967.0,-0.0,-0.0,-1.0,0.0,-0.06,0.0,-1.35,50.41,-39.91,0.0,0.0,0.0,0.0,0.0,0.0,0.0,0.0,0.0,0.0,0.0,0.0,0.0,0.0,0.0,0.0,0.0,0.0,0.0,0.0,0.0,0.0
,,93232.102912,2.7324469089508057,0.0,0.0,0.0,0.0,0.0,0.0,0.0,0.0,0.0,0.0,0.0,2599976.0,-0.0,-0.0,-1.01,-0.06,-0.18,0.0,-2.25,49.81,-38.71,2599985.0,-0.0,0.0,-1.01,0.0,0.0,0.0,-2.25,49.81,-38.71,0.0,0.0,0.0,0.0,0.0,0.0,0.0,0.0,0.0,0.0,0.0,0.0,0.0,0.0,0.0,0.0,0.0,0.0,0.0,0.0,0.0,0.0
,,93232.15151,2.7810585498809814,0.0,0.0,0.0,0.0,0.0,0.0,0.0,0.0,0.0,0.0,0.0,2599994.0,0.0,-0.0,-1.02,-0.06,-0.06,0.0,-2.7,50.71,-37.81,2600033.0,-0.0,-0.0,-1.01,0.0,0.06,-0.12,-0.3,49.66,-37.81,0.0,0.0,0.0,0.0,0.0,0.0,0.0,0.0,0.0,0.0,0.0,0.0,0.0,0.0,0.0,0.0,0.0,0.0,0.0,0.0,0.0,0.0
,,93232.169059,2.7986068725585938,0.0,0.0,0.0,0.0,0.0,0.0,0.0,0.0,0.0,0.0,0.0,2600042.0,-0.0,0.01,-1.01,-0.06,0.0,0.0,-2.25,51.31,-38.41,2600051.0,-0.01,-0.0,-1.0,0.0,0.06,-0.12,-2.4,51.16,-38.86,0.0,0.0,0.0,0.0,0.0,0.0,0.0,0.0,0.0,0.0,0.0,0.0,0.0,0.0,0.0,0.0,0.0,0.0,0.0,0.0,0.0,0.0
,,93232.187377,2.816925287246704,0.0,0.0,0.0,0.0,0.0,0.0,0.0,0.0,0.0,0.0,0.0,2600060.0,-0.01,-0.0,-1.01,-0.06,-0.12,-0.18,-3.0,50.71,-38.56,2600069.0,-0.01,0.0,-1.0,0.18,0.06,-0.06,-1.95,49.66,-39.61,0.0,0.0,0.0,0.0,0.0,0.0,0.0,0.0,0.0,0.0,0.0,0.0,0.0,0.0,0.0,0.0,0.0,0.0,0.0,0.0,0.0,0.0
,,93232.205175,2.834723711013794,0.0,0.0,0.0,0.0,0.0,0.0,0.0,0.0,0.0,0.0,0.0,2600078.0,-0.0,0.0,-1.0,0.06,0.0,0.0,-2.4,48.31,-38.86,2600087.0,0.0,0.0,-1.02,0.06,-0.06,0.0,-3.3,51.61,-38.41,0.0,0.0,0.0,0.0,0.0,0.0,0.0,0.0,0.0,0.0,0.0,0.0,0.0,0.0,0.0,0.0,0.0,0.0,0.0,0.0,0.0,0.0
,,93232.222886,2.852431297302246,0.0,0.0,0.0,0.0,0.0,0.0,0.0,0.0,0.0,0.0,0.0,2600096.0,0.01,-0.0,-1.0,0.0,0.06,-0.06,-3.3,51.61,-38.41,2600105.0,-0.0,-0.01,-1.01,-0.06,-0.18,-0.06,-4.05,49.96,-38.56,0.0,0.0,0.0,0.0,0.0,0.0,0.0,0.0,0.0,0.0,0.0,0.0,0.0,0.0,0.0,0.0,0.0,0.0,0.0,0.0,0.0,0.0
,,93232.241151,2.8706986904144287,0.0,0.0,0.0,0.0,0.0,0.0,0.0,0.0,0.0,0.0,0.0,2600114.0,-0.0,0.0,-1.0,0.0,0.18,0.0,-3.6,50.26,-37.66,2600123.0,-0.0,-0.0,-1.02,-0.06,-0.06,0.12,-3.0,49.96,-39.91,0.0,0.0,0.0,0.0,0.0,0.0,0.0,0.0,0.0,0.0,0.0,0.0,0.0,0.0,0.0,0.0,0.0,0.0,0.0,0.0,0.0,0.0
,,93232.258617,2.888169288635254,0.0,0.0,0.0,0.0,0.0,0.0,0.0,0.0,0.0,0.0,0.0,2600132.0,-0.01,0.0,-1.0,-0.06,-0.06,-0.06,-1.35,51.16,-38.26,2600141.0,0.0,-0.0,-1.02,0.0,-0.12,-0.12,-3.9,50.56,-40.36,0.0,0.0,0.0,0.0,0.0,0.0,0.0,0.0,0.0,0.0,0.0,0.0,0.0,0.0,0.0,0.0,0.0,0.0,0.0,0.0,0.0,0.0
,,93232.311432,2.9409806728363037,0.0,0.0,0.0,0.0,0.0,0.0,0.0,0.0,0.0,0.0,0.0,2600150.0,0.0,0.0,-1.0,-0.06,-0.06,-0.12,-3.75,49.66,-39.91,2600193.0,-0.01,-0.0,-1.02,-0.06,-0.18,0.0,-1.65,50.41,-38.56,0.0,0.0,0.0,0.0,0.0,0.0,0.0,0.0,0.0,0.0,0.0,0.0,0.0,0.0,0.0,0.0,0.0,0.0,0.0,0.0,0.0,0.0
,,93232.328755,2.9583115577697754,0.0,0.0,0.0,0.0,0.0,0.0,0.0,0.0,0.0,0.0,0.0,2600202.0,-0.01,-0.0,-1.01,0.06,0.0,0.0,-2.25,50.86,-37.66,2600211.0,-0.0,0.0,-1.0,0.0,-0.12,0.0,-2.85,50.56,-38.71,0.0,0.0,0.0,0.0,0.0,0.0,0.0,0.0,0.0,0.0,0.0,0.0,0.0,0.0,0.0,0.0,0.0,0.0,0.0,0.0,0.0,0.0
,,93232.346677,2.976224660873413,0.0,0.0,0.0,0.0,0.0,0.0,0.0,0.0,0.0,0.0,0.0,2600220.0,-0.0,0.0,-1.02,-0.06,-0.06,0.0,-2.25,50.56,-38.41,2600229.0,0.0,-0.0,-1.0,-0.06,-0.06,-0.06,-3.0,50.41,-38.86,0.0,0.0,0.0,0.0,0.0,0.0,0.0,0.0,0.0,0.0,0.0,0.0,0.0,0.0,0.0,0.0,0.0,0.0,0.0,0.0,0.0,0.0
,,93232.364744,2.994281053543091,0.0,0.0,0.0,0.0,0.0,0.0,0.0,0.0,0.0,0.0,0.0,2600238.0,0.0,0.0,-1.01,-0.12,-0.12,0.06,-3.6,50.56,-39.01,2600247.0,-0.0,-0.0,-1.0,-0.06,-0.06,0.0,-3.45,49.96,-38.56,0.0,0.0,0.0,0.0,0.0,0.0,0.0,0.0,0.0,0.0,0.0,0.0,0.0,0.0,0.0,0.0,0.0,0.0,0.0,0.0,0.0,0.0
,,93232.382147,3.011680841445923,0.0,0.0,0.0,0.0,0.0,0.0,0.0,0.0,0.0,0.0,0.0,2600255.0,-0.01,-0.01,-1.0,0.0,0.06,0.0,-3.45,49.96,-38.56,2600264.0,-0.01,-0.0,-1.0,0.12,0.0,0.0,-1.95,50.41,-37.81,0.0,0.0,0.0,0.0,0.0,0.0,0.0,0.0,0.0,0.0,0.0,0.0,0.0,0.0,0.0,0.0,0.0,0.0,0.0,0.0,0.0,0.0
,,93232.399842,3.029374837875366,0.0,0.0,0.0,0.0,0.0,0.0,0.0,0.0,0.0,0.0,0.0,2600273.0,-0.01,-0.0,-1.01,-0.06,0.12,0.0,-1.95,51.16,-38.86,2600282.0,0.0,-0.0,-1.01,0.0,0.0,0.06,-3.0,50.41,-38.56,0.0,0.0,0.0,0.0,0.0,0.0,0.0,0.0,0.0,0.0,0.0,0.0,0.0,0.0,0.0,0.0,0.0,0.0,0.0,0.0,0.0,0.0
,,93232.418114,3.047658920288086,0.0,0.0,0.0,0.0,0.0,0.0,0.0,0.0,0.0,0.0,0.0,2600291.0,0.0,0.0,-1.01,-0.06,-0.18,-0.06,-2.4,48.91,-38.26,2600300.0,-0.01,-0.0,-1.01,0.0,-0.18,0.0,-4.05,50.71,-39.16,0.0,0.0,0.0,0.0,0.0,0.0,0.0,0.0,0.0,0.0,0.0,0.0,0.0,0.0,0.0,0.0,0.0,0.0,0.0,0.0,0.0,0.0
,,93232.471675,3.1012308597564697,0.0,0.0,0.0,0.0,0.0,0.0,0.0,0.0,0.0,0.0,0.0,2600309.0,-0.0,0.0,-1.01,-0.06,-0.18,-0.12,-1.95,51.16,-38.86,2600353.0,-0.01,-0.0,-1.02,-0.06,-0.12,0.06,-0.75,49.51,-37.96,0.0,0.0,0.0,0.0,0.0,0.0,0.0,0.0,0.0,0.0,0.0,0.0,0.0,0.0,0.0,0.0,0.0,0.0,0.0,0.0,0.0,0.0
,,93232.489342,3.1188979148864746,0.0,0.0,0.0,0.0,0.0,0.0,0.0,0.0,0.0,0.0,0.0,2600362.0,-0.0,-0.0,-1.01,0.0,0.0,0.06,-2.4,49.66,-37.51,2600371.0,0.0,-0.0,-1.0,0.0,0.12,0.06,-2.7,49.66,-38.56,0.0,0.0,0.0,0.0,0.0,0.0,0.0,0.0,0.0,0.0,0.0,0.0,0.0,0.0,0.0,0.0,0.0,0.0,0.0,0.0,0.0,0.0
,,93232.507301,3.1368515491485596,0.0,0.0,0.0,0.0,0.0,0.0,0.0,0.0,0.0,0.0,0.0,2600380.0,-0.0,0.01,-1.0,0.0,0.06,-0.12,-3.45,49.96,-38.86,2600389.0,-0.0,0.0,-1.01,-0.06,-0.12,-0.12,-3.0,50.71,-38.26,0.0,0.0,0.0,0.0,0.0,0.0,0.0,0.0,0.0,0.0,0.0,0.0,0.0,0.0,0.0,0.0,0.0,0.0,0.0,0.0,0.0,0.0
,,93232.525462,3.1550192832946777,0.0,0.0,0.0,0.0,0.0,0.0,0.0,0.0,0.0,0.0,0.0,2600398.0,-0.01,0.01,-1.02,-0.06,-0.12,0.0,-1.65,49.66,-38.86,2600407.0,0.0,0.0,-1.02,-0.12,-0.12,0.06,-3.3,51.31,-37.06,0.0,0.0,0.0,0.0,0.0,0.0,0.0,0.0,0.0,0.0,0.0,0.0,0.0,0.0,0.0,0.0,0.0,0.0,0.0,0.0,0.0,0.0
,,93232.543053,3.172600269317627,0.0,0.0,0.0,0.0,0.0,0.0,0.0,0.0,0.0,0.0,0.0,2600416.0,0.01,-0.0,-1.01,0.0,0.0,0.0,-2.85,49.81,-37.06,2600425.0,0.01,0.0,-1.01,0.12,0.12,-0.06,-2.85,49.81,-38.41,0.0,0.0,0.0,0.0,0.0,0.0,0.0,0.0,0.0,0.0,0.0,0.0,0.0,0.0,0.0,0.0,0.0,0.0,0.0,0.0,0.0,0.0
,,93232.560487,3.19003963470459,0.0,0.0,0.0,0.0,0.0,0.0,0.0,0.0,0.0,0.0,0.0,2600434.0,-0.0,-0.0,-1.0,-0.12,-0.12,-0.06,-1.8,49.81,-36.61,2600443.0,-0.01,0.0,-1.01,0.0,0.0,-0.06,-3.6,48.16,-40.66,0.0,0.0,0.0,0.0,0.0,0.0,0.0,0.0,0.0,0.0,0.0,0.0,0.0,0.0,0.0,0.0,0.0,0.0,0.0,0.0,0.0,0.0
,,93232.578285,3.207852363586426,0.0,0.0,0.0,0.0,0.0,0.0,0.0,0.0,0.0,0.0,0.0,2600452.0,0.0,0.0,-1.01,0.0,0.0,0.12,-3.0,48.91,-39.16,2600460.0,-0.0,-0.0,-1.0,0.06,0.0,0.12,-2.85,50.86,-39.01,0.0,0.0,0.0,0.0,0.0,0.0,0.0,0.0,0.0,0.0,0.0,0.0,0.0,0.0,0.0,0.0,0.0,0.0,0.0,0.0,0.0,0.0
,,93232.62965,3.2591981887817383,0.0,0.0,0.0,0.0,0.0,0.0,0.0,0.0,0.0,0.0,0.0,2600469.0,0.01,0.0,-1.01,-0.06,-0.12,-0.12,-3.3,49.51,-40.06,2600511.0,0.01,0.0,-1.02,-0.12,-0.18,-0.12,-2.55,49.81,-38.41,0.0,0.0,0.0,0.0,0.0,0.0,0.0,0.0,0.0,0.0,0.0,0.0,0.0,0.0,0.0,0.0,0.0,0.0,0.0,0.0,0.0,0.0
,,93232.647522,3.277083158493042,0.0,0.0,0.0,0.0,0.0,0.0,0.0,0.0,0.0,0.0,0.0,2600520.0,0.0,0.0,-1.01,-0.06,-0.06,0.0,-1.95,49.96,-38.26,2600529.0,-0.0,-0.01,-1.01,-0.06,-0.06,0.0,-1.8,50.56,-37.66,0.0,0.0,0.0,0.0,0.0,0.0,0.0,0.0,0.0,0.0,0.0,0.0,0.0,0.0,0.0,0.0,0.0,0.0,0.0,0.0,0.0,0.0
,,93232.665008,3.294553518295288,0.0,0.0,0.0,0.0,0.0,0.0,0.0,0.0,0.0,0.0,0.0,2600538.0,-0.0,0.0,-1.01,0.0,0.0,0.0,-3.3,51.31,-39.31,2600547.0,-0.0,0.0,-1.02,0.0,0.06,-0.06,-3.75,48.91,-38.26,0.0,0.0,0.0,0.0,0.0,0.0,0.0,0.0,0.0,0.0,0.0,0.0,0.0,0.0,0.0,0.0,0.0,0.0,0.0,0.0,0.0,0.0
,,93232.682804,3.3123514652252197,0.0,0.0,0.0,0.0,0.0,0.0,0.0,0.0,0.0,0.0,0.0,2600556.0,0.0,-0.01,-1.02,0.0,0.06,-0.12,-3.75,48.91,-38.26,2600565.0,0.0,-0.01,-1.01,-0.12,-0.06,-0.06,-3.0,49.96,-39.16,0.0,0.0,0.0,0.0,0.0,0.0,0.0,0.0,0.0,0.0,0.0,0.0,0.0,0.0,0.0,0.0,0.0,0.0,0.0,0.0,0.0,0.0
,,93232.700721,3.3302559852600098,0.0,0.0,0.0,0.0,0.0,0.0,0.0,0.0,0.0,0.0,0.0,2600574.0,-0.01,0.0,-1.0,-0.06,0.0,0.06,-2.7,50.71,-39.16,2600583.0,-0.0,0.0,-1.01,0.06,-0.12,-0.12,-3.0,49.96,-38.86,0.0,0.0,0.0,0.0,0.0,0.0,0.0,0.0,0.0,0.0,0.0,0.0,0.0,0.0,0.0,0.0,0.0,0.0,0.0,0.0,0.0,0.0
,,93232.719163,3.3487086296081543,0.0,0.0,0.0,0.0,0.0,0.0,0.0,0.0,0.0,0.0,0.0,2600592.0,0.0,-0.0,-1.01,-0.12,-0.24,-0.06,-1.95,49.96,-37.21,2600601.0,0.0,0.0,-1.02,-0.06,-0.06,0.0,-2.4,50.71,-38.26,0.0,0.0,0.0,0.0,0.0,0.0,0.0,0.0,0.0,0.0,0.0,0.0,0.0,0.0,0.0,0.0,0.0,0.0,0.0,0.0,0.0,0.0
,,93232.73676,3.3663079738616943,0.0,0.0,0.0,0.0,0.0,0.0,0.0,0.0,0.0,0.0,0.0,2600610.0,-0.0,-0.01,-1.02,-0.06,-0.06,-0.06,-3.0,49.96,-39.61,2600619.0,0.0,-0.0,-1.01,0.0,0.0,-0.06,-1.8,49.51,-39.01,0.0,0.0,0.0,0.0,0.0,0.0,0.0,0.0,0.0,0.0,0.0,0.0,0.0,0.0,0.0,0.0,0.0,0.0,0.0,0.0,0.0,0.0
,,93232.787753,3.4173007011413574,0.0,0.0,0.0,0.0,0.0,0.0,0.0,0.0,0.0,0.0,0.0,2600628.0,-0.0,-0.0,-1.01,0.06,0.18,-0.12,-2.85,49.21,-39.31,2600669.0,-0.01,-0.0,-1.0,0.0,0.06,0.0,-1.8,51.91,-37.36,0.0,0.0,0.0,0.0,0.0,0.0,0.0,0.0,0.0,0.0,0.0,0.0,0.0,0.0,0.0,0.0,0.0,0.0,0.0,0.0,0.0,0.0
,,93232.805338,3.434884786605835,0.0,0.0,0.0,0.0,0.0,0.0,0.0,0.0,0.0,0.0,0.0,2600678.0,-0.0,0.0,-1.0,0.0,0.12,-0.06,-2.4,48.91,-39.61,2600687.0,-0.01,0.0,-1.0,0.0,0.0,0.06,-2.85,49.51,-38.41,0.0,0.0,0.0,0.0,0.0,0.0,0.0,0.0,0.0,0.0,0.0,0.0,0.0,0.0,0.0,0.0,0.0,0.0,0.0,0.0,0.0,0.0
,,93232.823272,3.4528284072875977,0.0,0.0,0.0,0.0,0.0,0.0,0.0,0.0,0.0,0.0,0.0,2600696.0,0.01,0.0,-1.02,0.06,0.0,0.06,-3.0,49.36,-38.56,2600705.0,-0.0,-0.01,-1.01,-0.12,-0.12,0.0,-3.0,49.36,-38.56,0.0,0.0,0.0,0.0,0.0,0.0,0.0,0.0,0.0,0.0,0.0,0.0,0.0,0.0,0.0,0.0,0.0,0.0,0.0,0.0,0.0,0.0
,,93232.841147,3.470717191696167,0.0,0.0,0.0,0.0,0.0,0.0,0.0,0.0,0.0,0.0,0.0,2600714.0,-0.0,-0.0,-1.02,0.06,-0.18,0.06,-3.3,51.61,-40.06,2600723.0,-0.01,0.01,-1.02,0.0,-0.12,0.0,-1.95,50.71,-38.56,0.0,0.0,0.0,0.0,0.0,0.0,0.0,0.0,0.0,0.0,0.0,0.0,0.0,0.0,0.0,0.0,0.0,0.0,0.0,0.0,0.0,0.0
,,93232.858873,3.4884378910064697,0.0,0.0,0.0,0.0,0.0,0.0,0.0,0.0,0.0,0.0,0.0,2600732.0,0.0,0.01,-1.01,0.0,0.0,-0.06,-2.55,51.61,-37.36,2600740.0,-0.0,0.0,-1.01,0.06,0.0,-0.06,-3.3,50.56,-37.36,0.0,0.0,0.0,0.0,0.0,0.0,0.0,0.0,0.0,0.0,0.0,0.0,0.0,0.0,0.0,0.0,0.0,0.0,0.0,0.0,0.0,0.0
,,93232.876523,3.506077527999878,0.0,0.0,0.0,0.0,0.0,0.0,0.0,0.0,0.0,0.0,0.0,2600749.0,0.0,-0.0,-1.01,0.06,0.0,0.06,-1.8,51.91,-39.76,2600758.0,0.0,0.0,-1.0,-0.06,-0.12,0.0,-2.85,50.86,-37.96,0.0,0.0,0.0,0.0,0.0,0.0,0.0,0.0,0.0,0.0,0.0,0.0,0.0,0.0,0.0,0.0,0.0,0.0,0.0,0.0,0.0,0.0
,,93232.894629,3.5241777896881104,0.0,0.0,0.0,0.0,0.0,0.0,0.0,0.0,0.0,0.0,0.0,2600767.0,-0.0,-0.0,-1.0,-0.06,-0.24,0.0,-2.85,50.26,-38.71,2600776.0,-0.01,0.0,-1.01,0.06,-0.18,0.12,-2.25,49.51,-40.36,0.0,0.0,0.0,0.0,0.0,0.0,0.0,0.0,0.0,0.0,0.0,0.0,0.0,0.0,0.0,0.0,0.0,0.0,0.0,0.0,0.0,0.0
,,93232.944976,3.5745248794555664,0.0,0.0,0.0,0.0,0.0,0.0,0.0,0.0,0.0,0.0,0.0,2600785.0,-0.01,-0.0,-1.0,0.0,-0.18,0.0,-2.25,49.51,-40.36,2600826.0,0.0,-0.01,-1.01,-0.06,-0.06,-0.06,-3.6,50.86,-38.71,0.0,0.0,0.0,0.0,0.0,0.0,0.0,0.0,0.0,0.0,0.0,0.0,0.0,0.0,0.0,0.0,0.0,0.0,0.0,0.0,0.0,0.0
,,93232.962558,3.5920968055725098,0.0,0.0,0.0,0.0,0.0,0.0,0.0,0.0,0.0,0.0,0.0,2600836.0,-0.0,-0.0,-1.01,-0.06,-0.18,0.0,-3.6,50.86,-38.71,2600844.0,-0.01,-0.01,-1.01,-0.06,-0.06,0.0,0.3,50.26,-39.31,0.0,0.0,0.0,0.0,0.0,0.0,0.0,0.0,0.0,0.0,0.0,0.0,0.0,0.0,0.0,0.0,0.0,0.0,0.0,0.0,0.0,0.0
,,93232.98071,3.6102516651153564,0.0,0.0,0.0,0.0,0.0,0.0,0.0,0.0,0.0,0.0,0.0,2600853.0,-0.01,-0.01,-1.0,0.0,-0.06,-0.06,-3.6,50.86,-37.66,2600862.0,-0.01,0.0,-1.01,-0.06,-0.12,0.06,-3.3,50.56,-37.36,0.0,0.0,0.0,0.0,0.0,0.0,0.0,0.0,0.0,0.0,0.0,0.0,0.0,0.0,0.0,0.0,0.0,0.0,0.0,0.0,0.0,0.0
,,93232.998499,3.6280527114868164,0.0,0.0,0.0,0.0,0.0,0.0,0.0,0.0,0.0,0.0,0.0,2600871.0,-0.01,-0.0,-1.0,-0.18,-0.12,0.0,-3.75,51.16,-38.56,2600880.0,0.0,-0.0,-1.01,-0.06,-0.12,-0.12,-2.25,51.31,-38.71,0.0,0.0,0.0,0.0,0.0,0.0,0.0,0.0,0.0,0.0,0.0,0.0,0.0,0.0,0.0,0.0,0.0,0.0,0.0,0.0,0.0,0.0
,,93233.016441,3.6459805965423584,0.0,0.0,0.0,0.0,0.0,0.0,0.0,0.0,0.0,0.0,0.0,2600889.0,0.0,0.01,-1.01,-0.06,-0.06,-0.06,-1.8,50.26,-37.66,2600898.0,-0.01,-0.0,-1.02,0.0,0.0,-0.06,-1.65,49.66,-38.86,0.0,0.0,0.0,0.0,0.0,0.0,0.0,0.0,0.0,0.0,0.0,0.0,0.0,0.0,0.0,0.0,0.0,0.0,0.0,0.0,0.0,0.0
,,93233.034338,3.66388201713562,0.0,0.0,0.0,0.0,0.0,0.0,0.0,0.0,0.0,0.0,0.0,2600907.0,-0.0,0.0,-1.0,0.0,-0.06,0.0,-2.85,49.81,-38.71,2600916.0,-0.0,0.0,-1.0,-0.06,-0.18,0.0,-2.55,50.56,-38.41,0.0,0.0,0.0,0.0,0.0,0.0,0.0,0.0,0.0,0.0,0.0,0.0,0.0,0.0,0.0,0.0,0.0,0.0,0.0,0.0,0.0,0.0
,,93233.051967,3.6815011501312256,0.0,0.0,0.0,0.0,0.0,0.0,0.0,0.0,0.0,0.0,0.0,2600925.0,-0.0,0.0,-1.01,-0.06,-0.12,-0.06,-2.55,50.56,-38.41,2600934.0,-0.0,0.0,-1.0,0.0,-0.06,-0.12,-1.65,49.96,-39.16,0.0,0.0,0.0,0.0,0.0,0.0,0.0,0.0,0.0,0.0,0.0,0.0,0.0,0.0,0.0,0.0,0.0,0.0,0.0,0.0,0.0,0.0
,,93233.103164,3.732705593109131,0.0,0.0,0.0,0.0,0.0,0.0,0.0,0.0,0.0,0.0,0.0,2600943.0,-0.0,-0.0,-1.01,-0.06,-0.06,0.06,-1.65,49.96,-38.86,2600985.0,-0.0,-0.01,-1.01,0.0,0.0,0.06,-1.65,49.36,-36.46,0.0,0.0,0.0,0.0,0.0,0.0,0.0,0.0,0.0,0.0,0.0,0.0,0.0,0.0,0.0,0.0,0.0,0.0,0.0,0.0,0.0,0.0
,,93233.121193,3.750739574432373,0.0,0.0,0.0,0.0,0.0,0.0,0.0,0.0,0.0,0.0,0.0,2600994.0,-0.0,0.0,-1.01,-0.12,-0.18,0.0,-2.55,49.51,-38.41,2601003.0,-0.01,-0.0,-1.01,-0.06,-0.24,0.0,-2.7,49.66,-39.91,0.0,0.0,0.0,0.0,0.0,0.0,0.0,0.0,0.0,0.0,0.0,0.0,0.0,0.0,0.0,0.0,0.0,0.0,0.0,0.0,0.0,0.0
,,93233.139702,3.769254207611084,0.0,0.0,0.0,0.0,0.0,0.0,0.0,0.0,0.0,0.0,0.0,2601012.0,-0.0,0.0,-1.0,-0.06,-0.18,0.06,-0.9,49.96,-38.56,2601021.0,0.01,-0.01,-1.0,-0.06,-0.12,-0.06,-3.3,48.46,-39.76,0.0,0.0,0.0,0.0,0.0,0.0,0.0,0.0,0.0,0.0,0.0,0.0,0.0,0.0,0.0,0.0,0.0,0.0,0.0,0.0,0.0,0.0
,,93233.157188,3.786733865737915,0.0,0.0,0.0,0.0,0.0,0.0,0.0,0.0,0.0,0.0,0.0,2601030.0,0.0,-0.0,-1.02,0.0,-0.06,0.0,-2.85,49.81,-39.31,2601039.0,0.0,-0.0,-1.02,0.0,0.0,-0.06,-3.0,49.96,-39.91,0.0,0.0,0.0,0.0,0.0,0.0,0.0,0.0,0.0,0.0,0.0,0.0,0.0,0.0,0.0,0.0,0.0,0.0,0.0,0.0,0.0,0.0
,,93233.17546,3.8050272464752197,0.0,0.0,0.0,0.0,0.0,0.0,0.0,0.0,0.0,0.0,0.0,2601048.0,0.0,0.0,-1.01,-0.12,-0.18,0.0,-2.25,51.91,-40.06,2601057.0,-0.0,0.0,-1.01,-0.06,-0.06,0.0,-2.25,49.81,-38.41,0.0,0.0,0.0,0.0,0.0,0.0,0.0,0.0,0.0,0.0,0.0,0.0,0.0,0.0,0.0,0.0,0.0,0.0,0.0,0.0,0.0,0.0
,,93233.193576,3.823131561279297,0.0,0.0,0.0,0.0,0.0,0.0,0.0,0.0,0.0,0.0,0.0,2601066.0,-0.01,-0.0,-1.02,0.0,0.06,0.06,-2.25,49.81,-38.41,2601075.0,0.0,-0.0,-1.01,0.0,0.0,-0.06,-3.3,49.81,-37.66,0.0,0.0,0.0,0.0,0.0,0.0,0.0,0.0,0.0,0.0,0.0,0.0,0.0,0.0,0.0,0.0,0.0,0.0,0.0,0.0,0.0,0.0
,,93233.21125,3.8408219814300537,0.0,0.0,0.0,0.0,0.0,0.0,0.0,0.0,0.0,0.0,0.0,2601084.0,-0.0,-0.01,-1.02,0.0,0.0,0.12,-2.25,49.81,-39.76,2601092.0,-0.0,-0.0,-1.01,0.0,0.0,0.06,-3.75,51.46,-38.26,0.0,0.0,0.0,0.0,0.0,0.0,0.0,0.0,0.0,0.0,0.0,0.0,0.0,0.0,0.0,0.0,0.0,0.0,0.0,0.0,0.0,0.0
,,93233.261069,3.8906373977661133,0.0,0.0,0.0,0.0,0.0,0.0,0.0,0.0,0.0,0.0,0.0,2601101.0,-0.0,-0.0,-1.02,-0.12,-0.12,-0.18,-2.25,51.61,-37.96,2601143.0,-0.0,0.0,-1.01,0.0,0.12,0.0,-0.9,49.36,-38.56,0.0,0.0,0.0,0.0,0.0,0.0,0.0,0.0,0.0,0.0,0.0,0.0,0.0,0.0,0.0,0.0,0.0,0.0,0.0,0.0,0.0,0.0
,,93233.279456,3.9090192317962646,0.0,0.0,0.0,0.0,0.0,0.0,0.0,0.0,0.0,0.0,0.0,2601152.0,-0.01,0.01,-1.0,-0.06,-0.06,-0.06,-1.65,51.16,-38.56,2601161.0,0.0,-0.0,-1.01,0.0,0.0,-0.12,-3.3,49.81,-39.01,0.0,0.0,0.0,0.0,0.0,0.0,0.0,0.0,0.0,0.0,0.0,0.0,0.0,0.0,0.0,0.0,0.0,0.0,0.0,0.0,0.0,0.0
,,93233.29741,3.9269886016845703,0.0,0.0,0.0,0.0,0.0,0.0,0.0,0.0,0.0,0.0,0.0,2601170.0,0.0,-0.0,-1.01,-0.18,-0.06,-0.12,-1.65,50.41,-39.16,2601179.0,0.01,-0.0,-1.0,0.0,0.06,0.06,-2.55,49.21,-37.96,0.0,0.0,0.0,0.0,0.0,0.0,0.0,0.0,0.0,0.0,0.0,0.0,0.0,0.0,0.0,0.0,0.0,0.0,0.0,0.0,0.0,0.0
,,93233.314618,3.944143533706665,0.0,0.0,0.0,0.0,0.0,0.0,0.0,0.0,0.0,0.0,0.0,2601187.0,0.0,0.0,-1.0,-0.06,-0.12,0.12,-3.0,51.46,-39.61,2601197.0,-0.0,-0.0,-1.0,0.12,-0.06,-0.06,-4.5,49.96,-38.86,0.0,0.0,0.0,0.0,0.0,0.0,0.0,0.0,0.0,0.0,0.0,0.0,0.0,0.0,0.0,0.0,0.0,0.0,0.0,0.0,0.0,0.0
,,93233.332435,3.9619815349578857,0.0,0.0,0.0,0.0,0.0,0.0,0.0,0.0,0.0,0.0,0.0,2601206.0,-0.01,-0.0,-1.01,-0.12,-0.12,0.0,-4.5,49.96,-38.86,2601215.0,-0.01,-0.01,-1.02,0.0,0.0,0.0,-1.95,49.66,-38.86,0.0,0.0,0.0,0.0,0.0,0.0,0.0,0.0,0.0,0.0,0.0,0.0,0.0,0.0,0.0,0.0,0.0,0.0,0.0,0.0,0.0,0.0
,,93233.350363,3.9799301624298096,0.0,0.0,0.0,0.0,0.0,0.0,0.0,0.0,0.0,0.0,0.0,2601223.0,-0.01,-0.0,-1.0,-0.06,-0.06,-0.12,-2.7,52.21,-39.16,2601233.0,-0.0,-0.01,-1.01,0.06,0.0,0.0,-4.35,50.26,-39.01,0.0,0.0,0.0,0.0,0.0,0.0,0.0,0.0,0.0,0.0,0.0,0.0,0.0,0.0,0.0,0.0,0.0,0.0,0.0,0.0,0.0,0.0
,,93233.368613,3.9981658458709717,0.0,0.0,0.0,0.0,0.0,0.0,0.0,0.0,0.0,0.0,0.0,2601241.0,0.0,-0.01,-1.02,0.06,-0.06,-0.18,-2.55,50.26,-39.76,2601250.0,0.01,0.01,-1.01,0.06,-0.06,0.0,-2.55,49.81,-39.01,0.0,0.0,0.0,0.0,0.0,0.0,0.0,0.0,0.0,0.0,0.0,0.0,0.0,0.0,0.0,0.0,0.0,0.0,0.0,0.0,0.0,0.0
,,93233.420223,4.049771070480347,0.0,0.0,0.0,0.0,0.0,0.0,0.0,0.0,0.0,0.0,0.0,2601259.0,0.01,-0.0,-1.01,-0.06,-0.12,0.0,-1.5,50.56,-40.36,2601302.0,-0.0,0.01,-1.02,0.06,0.06,0.06,-3.75,48.91,-37.21,0.0,0.0,0.0,0.0,0.0,0.0,0.0,0.0,0.0,0.0,0.0,0.0,0.0,0.0,0.0,0.0,0.0,0.0,0.0,0.0,0.0,0.0
,,93233.437696,4.067262172698975,0.0,0.0,0.0,0.0,0.0,0.0,0.0,0.0,0.0,0.0,0.0,2601311.0,-0.0,0.0,-1.01,0.0,-0.06,-0.12,-2.25,52.36,-37.96,2601320.0,0.0,-0.0,-1.01,0.06,0.0,0.0,-2.55,50.86,-38.71,0.0,0.0,0.0,0.0,0.0,0.0,0.0,0.0,0.0,0.0,0.0,0.0,0.0,0.0,0.0,0.0,0.0,0.0,0.0,0.0,0.0,0.0
,,93233.455608,4.085174560546875,0.0,0.0,0.0,0.0,0.0,0.0,0.0,0.0,0.0,0.0,0.0,2601328.0,-0.01,-0.0,-1.0,0.06,0.0,-0.06,-2.7,48.91,-38.86,2601337.0,-0.0,0.0,-1.01,0.06,-0.12,0.0,-3.0,50.71,-37.81,0.0,0.0,0.0,0.0,0.0,0.0,0.0,0.0,0.0,0.0,0.0,0.0,0.0,0.0,0.0,0.0,0.0,0.0,0.0,0.0,0.0,0.0
,,93233.473254,4.102819204330444,0.0,0.0,0.0,0.0,0.0,0.0,0.0,0.0,0.0,0.0,0.0,2601346.0,-0.0,0.0,-1.0,0.0,0.12,-0.06,-1.5,50.56,-39.01,2601355.0,-0.0,0.0,-1.01,0.0,0.06,-0.12,-1.5,50.56,-39.01,0.0,0.0,0.0,0.0,0.0,0.0,0.0,0.0,0.0,0.0,0.0,0.0,0.0,0.0,0.0,0.0,0.0,0.0,0.0,0.0,0.0,0.0
,,93233.491539,4.121082067489624,0.0,0.0,0.0,0.0,0.0,0.0,0.0,0.0,0.0,0.0,0.0,2601364.0,0.0,-0.0,-1.01,-0.06,-0.12,-0.06,-4.5,49.96,-38.56,2601373.0,0.0,-0.01,-1.01,-0.18,-0.12,-0.06,-2.85,50.56,-37.96,0.0,0.0,0.0,0.0,0.0,0.0,0.0,0.0,0.0,0.0,0.0,0.0,0.0,0.0,0.0,0.0,0.0,0.0,0.0,0.0,0.0,0.0
,,93233.510002,4.13956093788147,0.0,0.0,0.0,0.0,0.0,0.0,0.0,0.0,0.0,0.0,0.0,2601382.0,-0.0,-0.0,-1.01,0.06,0.0,-0.06,-2.55,50.26,-37.36,2601391.0,-0.01,-0.0,-1.02,-0.06,-0.06,-0.12,-2.55,50.26,-39.31,0.0,0.0,0.0,0.0,0.0,0.0,0.0,0.0,0.0,0.0,0.0,0.0,0.0,0.0,0.0,0.0,0.0,0.0,0.0,0.0,0.0,0.0
,,93233.52797,4.1575236320495605,0.0,0.0,0.0,0.0,0.0,0.0,0.0,0.0,0.0,0.0,0.0,2601400.0,-0.01,0.01,-1.03,0.06,0.06,0.06,-1.8,49.21,-39.01,2601409.0,-0.0,-0.01,-1.01,0.0,-0.06,0.0,-2.85,49.81,-38.41,0.0,0.0,0.0,0.0,0.0,0.0,0.0,0.0,0.0,0.0,0.0,0.0,0.0,0.0,0.0,0.0,0.0,0.0,0.0,0.0,0.0,0.0
,,93233.578767,4.208323001861572,0.0,0.0,0.0,0.0,0.0,0.0,0.0,0.0,0.0,0.0,0.0,2601418.0,0.01,-0.0,-1.01,0.0,-0.06,-0.12,-2.55,50.86,-37.96,2601460.0,0.0,-0.01,-1.01,0.0,-0.06,-0.06,-0.75,49.81,-37.96,0.0,0.0,0.0,0.0,0.0,0.0,0.0,0.0,0.0,0.0,0.0,0.0,0.0,0.0,0.0,0.0,0.0,0.0,0.0,0.0,0.0,0.0
,,93233.596915,4.226475477218628,0.0,0.0,0.0,0.0,0.0,0.0,0.0,0.0,0.0,0.0,0.0,2601469.0,-0.01,-0.0,-1.02,0.0,-0.12,-0.12,-1.35,48.91,-38.86,2601478.0,-0.0,-0.0,-1.01,-0.06,-0.12,-0.06,-3.0,49.66,-38.56,0.0,0.0,0.0,0.0,0.0,0.0,0.0,0.0,0.0,0.0,0.0,0.0,0.0,0.0,0.0,0.0,0.0,0.0,0.0,0.0,0.0,0.0
,,93233.614863,4.244422674179077,0.0,0.0,0.0,0.0,0.0,0.0,0.0,0.0,0.0,0.0,0.0,2601487.0,-0.02,-0.01,-1.0,0.06,0.06,0.0,-3.0,50.41,-38.26,2601496.0,0.0,-0.01,-1.01,0.0,0.0,0.06,-1.35,51.16,-36.76,0.0,0.0,0.0,0.0,0.0,0.0,0.0,0.0,0.0,0.0,0.0,0.0,0.0,0.0,0.0,0.0,0.0,0.0,0.0,0.0,0.0,0.0
,,93233.632352,4.26188850402832,0.0,0.0,0.0,0.0,0.0,0.0,0.0,0.0,0.0,0.0,0.0,2601505.0,-0.0,-0.0,-1.0,-0.12,-0.06,-0.06,-1.35,51.16,-36.76,2601514.0,0.0,0.0,-1.0,-0.18,-0.06,-0.12,-2.25,51.31,-39.01,0.0,0.0,0.0,0.0,0.0,0.0,0.0,0.0,0.0,0.0,0.0,0.0,0.0,0.0,0.0,0.0,0.0,0.0,0.0,0.0,0.0,0.0
,,93233.65019,4.279725790023804,0.0,0.0,0.0,0.0,0.0,0.0,0.0,0.0,0.0,0.0,0.0,2601523.0,-0.0,-0.0,-1.01,-0.06,-0.18,0.0,-3.45,50.41,-38.26,2601532.0,0.01,-0.01,-1.01,0.0,-0.12,-0.12,-2.7,51.16,-37.81,0.0,0.0,0.0,0.0,0.0,0.0,0.0,0.0,0.0,0.0,0.0,0.0,0.0,0.0,0.0,0.0,0.0,0.0,0.0,0.0,0.0,0.0
,,93233.66821,4.297742128372192,0.0,0.0,0.0,0.0,0.0,0.0,0.0,0.0,0.0,0.0,0.0,2601541.0,-0.01,0.0,-1.0,0.06,0.06,0.06,-2.4,50.41,-37.51,2601550.0,-0.01,-0.0,-1.0,-0.06,-0.12,0.06,-1.5,50.56,-38.71,0.0,0.0,0.0,0.0,0.0,0.0,0.0,0.0,0.0,0.0,0.0,0.0,0.0,0.0,0.0,0.0,0.0,0.0,0.0,0.0,0.0,0.0
,,93233.686981,4.316530227661133,0.0,0.0,0.0,0.0,0.0,0.0,0.0,0.0,0.0,0.0,0.0,2601559.0,-0.0,0.0,-1.01,0.12,0.06,-0.06,-2.55,50.26,-38.71,2601568.0,0.0,-0.0,-1.0,0.12,-0.06,-0.12,-1.5,50.56,-40.36,0.0,0.0,0.0,0.0,0.0,0.0,0.0,0.0,0.0,0.0,0.0,0.0,0.0,0.0,0.0,0.0,0.0,0.0,0.0,0.0,0.0,0.0
,,93233.738301,4.36785101890564,0.0,0.0,0.0,0.0,0.0,0.0,0.0,0.0,0.0,0.0,0.0,2601577.0,-0.0,-0.0,-1.03,-0.06,-0.06,0.0,-2.25,49.81,-37.96,2601620.0,-0.01,-0.0,-1.01,-0.06,-0.06,0.0,-1.35,49.66,-36.16,0.0,0.0,0.0,0.0,0.0,0.0,0.0,0.0,0.0,0.0,0.0,0.0,0.0,0.0,0.0,0.0,0.0,0.0,0.0,0.0,0.0,0.0
,,93233.756072,4.385619640350342,0.0,0.0,0.0,0.0,0.0,0.0,0.0,0.0,0.0,0.0,0.0,2601629.0,-0.01,0.01,-1.02,-0.06,-0.12,0.0,-1.8,50.56,-37.36,2601638.0,0.01,0.0,-1.01,-0.18,-0.06,0.0,-3.3,49.51,-38.41,0.0,0.0,0.0,0.0,0.0,0.0,0.0,0.0,0.0,0.0,0.0,0.0,0.0,0.0,0.0,0.0,0.0,0.0,0.0,0.0,0.0,0.0
,,93233.774529,4.40409517288208,0.0,0.0,0.0,0.0,0.0,0.0,0.0,0.0,0.0,0.0,0.0,2601647.0,0.01,0.01,-1.0,-0.06,-0.12,-0.06,-1.95,50.71,-38.26,2601656.0,0.0,-0.0,-1.0,-0.06,-0.06,0.12,-3.9,51.91,-39.31,0.0,0.0,0.0,0.0,0.0,0.0,0.0,0.0,0.0,0.0,0.0,0.0,0.0,0.0,0.0,0.0,0.0,0.0,0.0,0.0,0.0,0.0
,,93233.791912,4.421457767486572,0.0,0.0,0.0,0.0,0.0,0.0,0.0,0.0,0.0,0.0,0.0,2601665.0,-0.0,-0.0,-1.01,-0.12,-0.06,-0.12,-3.9,51.91,-39.31,2601674.0,-0.01,0.0,-1.0,0.0,0.0,-0.06,-2.25,50.86,-38.71,0.0,0.0,0.0,0.0,0.0,0.0,0.0,0.0,0.0,0.0,0.0,0.0,0.0,0.0,0.0,0.0,0.0,0.0,0.0,0.0,0.0,0.0
,,93233.810235,4.439779758453369,0.0,0.0,0.0,0.0,0.0,0.0,0.0,0.0,0.0,0.0,0.0,2601683.0,0.0,-0.0,-1.01,-0.06,-0.18,-0.06,-3.0,50.41,-38.86,2601692.0,-0.0,-0.0,-1.02,0.06,0.0,-0.06,-2.85,50.26,-38.41,0.0,0.0,0.0,0.0,0.0,0.0,0.0,0.0,0.0,0.0,0.0,0.0,0.0,0.0,0.0,0.0,0.0,0.0,0.0,0.0,0.0,0.0
,,93233.827601,4.457169771194458,0.0,0.0,0.0,0.0,0.0,0.0,0.0,0.0,0.0,0.0,0.0,2601701.0,0.0,0.0,-1.0,0.0,0.06,0.0,-2.7,52.21,-37.81,2601709.0,-0.0,-0.01,-1.01,0.0,0.0,0.0,-2.25,50.86,-37.96,0.0,0.0,0.0,0.0,0.0,0.0,0.0,0.0,0.0,0.0,0.0,0.0,0.0,0.0,0.0,0.0,0.0,0.0,0.0,0.0,0.0,0.0
,,93233.84566,4.475207567214966,0.0,0.0,0.0,0.0,0.0,0.0,0.0,0.0,0.0,0.0,0.0,2601718.0,0.0,0.0,-1.01,0.12,-0.06,0.12,-3.0,50.71,-38.26,2601727.0,-0.01,-0.01,-1.01,0.0,-0.06,0.06,-3.6,49.81,-38.41,0.0,0.0,0.0,0.0,0.0,0.0,0.0,0.0,0.0,0.0,0.0,0.0,0.0,0.0,0.0,0.0,0.0,0.0,0.0,0.0,0.0,0.0
,,93233.897193,4.526741981506348,0.0,0.0,0.0,0.0,0.0,0.0,0.0,0.0,0.0,0.0,0.0,2601736.0,0.0,0.0,-1.01,0.18,0.0,0.0,-0.9,49.66,-39.91,2601778.0,-0.0,0.02,-0.62,-543.54,830.79,-838.23,0.6,49.21,-37.36,0.0,0.0,0.0,0.0,0.0,0.0,0.0,0.0,0.0,0.0,0.0,0.0,0.0,0.0,0.0,0.0,0.0,0.0,0.0,0.0,0.0,0.0
,,93233.979993,4.609550952911377,0.0,0.0,0.0,0.0,0.0,0.0,0.0,0.0,0.0,0.0,0.0,2601851.0,-0.0,0.0,-1.01,0.0,0.06,-0.12,-2.55,49.21,-39.01,2601862.0,0.0,0.0,-1.02,0.0,0.0,-0.12,-2.25,50.26,-38.71,0.0,0.0,0.0,0.0,0.0,0.0,0.0,0.0,0.0,0.0,0.0,0.0,0.0,0.0,0.0,0.0,0.0,0.0,0.0,0.0,0.0,0.0
,,93233.999946,4.629483461380005,0.0,0.0,0.0,0.0,0.0,0.0,0.0,0.0,0.0,0.0,0.0,2601872.0,-0.0,-0.0,-1.02,0.0,0.06,-0.06,-3.3,50.26,-38.71,2601882.0,-0.0,0.0,-1.02,0.0,0.12,0.0,-3.3,50.56,-38.41,0.0,0.0,0.0,0.0,0.0,0.0,0.0,0.0,0.0,0.0,0.0,0.0,0.0,0.0,0.0,0.0,0.0,0.0,0.0,0.0,0.0,0.0
