name,date,time,time_since_start,vicon_sequence,vicon_time_stamp,vicon_frame_id,vicon_child_frame_id,vicon_translation_x,vicon_translation_y,vicon_translation_z,vicon_rotation_x,vicon_rotation_y,vicon_rotation_z,vicon_rotation_w,int_imu_time_stamp,int_imu_acc_x,int_imu_acc_y,int_imu_acc_z,int_imu_gyro_x,int_imu_gyro_y,int_imu_gyro_z,int_imu_mag_x,int_imu_mag_y,int_imu_mag_z,ext_imu_time_stamp,ext_imu_acc_x,ext_imu_acc_y,ext_imu_acc_z,ext_imu_gyro_x,ext_imu_gyro_y,ext_imu_gyro_z,ext_imu_mag_x,ext_imu_mag_y,ext_imu_mag_z,dji_imu_sequence,dji_imu_time_stamp,dji_imu_frame_id,dji_imu_orientation_x,dji_imu_orientation_y,dji_imu_orientation_z,dji_imu_orientation_w,dji_imu_ang_vel_x,dji_imu_ang_vel_y,dji_imu_ang_vel_z,dji_imu_lin_acc_x,dji_imu_lin_acc_y,dji_imu_lin_acc_z,rc_sequence,rc_time_stamp,rc_frame_id,rc_roll,rc_pitch,rc_yaw,rc_throttle,rc_mode,rc_landing_gear
test.csv,20201030,130955.423497,4.839897155761719e-05,0.0,0.0,0.0,0.0,0.0,0.0,0.0,0.0,0.0,0.0,0.0,0,1,2,3,4,5,6,7,8,9,8138.0,-0.88,-0.07,0.46,-1.1,-1.52,-0.49,-7.95,222.06,71.57,0.0,0.0,0.0,0.0,0.0,0.0,0.0,0.0,0.0,0.0,0.0,0.0,0.0,0.0,0.0,0.0,0.0,0.0,0.0,0.0,0.0,0.0
,,130955.424096,0.0006351470947265625,0.0,0.0,0.0,0.0,0.0,0.0,0.0,0.0,0.0,0.0,0.0,0,1,2,3,4,5,6,7,8,9,8165.0,-0.88,-0.07,0.47,-1.1,-1.65,-0.49,-8.7,221.61,70.52,0.0,0.0,0.0,0.0,0.0,0.0,0.0,0.0,0.0,0.0,0.0,0.0,0.0,0.0,0.0,0.0,0.0,0.0,0.0,0.0,0.0,0.0
,,130955.444268,0.020829200744628906,0.0,0.0,0.0,0.0,0.0,0.0,0.0,0.0,0.0,0.0,0.0,0,1,2,3,4,5,6,7,8,9,8184.0,-0.87,-0.08,0.47,-1.16,-1.46,-0.49,-6.45,222.51,72.02,0.0,0.0,0.0,0.0,0.0,0.0,0.0,0.0,0.0,0.0,0.0,0.0,0.0,0.0,0.0,0.0,0.0,0.0,0.0,0.0,0.0,0.0
,,130955.464275,0.04083824157714844,0.0,0.0,0.0,0.0,0.0,0.0,0.0,0.0,0.0,0.0,0.0,0,1,2,3,4,5,6,7,8,9,8202.0,-0.87,-0.08,0.45,-1.1,-1.71,-0.55,-9.6,221.16,71.12,0.0,0.0,0.0,0.0,0.0,0.0,0.0,0.0,0.0,0.0,0.0,0.0,0.0,0.0,0.0,0.0,0.0,0.0,0.0,0.0,0.0,0.0
,,130955.484259,0.060810089111328125,0.0,0.0,0.0,0.0,0.0,0.0,0.0,0.0,0.0,0.0,0.0,0,1,2,3,4,5,6,7,8,9,8228.0,-0.87,-0.07,0.47,-1.1,-1.59,-0.49,-8.25,222.36,71.87,0.0,0.0,0.0,0.0,0.0,0.0,0.0,0.0,0.0,0.0,0.0,0.0,0.0,0.0,0.0,0.0,0.0,0.0,0.0,0.0,0.0,0.0
,,130955.504091,0.08063340187072754,0.0,0.0,0.0,0.0,0.0,0.0,0.0,0.0,0.0,0.0,0.0,0,1,2,3,4,5,6,7,8,9,8246.0,-0.88,-0.08,0.46,-1.04,-1.59,-0.49,-8.1,222.21,71.42,0.0,0.0,0.0,0.0,0.0,0.0,0.0,0.0,0.0,0.0,0.0,0.0,0.0,0.0,0.0,0.0,0.0,0.0,0.0,0.0,0.0,0.0
,,130955.523992,0.10051631927490234,0.0,0.0,0.0,0.0,0.0,0.0,0.0,0.0,0.0,0.0,0.0,0,1,2,3,4,5,6,7,8,9,8246.0,-0.88,-0.08,0.46,-1.04,-1.59,-0.49,-8.1,222.21,71.42,0.0,0.0,0.0,0.0,0.0,0.0,0.0,0.0,0.0,0.0,0.0,0.0,0.0,0.0,0.0,0.0,0.0,0.0,0.0,0.0,0.0,0.0
,,130955.544045,0.12057209014892578,0.0,0.0,0.0,0.0,0.0,0.0,0.0,0.0,0.0,0.0,0.0,0,1,2,3,4,5,6,7,8,9,8246.0,-0.88,-0.08,0.46,-1.04,-1.59,-0.49,-8.1,222.21,71.42,0.0,0.0,0.0,0.0,0.0,0.0,0.0,0.0,0.0,0.0,0.0,0.0,0.0,0.0,0.0,0.0,0.0,0.0,0.0,0.0,0.0,0.0
,,130955.564051,0.14058995246887207,0.0,0.0,0.0,0.0,0.0,0.0,0.0,0.0,0.0,0.0,0.0,0,1,2,3,4,5,6,7,8,9,8246.0,-0.88,-0.08,0.46,-1.04,-1.59,-0.49,-8.1,222.21,71.42,0.0,0.0,0.0,0.0,0.0,0.0,0.0,0.0,0.0,0.0,0.0,0.0,0.0,0.0,0.0,0.0,0.0,0.0,0.0,0.0,0.0,0.0
,,130955.584027,0.16055631637573242,0.0,0.0,0.0,0.0,0.0,0.0,0.0,0.0,0.0,0.0,0.0,0,1,2,3,4,5,6,7,8,9,8323.0,-0.87,-0.08,0.47,-1.04,-1.59,-0.37,-6.15,221.01,74.27,0.0,0.0,0.0,0.0,0.0,0.0,0.0,0.0,0.0,0.0,0.0,0.0,0.0,0.0,0.0,0.0,0.0,0.0,0.0,0.0,0.0,0.0
,,130955.60397,0.18049168586730957,0.0,0.0,0.0,0.0,0.0,0.0,0.0,0.0,0.0,0.0,0.0,0,1,2,3,4,5,6,7,8,9,8341.0,-0.87,-0.08,0.48,-1.1,-1.59,-0.37,-7.8,221.76,72.47,0.0,0.0,0.0,0.0,0.0,0.0,0.0,0.0,0.0,0.0,0.0,0.0,0.0,0.0,0.0,0.0,0.0,0.0,0.0,0.0,0.0,0.0
,,130955.624052,0.20057964324951172,0.0,0.0,0.0,0.0,0.0,0.0,0.0,0.0,0.0,0.0,0.0,0,1,2,3,4,5,6,7,8,9,8367.0,-0.88,-0.07,0.47,-1.22,-1.59,-0.43,-8.85,222.81,72.77,0.0,0.0,0.0,0.0,0.0,0.0,0.0,0.0,0.0,0.0,0.0,0.0,0.0,0.0,0.0,0.0,0.0,0.0,0.0,0.0,0.0,0.0
,,130955.643995,0.22051644325256348,0.0,0.0,0.0,0.0,0.0,0.0,0.0,0.0,0.0,0.0,0.0,0,1,2,3,4,5,6,7,8,9,8384.0,-0.87,-0.08,0.46,-1.04,-1.65,-0.43,-8.25,221.31,72.32,0.0,0.0,0.0,0.0,0.0,0.0,0.0,0.0,0.0,0.0,0.0,0.0,0.0,0.0,0.0,0.0,0.0,0.0,0.0,0.0,0.0,0.0
,,130955.663983,0.24050235748291016,0.0,0.0,0.0,0.0,0.0,0.0,0.0,0.0,0.0,0.0,0.0,0,1,2,3,4,5,6,7,8,9,8402.0,-0.88,-0.08,0.47,-1.04,-1.65,-0.49,-8.25,223.41,71.87,0.0,0.0,0.0,0.0,0.0,0.0,0.0,0.0,0.0,0.0,0.0,0.0,0.0,0.0,0.0,0.0,0.0,0.0,0.0,0.0,0.0,0.0
,,130955.683983,0.26052188873291016,0.0,0.0,0.0,0.0,0.0,0.0,0.0,0.0,0.0,0.0,0.0,0,1,2,3,4,5,6,7,8,9,8428.0,-0.88,-0.08,0.47,-1.1,-1.59,-0.55,-8.25,222.66,71.57,0.0,0.0,0.0,0.0,0.0,0.0,0.0,0.0,0.0,0.0,0.0,0.0,0.0,0.0,0.0,0.0,0.0,0.0,0.0,0.0,0.0,0.0
,,130955.703997,0.28052401542663574,0.0,0.0,0.0,0.0,0.0,0.0,0.0,0.0,0.0,0.0,0.0,0,1,2,3,4,5,6,7,8,9,8428.0,-0.88,-0.08,0.47,-1.1,-1.59,-0.55,-8.25,222.66,71.57,0.0,0.0,0.0,0.0,0.0,0.0,0.0,0.0,0.0,0.0,0.0,0.0,0.0,0.0,0.0,0.0,0.0,0.0,0.0,0.0,0.0,0.0
,,130955.724067,0.3006131649017334,0.0,0.0,0.0,0.0,0.0,0.0,0.0,0.0,0.0,0.0,0.0,0,1,2,3,4,5,6,7,8,9,8428.0,-0.88,-0.08,0.47,-1.1,-1.59,-0.55,-8.25,222.66,71.57,0.0,0.0,0.0,0.0,0.0,0.0,0.0,0.0,0.0,0.0,0.0,0.0,0.0,0.0,0.0,0.0,0.0,0.0,0.0,0.0,0.0,0.0
,,130955.744128,0.3206779956817627,0.0,0.0,0.0,0.0,0.0,0.0,0.0,0.0,0.0,0.0,0.0,0,1,2,3,4,5,6,7,8,9,8428.0,-0.88,-0.08,0.47,-1.1,-1.59,-0.55,-8.25,222.66,71.57,0.0,0.0,0.0,0.0,0.0,0.0,0.0,0.0,0.0,0.0,0.0,0.0,0.0,0.0,0.0,0.0,0.0,0.0,0.0,0.0,0.0,0.0
,,130955.76408,0.3406081199645996,0.0,0.0,0.0,0.0,0.0,0.0,0.0,0.0,0.0,0.0,0.0,0,1,2,3,4,5,6,7,8,9,8503.0,-0.88,-0.08,0.46,-1.04,-1.59,-0.55,-6.45,221.76,73.07,0.0,0.0,0.0,0.0,0.0,0.0,0.0,0.0,0.0,0.0,0.0,0.0,0.0,0.0,0.0,0.0,0.0,0.0,0.0,0.0,0.0,0.0
,,130955.78405,0.36057615280151367,0.0,0.0,0.0,0.0,0.0,0.0,0.0,0.0,0.0,0.0,0.0,0,1,2,3,4,5,6,7,8,9,8520.0,-0.87,-0.08,0.47,-0.98,-1.46,-0.55,-7.05,221.76,71.72,0.0,0.0,0.0,0.0,0.0,0.0,0.0,0.0,0.0,0.0,0.0,0.0,0.0,0.0,0.0,0.0,0.0,0.0,0.0,0.0,0.0,0.0
,,130955.80401,0.3805367946624756,0.0,0.0,0.0,0.0,0.0,0.0,0.0,0.0,0.0,0.0,0.0,0,1,2,3,4,5,6,7,8,9,8546.0,-0.87,-0.08,0.47,-0.98,-1.52,-0.49,-9.15,221.16,72.47,0.0,0.0,0.0,0.0,0.0,0.0,0.0,0.0,0.0,0.0,0.0,0.0,0.0,0.0,0.0,0.0,0.0,0.0,0.0,0.0,0.0,0.0
,,130955.824001,0.40053224563598633,0.0,0.0,0.0,0.0,0.0,0.0,0.0,0.0,0.0,0.0,0.0,0,1,2,3,4,5,6,7,8,9,8564.0,-0.88,-0.09,0.47,-1.16,-1.52,-0.67,-7.8,221.76,72.77,0.0,0.0,0.0,0.0,0.0,0.0,0.0,0.0,0.0,0.0,0.0,0.0,0.0,0.0,0.0,0.0,0.0,0.0,0.0,0.0,0.0,0.0
,,130955.844006,0.4205310344696045,0.0,0.0,0.0,0.0,0.0,0.0,0.0,0.0,0.0,0.0,0.0,0,1,2,3,4,5,6,7,8,9,8581.0,-0.87,-0.08,0.46,-1.1,-1.59,-0.55,-7.65,221.61,71.87,0.0,0.0,0.0,0.0,0.0,0.0,0.0,0.0,0.0,0.0,0.0,0.0,0.0,0.0,0.0,0.0,0.0,0.0,0.0,0.0,0.0,0.0
,,130955.863974,0.44049644470214844,0.0,0.0,0.0,0.0,0.0,0.0,0.0,0.0,0.0,0.0,0.0,0,1,2,3,4,5,6,7,8,9,8607.0,-0.88,-0.08,0.46,-0.98,-1.65,-0.55,-8.55,222.21,71.12,0.0,0.0,0.0,0.0,0.0,0.0,0.0,0.0,0.0,0.0,0.0,0.0,0.0,0.0,0.0,0.0,0.0,0.0,0.0,0.0,0.0,0.0
,,130955.884094,0.46065449714660645,0.0,0.0,0.0,0.0,0.0,0.0,0.0,0.0,0.0,0.0,0.0,0,1,2,3,4,5,6,7,8,9,8616.0,-0.88,-0.08,0.47,-1.16,-1.59,-0.43,-7.05,221.76,71.72,0.0,0.0,0.0,0.0,0.0,0.0,0.0,0.0,0.0,0.0,0.0,0.0,0.0,0.0,0.0,0.0,0.0,0.0,0.0,0.0,0.0,0.0
,,130955.904045,0.4805715084075928,0.0,0.0,0.0,0.0,0.0,0.0,0.0,0.0,0.0,0.0,0.0,0,1,2,3,4,5,6,7,8,9,8616.0,-0.88,-0.08,0.47,-1.16,-1.59,-0.43,-7.05,221.76,71.72,0.0,0.0,0.0,0.0,0.0,0.0,0.0,0.0,0.0,0.0,0.0,0.0,0.0,0.0,0.0,0.0,0.0,0.0,0.0,0.0,0.0,0.0
,,130955.924,0.500525712966919,0.0,0.0,0.0,0.0,0.0,0.0,0.0,0.0,0.0,0.0,0.0,0,1,2,3,4,5,6,7,8,9,8616.0,-0.88,-0.08,0.47,-1.16,-1.59,-0.43,-7.05,221.76,71.72,0.0,0.0,0.0,0.0,0.0,0.0,0.0,0.0,0.0,0.0,0.0,0.0,0.0,0.0,0.0,0.0,0.0,0.0,0.0,0.0,0.0,0.0
,,130955.943996,0.520540714263916,0.0,0.0,0.0,0.0,0.0,0.0,0.0,0.0,0.0,0.0,0.0,0,1,2,3,4,5,6,7,8,9,8685.0,-0.88,-0.08,0.47,-1.04,-1.65,-0.61,-9.0,221.01,74.27,0.0,0.0,0.0,0.0,0.0,0.0,0.0,0.0,0.0,0.0,0.0,0.0,0.0,0.0,0.0,0.0,0.0,0.0,0.0,0.0,0.0,0.0
,,130955.964023,0.5405499935150146,0.0,0.0,0.0,0.0,0.0,0.0,0.0,0.0,0.0,0.0,0.0,0,1,2,3,4,5,6,7,8,9,8702.0,-0.88,-0.08,0.47,-1.04,-1.52,-0.55,-8.1,222.21,72.47,0.0,0.0,0.0,0.0,0.0,0.0,0.0,0.0,0.0,0.0,0.0,0.0,0.0,0.0,0.0,0.0,0.0,0.0,0.0,0.0,0.0,0.0
,,130955.984017,0.5605432987213135,0.0,0.0,0.0,0.0,0.0,0.0,0.0,0.0,0.0,0.0,0.0,0,1,2,3,4,5,6,7,8,9,8728.0,-0.88,-0.07,0.46,-0.98,-1.46,-0.55,-8.25,222.66,74.57,0.0,0.0,0.0,0.0,0.0,0.0,0.0,0.0,0.0,0.0,0.0,0.0,0.0,0.0,0.0,0.0,0.0,0.0,0.0,0.0,0.0,0.0
,,130956.003975,0.580512285232544,0.0,0.0,0.0,0.0,0.0,0.0,0.0,0.0,0.0,0.0,0.0,0,1,2,3,4,5,6,7,8,9,8746.0,-0.88,-0.08,0.46,-0.98,-1.65,-0.55,-6.9,221.31,72.62,0.0,0.0,0.0,0.0,0.0,0.0,0.0,0.0,0.0,0.0,0.0,0.0,0.0,0.0,0.0,0.0,0.0,0.0,0.0,0.0,0.0,0.0
,,130956.02399,0.6005158424377441,0.0,0.0,0.0,0.0,0.0,0.0,0.0,0.0,0.0,0.0,0.0,0,1,2,3,4,5,6,7,8,9,8763.0,-0.87,-0.08,0.47,-1.1,-1.59,-0.49,-8.1,222.21,72.02,0.0,0.0,0.0,0.0,0.0,0.0,0.0,0.0,0.0,0.0,0.0,0.0,0.0,0.0,0.0,0.0,0.0,0.0,0.0,0.0,0.0,0.0
,,130956.043992,0.6205179691314697,0.0,0.0,0.0,0.0,0.0,0.0,0.0,0.0,0.0,0.0,0.0,0,1,2,3,4,5,6,7,8,9,8781.0,-0.87,-0.08,0.47,-1.04,-1.52,-0.49,-8.25,222.36,71.57,0.0,0.0,0.0,0.0,0.0,0.0,0.0,0.0,0.0,0.0,0.0,0.0,0.0,0.0,0.0,0.0,0.0,0.0,0.0,0.0,0.0,0.0
,,130956.064033,0.6405668258666992,0.0,0.0,0.0,0.0,0.0,0.0,0.0,0.0,0.0,0.0,0.0,0,1,2,3,4,5,6,7,8,9,8804.0,-0.87,-0.08,0.47,-1.04,-1.52,-0.61,-7.95,221.01,72.92,0.0,0.0,0.0,0.0,0.0,0.0,0.0,0.0,0.0,0.0,0.0,0.0,0.0,0.0,0.0,0.0,0.0,0.0,0.0,0.0,0.0,0.0
,,130956.083996,0.6605234146118164,0.0,0.0,0.0,0.0,0.0,0.0,0.0,0.0,0.0,0.0,0.0,0,1,2,3,4,5,6,7,8,9,8804.0,-0.87,-0.08,0.47,-1.04,-1.52,-0.61,-7.95,221.01,72.92,0.0,0.0,0.0,0.0,0.0,0.0,0.0,0.0,0.0,0.0,0.0,0.0,0.0,0.0,0.0,0.0,0.0,0.0,0.0,0.0,0.0,0.0
,,130956.104065,0.6805920600891113,0.0,0.0,0.0,0.0,0.0,0.0,0.0,0.0,0.0,0.0,0.0,0,1,2,3,4,5,6,7,8,9,8804.0,-0.87,-0.08,0.47,-1.04,-1.52,-0.61,-7.95,221.01,72.92,0.0,0.0,0.0,0.0,0.0,0.0,0.0,0.0,0.0,0.0,0.0,0.0,0.0,0.0,0.0,0.0,0.0,0.0,0.0,0.0,0.0,0.0
,,130956.124037,0.7005646228790283,0.0,0.0,0.0,0.0,0.0,0.0,0.0,0.0,0.0,0.0,0.0,0,1,2,3,4,5,6,7,8,9,8804.0,-0.87,-0.08,0.47,-1.04,-1.52,-0.61,-7.95,221.01,72.92,0.0,0.0,0.0,0.0,0.0,0.0,0.0,0.0,0.0,0.0,0.0,0.0,0.0,0.0,0.0,0.0,0.0,0.0,0.0,0.0,0.0,0.0
,,130956.144039,0.7205708026885986,0.0,0.0,0.0,0.0,0.0,0.0,0.0,0.0,0.0,0.0,0.0,0,1,2,3,4,5,6,7,8,9,8881.0,-0.88,-0.08,0.47,-1.04,-1.52,-0.61,-6.45,220.41,72.77,0.0,0.0,0.0,0.0,0.0,0.0,0.0,0.0,0.0,0.0,0.0,0.0,0.0,0.0,0.0,0.0,0.0,0.0,0.0,0.0,0.0,0.0
,,130956.164078,0.7406105995178223,0.0,0.0,0.0,0.0,0.0,0.0,0.0,0.0,0.0,0.0,0.0,0,1,2,3,4,5,6,7,8,9,8907.0,-0.88,-0.08,0.46,-1.1,-1.52,-0.55,-6.6,222.36,72.62,0.0,0.0,0.0,0.0,0.0,0.0,0.0,0.0,0.0,0.0,0.0,0.0,0.0,0.0,0.0,0.0,0.0,0.0,0.0,0.0,0.0,0.0
,,130956.184029,0.7605576515197754,0.0,0.0,0.0,0.0,0.0,0.0,0.0,0.0,0.0,0.0,0.0,0,1,2,3,4,5,6,7,8,9,8924.0,-0.88,-0.07,0.47,-1.04,-1.46,-0.49,-7.5,220.41,72.02,0.0,0.0,0.0,0.0,0.0,0.0,0.0,0.0,0.0,0.0,0.0,0.0,0.0,0.0,0.0,0.0,0.0,0.0,0.0,0.0,0.0,0.0
,,130956.203986,0.7805066108703613,0.0,0.0,0.0,0.0,0.0,0.0,0.0,0.0,0.0,0.0,0.0,0,1,2,3,4,5,6,7,8,9,8944.0,-0.88,-0.07,0.47,-0.98,-1.59,-0.49,-7.8,221.16,73.07,0.0,0.0,0.0,0.0,0.0,0.0,0.0,0.0,0.0,0.0,0.0,0.0,0.0,0.0,0.0,0.0,0.0,0.0,0.0,0.0,0.0,0.0
,,130956.224045,0.800572395324707,0.0,0.0,0.0,0.0,0.0,0.0,0.0,0.0,0.0,0.0,0.0,0,1,2,3,4,5,6,7,8,9,8964.0,-0.87,-0.08,0.47,-1.22,-1.52,-0.55,-8.25,221.31,71.27,0.0,0.0,0.0,0.0,0.0,0.0,0.0,0.0,0.0,0.0,0.0,0.0,0.0,0.0,0.0,0.0,0.0,0.0,0.0,0.0,0.0,0.0
,,130956.244027,0.8205585479736328,0.0,0.0,0.0,0.0,0.0,0.0,0.0,0.0,0.0,0.0,0.0,0,1,2,3,4,5,6,7,8,9,8984.0,-0.87,-0.08,0.48,-1.04,-1.46,-0.43,-6.75,221.46,72.02,0.0,0.0,0.0,0.0,0.0,0.0,0.0,0.0,0.0,0.0,0.0,0.0,0.0,0.0,0.0,0.0,0.0,0.0,0.0,0.0,0.0,0.0
,,130956.26398,0.8405041694641113,0.0,0.0,0.0,0.0,0.0,0.0,0.0,0.0,0.0,0.0,0.0,0,1,2,3,4,5,6,7,8,9,9004.0,-0.88,-0.07,0.46,-1.16,-1.52,-0.61,-8.55,221.76,72.77,0.0,0.0,0.0,0.0,0.0,0.0,0.0,0.0,0.0,0.0,0.0,0.0,0.0,0.0,0.0,0.0,0.0,0.0,0.0,0.0,0.0,0.0
,,130956.284021,0.8605425357818604,0.0,0.0,0.0,0.0,0.0,0.0,0.0,0.0,0.0,0.0,0.0,0,1,2,3,4,5,6,7,8,9,9024.0,-0.88,-0.07,0.46,-1.04,-1.46,-0.61,-7.05,220.41,71.72,0.0,0.0,0.0,0.0,0.0,0.0,0.0,0.0,0.0,0.0,0.0,0.0,0.0,0.0,0.0,0.0,0.0,0.0,0.0,0.0,0.0,0.0
,,130956.303987,0.8805103302001953,0.0,0.0,0.0,0.0,0.0,0.0,0.0,0.0,0.0,0.0,0.0,0,1,2,3,4,5,6,7,8,9,9043.0,-0.87,-0.08,0.47,-1.1,-1.52,-0.61,-7.95,220.26,71.27,0.0,0.0,0.0,0.0,0.0,0.0,0.0,0.0,0.0,0.0,0.0,0.0,0.0,0.0,0.0,0.0,0.0,0.0,0.0,0.0,0.0,0.0
,,130956.324072,0.9006297588348389,0.0,0.0,0.0,0.0,0.0,0.0,0.0,0.0,0.0,0.0,0.0,0,1,2,3,4,5,6,7,8,9,9063.0,-0.88,-0.07,0.47,-1.04,-1.52,-0.49,-7.95,223.11,71.87,0.0,0.0,0.0,0.0,0.0,0.0,0.0,0.0,0.0,0.0,0.0,0.0,0.0,0.0,0.0,0.0,0.0,0.0,0.0,0.0,0.0,0.0
,,130956.343999,0.920534610748291,0.0,0.0,0.0,0.0,0.0,0.0,0.0,0.0,0.0,0.0,0.0,0,1,2,3,4,5,6,7,8,9,9083.0,-0.87,-0.07,0.45,-1.04,-1.52,-0.49,-8.7,221.31,71.87,0.0,0.0,0.0,0.0,0.0,0.0,0.0,0.0,0.0,0.0,0.0,0.0,0.0,0.0,0.0,0.0,0.0,0.0,0.0,0.0,0.0,0.0
,,130956.363997,0.9405169486999512,0.0,0.0,0.0,0.0,0.0,0.0,0.0,0.0,0.0,0.0,0.0,0,1,2,3,4,5,6,7,8,9,9083.0,-0.87,-0.07,0.45,-1.04,-1.52,-0.49,-8.7,221.31,71.87,0.0,0.0,0.0,0.0,0.0,0.0,0.0,0.0,0.0,0.0,0.0,0.0,0.0,0.0,0.0,0.0,0.0,0.0,0.0,0.0,0.0,0.0
,,130956.384028,0.9605488777160645,0.0,0.0,0.0,0.0,0.0,0.0,0.0,0.0,0.0,0.0,0.0,0,1,2,3,4,5,6,7,8,9,9083.0,-0.87,-0.07,0.45,-1.04,-1.52,-0.49,-8.7,221.31,71.87,0.0,0.0,0.0,0.0,0.0,0.0,0.0,0.0,0.0,0.0,0.0,0.0,0.0,0.0,0.0,0.0,0.0,0.0,0.0,0.0,0.0,0.0
,,130956.403991,0.9805145263671875,0.0,0.0,0.0,0.0,0.0,0.0,0.0,0.0,0.0,0.0,0.0,0,1,2,3,4,5,6,7,8,9,9149.0,-0.87,-0.08,0.47,-1.1,-1.59,-0.49,-6.75,222.51,73.37,0.0,0.0,0.0,0.0,0.0,0.0,0.0,0.0,0.0,0.0,0.0,0.0,0.0,0.0,0.0,0.0,0.0,0.0,0.0,0.0,0.0,0.0
,,130956.424057,1.000584363937378,0.0,0.0,0.0,0.0,0.0,0.0,0.0,0.0,0.0,0.0,0.0,0,1,2,3,4,5,6,7,8,9,9166.0,-0.87,-0.08,0.47,-1.16,-1.59,-0.43,-9.3,222.06,73.67,0.0,0.0,0.0,0.0,0.0,0.0,0.0,0.0,0.0,0.0,0.0,0.0,0.0,0.0,0.0,0.0,0.0,0.0,0.0,0.0,0.0,0.0
,,130956.444018,1.0205397605895996,0.0,0.0,0.0,0.0,0.0,0.0,0.0,0.0,0.0,0.0,0.0,0,1,2,3,4,5,6,7,8,9,9184.0,-0.87,-0.08,0.48,-1.04,-1.59,-0.43,-9.0,222.06,71.87,0.0,0.0,0.0,0.0,0.0,0.0,0.0,0.0,0.0,0.0,0.0,0.0,0.0,0.0,0.0,0.0,0.0,0.0,0.0,0.0,0.0,0.0
,,130956.463968,1.0404870510101318,0.0,0.0,0.0,0.0,0.0,0.0,0.0,0.0,0.0,0.0,0.0,0,1,2,3,4,5,6,7,8,9,9204.0,-0.87,-0.08,0.46,-1.1,-1.52,-0.55,-7.5,221.46,71.12,0.0,0.0,0.0,0.0,0.0,0.0,0.0,0.0,0.0,0.0,0.0,0.0,0.0,0.0,0.0,0.0,0.0,0.0,0.0,0.0,0.0,0.0
,,130956.484031,1.0605530738830566,0.0,0.0,0.0,0.0,0.0,0.0,0.0,0.0,0.0,0.0,0.0,0,1,2,3,4,5,6,7,8,9,9224.0,-0.88,-0.08,0.47,-1.04,-1.52,-0.55,-7.65,221.61,72.62,0.0,0.0,0.0,0.0,0.0,0.0,0.0,0.0,0.0,0.0,0.0,0.0,0.0,0.0,0.0,0.0,0.0,0.0,0.0,0.0,0.0,0.0
,,130956.504015,1.080540418624878,0.0,0.0,0.0,0.0,0.0,0.0,0.0,0.0,0.0,0.0,0.0,0,1,2,3,4,5,6,7,8,9,9244.0,-0.87,-0.07,0.46,-1.22,-1.52,-0.55,-8.7,221.61,72.92,0.0,0.0,0.0,0.0,0.0,0.0,0.0,0.0,0.0,0.0,0.0,0.0,0.0,0.0,0.0,0.0,0.0,0.0,0.0,0.0,0.0,0.0
,,130956.524038,1.1005642414093018,0.0,0.0,0.0,0.0,0.0,0.0,0.0,0.0,0.0,0.0,0.0,0,1,2,3,4,5,6,7,8,9,9264.0,-0.88,-0.07,0.47,-1.1,-1.59,-0.37,-6.9,221.61,71.87,0.0,0.0,0.0,0.0,0.0,0.0,0.0,0.0,0.0,0.0,0.0,0.0,0.0,0.0,0.0,0.0,0.0,0.0,0.0,0.0,0.0,0.0
,,130956.544131,1.1206576824188232,0.0,0.0,0.0,0.0,0.0,0.0,0.0,0.0,0.0,0.0,0.0,0,1,2,3,4,5,6,7,8,9,9284.0,-0.86,-0.08,0.47,-1.16,-1.59,-0.37,-7.5,222.21,70.67,0.0,0.0,0.0,0.0,0.0,0.0,0.0,0.0,0.0,0.0,0.0,0.0,0.0,0.0,0.0,0.0,0.0,0.0,0.0,0.0,0.0,0.0
,,130956.563964,1.1404876708984375,0.0,0.0,0.0,0.0,0.0,0.0,0.0,0.0,0.0,0.0,0.0,0,1,2,3,4,5,6,7,8,9,9303.0,-0.88,-0.07,0.47,-0.98,-1.4,-0.61,-8.25,220.56,72.62,0.0,0.0,0.0,0.0,0.0,0.0,0.0,0.0,0.0,0.0,0.0,0.0,0.0,0.0,0.0,0.0,0.0,0.0,0.0,0.0,0.0,0.0
,,130956.583947,1.1604664325714111,0.0,0.0,0.0,0.0,0.0,0.0,0.0,0.0,0.0,0.0,0.0,0,1,2,3,4,5,6,7,8,9,9323.0,-0.88,-0.08,0.47,-1.04,-1.59,-0.55,-6.9,222.66,72.32,0.0,0.0,0.0,0.0,0.0,0.0,0.0,0.0,0.0,0.0,0.0,0.0,0.0,0.0,0.0,0.0,0.0,0.0,0.0,0.0,0.0,0.0
,,130956.603993,1.1805355548858643,0.0,0.0,0.0,0.0,0.0,0.0,0.0,0.0,0.0,0.0,0.0,0,1,2,3,4,5,6,7,8,9,9343.0,-0.87,-0.08,0.46,-1.04,-1.52,-0.55,-7.2,221.31,71.57,0.0,0.0,0.0,0.0,0.0,0.0,0.0,0.0,0.0,0.0,0.0,0.0,0.0,0.0,0.0,0.0,0.0,0.0,0.0,0.0,0.0,0.0
,,130956.624046,1.2005717754364014,0.0,0.0,0.0,0.0,0.0,0.0,0.0,0.0,0.0,0.0,0.0,0,1,2,3,4,5,6,7,8,9,9363.0,-0.87,-0.08,0.47,-1.1,-1.59,-0.49,-7.8,222.51,70.37,0.0,0.0,0.0,0.0,0.0,0.0,0.0,0.0,0.0,0.0,0.0,0.0,0.0,0.0,0.0,0.0,0.0,0.0,0.0,0.0,0.0,0.0
,,130956.644093,1.220621109008789,0.0,0.0,0.0,0.0,0.0,0.0,0.0,0.0,0.0,0.0,0.0,0,1,2,3,4,5,6,7,8,9,9363.0,-0.87,-0.08,0.47,-1.1,-1.59,-0.49,-7.8,222.51,70.37,0.0,0.0,0.0,0.0,0.0,0.0,0.0,0.0,0.0,0.0,0.0,0.0,0.0,0.0,0.0,0.0,0.0,0.0,0.0,0.0,0.0,0.0
,,130956.664029,1.2405571937561035,0.0,0.0,0.0,0.0,0.0,0.0,0.0,0.0,0.0,0.0,0.0,0,1,2,3,4,5,6,7,8,9,9363.0,-0.87,-0.08,0.47,-1.1,-1.59,-0.49,-7.8,222.51,70.37,0.0,0.0,0.0,0.0,0.0,0.0,0.0,0.0,0.0,0.0,0.0,0.0,0.0,0.0,0.0,0.0,0.0,0.0,0.0,0.0,0.0,0.0
,,130956.684022,1.2605483531951904,0.0,0.0,0.0,0.0,0.0,0.0,0.0,0.0,0.0,0.0,0.0,0,1,2,3,4,5,6,7,8,9,9363.0,-0.87,-0.08,0.47,-1.1,-1.59,-0.49,-7.8,222.51,70.37,0.0,0.0,0.0,0.0,0.0,0.0,0.0,0.0,0.0,0.0,0.0,0.0,0.0,0.0,0.0,0.0,0.0,0.0,0.0,0.0,0.0,0.0
,,130956.704013,1.2805390357971191,0.0,0.0,0.0,0.0,0.0,0.0,0.0,0.0,0.0,0.0,0.0,0,1,2,3,4,5,6,7,8,9,9443.0,-0.87,-0.08,0.47,-1.04,-1.65,-0.55,-7.8,221.76,73.07,0.0,0.0,0.0,0.0,0.0,0.0,0.0,0.0,0.0,0.0,0.0,0.0,0.0,0.0,0.0,0.0,0.0,0.0,0.0,0.0,0.0,0.0
,,130956.724009,1.3005328178405762,0.0,0.0,0.0,0.0,0.0,0.0,0.0,0.0,0.0,0.0,0.0,0,1,2,3,4,5,6,7,8,9,9460.0,-0.88,-0.08,0.47,-0.91,-1.59,-0.49,-8.55,221.76,72.02,0.0,0.0,0.0,0.0,0.0,0.0,0.0,0.0,0.0,0.0,0.0,0.0,0.0,0.0,0.0,0.0,0.0,0.0,0.0,0.0,0.0,0.0
,,130956.744028,1.3205537796020508,0.0,0.0,0.0,0.0,0.0,0.0,0.0,0.0,0.0,0.0,0.0,0,1,2,3,4,5,6,7,8,9,9483.0,-0.87,-0.08,0.48,-1.1,-1.59,-0.49,-7.65,221.61,71.87,0.0,0.0,0.0,0.0,0.0,0.0,0.0,0.0,0.0,0.0,0.0,0.0,0.0,0.0,0.0,0.0,0.0,0.0,0.0,0.0,0.0,0.0
,,130956.763994,1.3405158519744873,0.0,0.0,0.0,0.0,0.0,0.0,0.0,0.0,0.0,0.0,0.0,0,1,2,3,4,5,6,7,8,9,9504.0,-0.88,-0.08,0.47,-1.1,-1.59,-0.55,-8.25,222.36,72.32,0.0,0.0,0.0,0.0,0.0,0.0,0.0,0.0,0.0,0.0,0.0,0.0,0.0,0.0,0.0,0.0,0.0,0.0,0.0,0.0,0.0,0.0
,,130956.783989,1.3605115413665771,0.0,0.0,0.0,0.0,0.0,0.0,0.0,0.0,0.0,0.0,0.0,0,1,2,3,4,5,6,7,8,9,9524.0,-0.87,-0.08,0.47,-1.04,-1.65,-0.43,-7.95,222.06,73.67,0.0,0.0,0.0,0.0,0.0,0.0,0.0,0.0,0.0,0.0,0.0,0.0,0.0,0.0,0.0,0.0,0.0,0.0,0.0,0.0,0.0,0.0
,,130956.804063,1.3805899620056152,0.0,0.0,0.0,0.0,0.0,0.0,0.0,0.0,0.0,0.0,0.0,0,1,2,3,4,5,6,7,8,9,9544.0,-0.87,-0.08,0.48,-1.04,-1.59,-0.49,-7.65,221.31,72.92,0.0,0.0,0.0,0.0,0.0,0.0,0.0,0.0,0.0,0.0,0.0,0.0,0.0,0.0,0.0,0.0,0.0,0.0,0.0,0.0,0.0,0.0
,,130956.823997,1.4005248546600342,0.0,0.0,0.0,0.0,0.0,0.0,0.0,0.0,0.0,0.0,0.0,0,1,2,3,4,5,6,7,8,9,9564.0,-0.88,-0.08,0.47,-1.04,-1.59,-0.43,-7.05,222.51,72.47,0.0,0.0,0.0,0.0,0.0,0.0,0.0,0.0,0.0,0.0,0.0,0.0,0.0,0.0,0.0,0.0,0.0,0.0,0.0,0.0,0.0,0.0
,,130956.844002,1.420525074005127,0.0,0.0,0.0,0.0,0.0,0.0,0.0,0.0,0.0,0.0,0.0,0,1,2,3,4,5,6,7,8,9,9584.0,-0.88,-0.08,0.48,-1.1,-1.46,-0.43,-7.05,221.16,71.12,0.0,0.0,0.0,0.0,0.0,0.0,0.0,0.0,0.0,0.0,0.0,0.0,0.0,0.0,0.0,0.0,0.0,0.0,0.0,0.0,0.0,0.0
,,130956.863981,1.4405012130737305,0.0,0.0,0.0,0.0,0.0,0.0,0.0,0.0,0.0,0.0,0.0,0,1,2,3,4,5,6,7,8,9,9604.0,-0.87,-0.08,0.48,-1.04,-1.52,-0.37,-7.5,221.46,71.42,0.0,0.0,0.0,0.0,0.0,0.0,0.0,0.0,0.0,0.0,0.0,0.0,0.0,0.0,0.0,0.0,0.0,0.0,0.0,0.0,0.0,0.0
,,130956.883999,1.4605231285095215,0.0,0.0,0.0,0.0,0.0,0.0,0.0,0.0,0.0,0.0,0.0,0,1,2,3,4,5,6,7,8,9,9624.0,-0.87,-0.07,0.46,-1.16,-1.59,-0.55,-7.8,222.21,72.02,0.0,0.0,0.0,0.0,0.0,0.0,0.0,0.0,0.0,0.0,0.0,0.0,0.0,0.0,0.0,0.0,0.0,0.0,0.0,0.0,0.0,0.0
,,130956.903998,1.4805247783660889,0.0,0.0,0.0,0.0,0.0,0.0,0.0,0.0,0.0,0.0,0.0,0,1,2,3,4,5,6,7,8,9,9643.0,-0.88,-0.07,0.47,-1.16,-1.59,-0.61,-9.75,222.06,72.62,0.0,0.0,0.0,0.0,0.0,0.0,0.0,0.0,0.0,0.0,0.0,0.0,0.0,0.0,0.0,0.0,0.0,0.0,0.0,0.0,0.0,0.0
,,130956.923947,1.5004680156707764,0.0,0.0,0.0,0.0,0.0,0.0,0.0,0.0,0.0,0.0,0.0,0,1,2,3,4,5,6,7,8,9,9643.0,-0.88,-0.07,0.47,-1.16,-1.59,-0.61,-9.75,222.06,72.62,0.0,0.0,0.0,0.0,0.0,0.0,0.0,0.0,0.0,0.0,0.0,0.0,0.0,0.0,0.0,0.0,0.0,0.0,0.0,0.0,0.0,0.0
,,130956.944034,1.5205626487731934,0.0,0.0,0.0,0.0,0.0,0.0,0.0,0.0,0.0,0.0,0.0,0,1,2,3,4,5,6,7,8,9,9643.0,-0.88,-0.07,0.47,-1.16,-1.59,-0.61,-9.75,222.06,72.62,0.0,0.0,0.0,0.0,0.0,0.0,0.0,0.0,0.0,0.0,0.0,0.0,0.0,0.0,0.0,0.0,0.0,0.0,0.0,0.0,0.0,0.0
,,130956.964023,1.5405688285827637,0.0,0.0,0.0,0.0,0.0,0.0,0.0,0.0,0.0,0.0,0.0,0,1,2,3,4,5,6,7,8,9,9643.0,-0.88,-0.07,0.47,-1.16,-1.59,-0.61,-9.75,222.06,72.62,0.0,0.0,0.0,0.0,0.0,0.0,0.0,0.0,0.0,0.0,0.0,0.0,0.0,0.0,0.0,0.0,0.0,0.0,0.0,0.0,0.0,0.0
,,130956.984058,1.560598611831665,0.0,0.0,0.0,0.0,0.0,0.0,0.0,0.0,0.0,0.0,0.0,0,1,2,3,4,5,6,7,8,9,9721.0,-0.88,-0.08,0.46,-1.1,-1.59,-0.43,-6.75,222.51,73.07,0.0,0.0,0.0,0.0,0.0,0.0,0.0,0.0,0.0,0.0,0.0,0.0,0.0,0.0,0.0,0.0,0.0,0.0,0.0,0.0,0.0,0.0
,,130957.004028,1.5805542469024658,0.0,0.0,0.0,0.0,0.0,0.0,0.0,0.0,0.0,0.0,0.0,0,1,2,3,4,5,6,7,8,9,9748.0,-0.88,-0.07,0.47,-1.1,-1.65,-0.55,-8.25,222.66,72.62,0.0,0.0,0.0,0.0,0.0,0.0,0.0,0.0,0.0,0.0,0.0,0.0,0.0,0.0,0.0,0.0,0.0,0.0,0.0,0.0,0.0,0.0
,,130957.023967,1.6004877090454102,0.0,0.0,0.0,0.0,0.0,0.0,0.0,0.0,0.0,0.0,0.0,0,1,2,3,4,5,6,7,8,9,9764.0,-0.86,-0.08,0.46,-0.85,-1.65,-0.49,-8.25,222.06,70.97,0.0,0.0,0.0,0.0,0.0,0.0,0.0,0.0,0.0,0.0,0.0,0.0,0.0,0.0,0.0,0.0,0.0,0.0,0.0,0.0,0.0,0.0
,,130957.044023,1.6205484867095947,0.0,0.0,0.0,0.0,0.0,0.0,0.0,0.0,0.0,0.0,0.0,0,1,2,3,4,5,6,7,8,9,9784.0,-0.87,-0.08,0.47,-1.1,-1.65,-0.49,-6.75,222.51,72.77,0.0,0.0,0.0,0.0,0.0,0.0,0.0,0.0,0.0,0.0,0.0,0.0,0.0,0.0,0.0,0.0,0.0,0.0,0.0,0.0,0.0,0.0
,,130957.063944,1.6404623985290527,0.0,0.0,0.0,0.0,0.0,0.0,0.0,0.0,0.0,0.0,0.0,0,1,2,3,4,5,6,7,8,9,9804.0,-0.87,-0.08,0.47,-1.04,-1.59,-0.55,-9.0,222.06,71.87,0.0,0.0,0.0,0.0,0.0,0.0,0.0,0.0,0.0,0.0,0.0,0.0,0.0,0.0,0.0,0.0,0.0,0.0,0.0,0.0,0.0,0.0
,,130957.084001,1.6605260372161865,0.0,0.0,0.0,0.0,0.0,0.0,0.0,0.0,0.0,0.0,0.0,0,1,2,3,4,5,6,7,8,9,9824.0,-0.87,-0.08,0.47,-1.1,-1.59,-0.37,-8.7,222.36,72.62,0.0,0.0,0.0,0.0,0.0,0.0,0.0,0.0,0.0,0.0,0.0,0.0,0.0,0.0,0.0,0.0,0.0,0.0,0.0,0.0,0.0,0.0
,,130957.104013,1.6805379390716553,0.0,0.0,0.0,0.0,0.0,0.0,0.0,0.0,0.0,0.0,0.0,0,1,2,3,4,5,6,7,8,9,9844.0,-0.88,-0.08,0.46,-1.04,-1.59,-0.49,-8.55,221.46,72.02,0.0,0.0,0.0,0.0,0.0,0.0,0.0,0.0,0.0,0.0,0.0,0.0,0.0,0.0,0.0,0.0,0.0,0.0,0.0,0.0,0.0,0.0
,,130957.123954,1.700472354888916,0.0,0.0,0.0,0.0,0.0,0.0,0.0,0.0,0.0,0.0,0.0,0,1,2,3,4,5,6,7,8,9,9864.0,-0.87,-0.08,0.46,-1.1,-1.46,-0.37,-6.75,222.21,71.42,0.0,0.0,0.0,0.0,0.0,0.0,0.0,0.0,0.0,0.0,0.0,0.0,0.0,0.0,0.0,0.0,0.0,0.0,0.0,0.0,0.0,0.0
,,130957.144008,1.720536231994629,0.0,0.0,0.0,0.0,0.0,0.0,0.0,0.0,0.0,0.0,0.0,0,1,2,3,4,5,6,7,8,9,9884.0,-0.88,-0.08,0.46,-1.04,-1.52,-0.49,-8.7,220.56,71.57,0.0,0.0,0.0,0.0,0.0,0.0,0.0,0.0,0.0,0.0,0.0,0.0,0.0,0.0,0.0,0.0,0.0,0.0,0.0,0.0,0.0,0.0
,,130957.164043,1.7405691146850586,0.0,0.0,0.0,0.0,0.0,0.0,0.0,0.0,0.0,0.0,0.0,0,1,2,3,4,5,6,7,8,9,9904.0,-0.87,-0.08,0.47,-1.1,-1.52,-0.49,-7.8,221.46,72.02,0.0,0.0,0.0,0.0,0.0,0.0,0.0,0.0,0.0,0.0,0.0,0.0,0.0,0.0,0.0,0.0,0.0,0.0,0.0,0.0,0.0,0.0
,,130957.184085,1.7606158256530762,0.0,0.0,0.0,0.0,0.0,0.0,0.0,0.0,0.0,0.0,0.0,0,1,2,3,4,5,6,7,8,9,9923.0,-0.87,-0.07,0.46,-1.04,-1.52,-0.55,-7.5,222.81,71.72,0.0,0.0,0.0,0.0,0.0,0.0,0.0,0.0,0.0,0.0,0.0,0.0,0.0,0.0,0.0,0.0,0.0,0.0,0.0,0.0,0.0,0.0
,,130957.204015,1.780543327331543,0.0,0.0,0.0,0.0,0.0,0.0,0.0,0.0,0.0,0.0,0.0,0,1,2,3,4,5,6,7,8,9,9923.0,-0.87,-0.07,0.46,-1.04,-1.52,-0.55,-7.5,222.81,71.72,0.0,0.0,0.0,0.0,0.0,0.0,0.0,0.0,0.0,0.0,0.0,0.0,0.0,0.0,0.0,0.0,0.0,0.0,0.0,0.0,0.0,0.0
,,130957.223973,1.8005058765411377,0.0,0.0,0.0,0.0,0.0,0.0,0.0,0.0,0.0,0.0,0.0,0,1,2,3,4,5,6,7,8,9,9923.0,-0.87,-0.07,0.46,-1.04,-1.52,-0.55,-7.5,222.81,71.72,0.0,0.0,0.0,0.0,0.0,0.0,0.0,0.0,0.0,0.0,0.0,0.0,0.0,0.0,0.0,0.0,0.0,0.0,0.0,0.0,0.0,0.0
,,130957.244063,1.8206095695495605,0.0,0.0,0.0,0.0,0.0,0.0,0.0,0.0,0.0,0.0,0.0,0,1,2,3,4,5,6,7,8,9,9923.0,-0.87,-0.07,0.46,-1.04,-1.52,-0.55,-7.5,222.81,71.72,0.0,0.0,0.0,0.0,0.0,0.0,0.0,0.0,0.0,0.0,0.0,0.0,0.0,0.0,0.0,0.0,0.0,0.0,0.0,0.0,0.0,0.0
,,130957.264057,1.8405835628509521,0.0,0.0,0.0,0.0,0.0,0.0,0.0,0.0,0.0,0.0,0.0,0,1,2,3,4,5,6,7,8,9,10001.0,-0.87,-0.08,0.46,-1.1,-1.65,-0.61,-7.05,222.81,72.77,0.0,0.0,0.0,0.0,0.0,0.0,0.0,0.0,0.0,0.0,0.0,0.0,0.0,0.0,0.0,0.0,0.0,0.0,0.0,0.0,0.0,0.0
,,130957.284037,1.8605635166168213,0.0,0.0,0.0,0.0,0.0,0.0,0.0,0.0,0.0,0.0,0.0,0,1,2,3,4,5,6,7,8,9,10027.0,-0.86,-0.08,0.48,-1.1,-1.52,-0.49,-7.95,221.31,71.87,0.0,0.0,0.0,0.0,0.0,0.0,0.0,0.0,0.0,0.0,0.0,0.0,0.0,0.0,0.0,0.0,0.0,0.0,0.0,0.0,0.0,0.0
,,130957.304,1.8805201053619385,0.0,0.0,0.0,0.0,0.0,0.0,0.0,0.0,0.0,0.0,0.0,0,1,2,3,4,5,6,7,8,9,10044.0,-0.87,-0.07,0.46,-1.1,-1.59,-0.49,-7.65,220.56,71.87,0.0,0.0,0.0,0.0,0.0,0.0,0.0,0.0,0.0,0.0,0.0,0.0,0.0,0.0,0.0,0.0,0.0,0.0,0.0,0.0,0.0,0.0
,,130957.323973,1.9004976749420166,0.0,0.0,0.0,0.0,0.0,0.0,0.0,0.0,0.0,0.0,0.0,0,1,2,3,4,5,6,7,8,9,10064.0,-0.87,-0.08,0.47,-1.1,-1.59,-0.43,-8.7,221.61,71.57,0.0,0.0,0.0,0.0,0.0,0.0,0.0,0.0,0.0,0.0,0.0,0.0,0.0,0.0,0.0,0.0,0.0,0.0,0.0,0.0,0.0,0.0
,,130957.343955,1.9204752445220947,0.0,0.0,0.0,0.0,0.0,0.0,0.0,0.0,0.0,0.0,0.0,0,1,2,3,4,5,6,7,8,9,10084.0,-0.87,-0.08,0.47,-1.04,-1.59,-0.55,-7.65,222.06,71.87,0.0,0.0,0.0,0.0,0.0,0.0,0.0,0.0,0.0,0.0,0.0,0.0,0.0,0.0,0.0,0.0,0.0,0.0,0.0,0.0,0.0,0.0
,,130957.364073,1.9406044483184814,0.0,0.0,0.0,0.0,0.0,0.0,0.0,0.0,0.0,0.0,0.0,0,1,2,3,4,5,6,7,8,9,10104.0,-0.87,-0.08,0.47,-1.04,-1.59,-0.55,-8.25,221.31,71.87,0.0,0.0,0.0,0.0,0.0,0.0,0.0,0.0,0.0,0.0,0.0,0.0,0.0,0.0,0.0,0.0,0.0,0.0,0.0,0.0,0.0,0.0
,,130957.383999,1.9605212211608887,0.0,0.0,0.0,0.0,0.0,0.0,0.0,0.0,0.0,0.0,0.0,0,1,2,3,4,5,6,7,8,9,10124.0,-0.87,-0.08,0.46,-1.1,-1.65,-0.49,-7.8,222.21,72.47,0.0,0.0,0.0,0.0,0.0,0.0,0.0,0.0,0.0,0.0,0.0,0.0,0.0,0.0,0.0,0.0,0.0,0.0,0.0,0.0,0.0,0.0
,,130957.403978,1.980496883392334,0.0,0.0,0.0,0.0,0.0,0.0,0.0,0.0,0.0,0.0,0.0,0,1,2,3,4,5,6,7,8,9,10143.0,-0.87,-0.08,0.47,-0.91,-1.59,-0.49,-9.6,221.76,73.07,0.0,0.0,0.0,0.0,0.0,0.0,0.0,0.0,0.0,0.0,0.0,0.0,0.0,0.0,0.0,0.0,0.0,0.0,0.0,0.0,0.0,0.0
,,130957.424016,2.0005404949188232,0.0,0.0,0.0,0.0,0.0,0.0,0.0,0.0,0.0,0.0,0.0,0,1,2,3,4,5,6,7,8,9,10163.0,-0.87,-0.08,0.48,-0.98,-1.71,-0.43,-8.1,221.76,70.37,0.0,0.0,0.0,0.0,0.0,0.0,0.0,0.0,0.0,0.0,0.0,0.0,0.0,0.0,0.0,0.0,0.0,0.0,0.0,0.0,0.0,0.0
,,130957.444072,2.020596742630005,0.0,0.0,0.0,0.0,0.0,0.0,0.0,0.0,0.0,0.0,0.0,0,1,2,3,4,5,6,7,8,9,10183.0,-0.88,-0.08,0.47,-1.1,-1.52,-0.49,-6.75,222.81,71.72,0.0,0.0,0.0,0.0,0.0,0.0,0.0,0.0,0.0,0.0,0.0,0.0,0.0,0.0,0.0,0.0,0.0,0.0,0.0,0.0,0.0,0.0
,,130957.464026,2.040559768676758,0.0,0.0,0.0,0.0,0.0,0.0,0.0,0.0,0.0,0.0,0.0,0,1,2,3,4,5,6,7,8,9,10203.0,-0.87,-0.07,0.46,-0.98,-1.52,-0.49,-7.8,223.26,72.02,0.0,0.0,0.0,0.0,0.0,0.0,0.0,0.0,0.0,0.0,0.0,0.0,0.0,0.0,0.0,0.0,0.0,0.0,0.0,0.0,0.0,0.0
,,130957.484005,2.0605251789093018,0.0,0.0,0.0,0.0,0.0,0.0,0.0,0.0,0.0,0.0,0.0,0,1,2,3,4,5,6,7,8,9,10203.0,-0.87,-0.07,0.46,-0.98,-1.52,-0.49,-7.8,223.26,72.02,0.0,0.0,0.0,0.0,0.0,0.0,0.0,0.0,0.0,0.0,0.0,0.0,0.0,0.0,0.0,0.0,0.0,0.0,0.0,0.0,0.0,0.0
,,130957.503993,2.080531597137451,0.0,0.0,0.0,0.0,0.0,0.0,0.0,0.0,0.0,0.0,0.0,0,1,2,3,4,5,6,7,8,9,10203.0,-0.87,-0.07,0.46,-0.98,-1.52,-0.49,-7.8,223.26,72.02,0.0,0.0,0.0,0.0,0.0,0.0,0.0,0.0,0.0,0.0,0.0,0.0,0.0,0.0,0.0,0.0,0.0,0.0,0.0,0.0,0.0,0.0
,,130957.524026,2.100588321685791,0.0,0.0,0.0,0.0,0.0,0.0,0.0,0.0,0.0,0.0,0.0,0,1,2,3,4,5,6,7,8,9,10203.0,-0.87,-0.07,0.46,-0.98,-1.52,-0.49,-7.8,223.26,72.02,0.0,0.0,0.0,0.0,0.0,0.0,0.0,0.0,0.0,0.0,0.0,0.0,0.0,0.0,0.0,0.0,0.0,0.0,0.0,0.0,0.0,0.0
,,130957.544055,2.1205806732177734,0.0,0.0,0.0,0.0,0.0,0.0,0.0,0.0,0.0,0.0,0.0,0,1,2,3,4,5,6,7,8,9,10282.0,-0.88,-0.08,0.46,-1.04,-1.59,-0.49,-6.0,221.76,72.02,0.0,0.0,0.0,0.0,0.0,0.0,0.0,0.0,0.0,0.0,0.0,0.0,0.0,0.0,0.0,0.0,0.0,0.0,0.0,0.0,0.0,0.0
,,130957.564006,2.14052677154541,0.0,0.0,0.0,0.0,0.0,0.0,0.0,0.0,0.0,0.0,0.0,0,1,2,3,4,5,6,7,8,9,10308.0,-0.87,-0.07,0.47,-1.1,-1.59,-0.61,-6.6,223.11,71.57,0.0,0.0,0.0,0.0,0.0,0.0,0.0,0.0,0.0,0.0,0.0,0.0,0.0,0.0,0.0,0.0,0.0,0.0,0.0,0.0,0.0,0.0
,,130957.584016,2.160548686981201,0.0,0.0,0.0,0.0,0.0,0.0,0.0,0.0,0.0,0.0,0.0,0,1,2,3,4,5,6,7,8,9,10324.0,-0.88,-0.08,0.47,-1.04,-1.59,-0.49,-5.85,221.31,71.87,0.0,0.0,0.0,0.0,0.0,0.0,0.0,0.0,0.0,0.0,0.0,0.0,0.0,0.0,0.0,0.0,0.0,0.0,0.0,0.0,0.0,0.0
,,130957.604003,2.1805248260498047,0.0,0.0,0.0,0.0,0.0,0.0,0.0,0.0,0.0,0.0,0.0,0,1,2,3,4,5,6,7,8,9,10344.0,-0.88,-0.08,0.46,-0.98,-1.59,-0.49,-8.7,222.36,72.62,0.0,0.0,0.0,0.0,0.0,0.0,0.0,0.0,0.0,0.0,0.0,0.0,0.0,0.0,0.0,0.0,0.0,0.0,0.0,0.0,0.0,0.0
,,130957.624074,2.2005996704101562,0.0,0.0,0.0,0.0,0.0,0.0,0.0,0.0,0.0,0.0,0.0,0,1,2,3,4,5,6,7,8,9,10364.0,-0.88,-0.07,0.47,-0.91,-1.52,-0.55,-6.9,221.61,71.57,0.0,0.0,0.0,0.0,0.0,0.0,0.0,0.0,0.0,0.0,0.0,0.0,0.0,0.0,0.0,0.0,0.0,0.0,0.0,0.0,0.0,0.0
,,130957.64403,2.220557689666748,0.0,0.0,0.0,0.0,0.0,0.0,0.0,0.0,0.0,0.0,0.0,0,1,2,3,4,5,6,7,8,9,10384.0,-0.88,-0.08,0.47,-1.04,-1.71,-0.55,-6.6,222.36,71.87,0.0,0.0,0.0,0.0,0.0,0.0,0.0,0.0,0.0,0.0,0.0,0.0,0.0,0.0,0.0,0.0,0.0,0.0,0.0,0.0,0.0,0.0
,,130957.664042,2.2405691146850586,0.0,0.0,0.0,0.0,0.0,0.0,0.0,0.0,0.0,0.0,0.0,0,1,2,3,4,5,6,7,8,9,10404.0,-0.88,-0.09,0.47,-0.98,-1.59,-0.49,-9.0,221.31,72.32,0.0,0.0,0.0,0.0,0.0,0.0,0.0,0.0,0.0,0.0,0.0,0.0,0.0,0.0,0.0,0.0,0.0,0.0,0.0,0.0,0.0,0.0
,,130957.683976,2.260495901107788,0.0,0.0,0.0,0.0,0.0,0.0,0.0,0.0,0.0,0.0,0.0,0,1,2,3,4,5,6,7,8,9,10424.0,-0.88,-0.08,0.47,-1.04,-1.65,-0.49,-8.1,223.26,72.77,0.0,0.0,0.0,0.0,0.0,0.0,0.0,0.0,0.0,0.0,0.0,0.0,0.0,0.0,0.0,0.0,0.0,0.0,0.0,0.0,0.0,0.0
,,130957.704004,2.280535936355591,0.0,0.0,0.0,0.0,0.0,0.0,0.0,0.0,0.0,0.0,0.0,0,1,2,3,4,5,6,7,8,9,10444.0,-0.89,-0.08,0.47,-0.98,-1.65,-0.49,-8.85,220.11,71.72,0.0,0.0,0.0,0.0,0.0,0.0,0.0,0.0,0.0,0.0,0.0,0.0,0.0,0.0,0.0,0.0,0.0,0.0,0.0,0.0,0.0,0.0
,,130957.724078,2.300605058670044,0.0,0.0,0.0,0.0,0.0,0.0,0.0,0.0,0.0,0.0,0.0,0,1,2,3,4,5,6,7,8,9,10464.0,-0.87,-0.07,0.47,-1.04,-1.65,-0.43,-6.15,222.06,71.27,0.0,0.0,0.0,0.0,0.0,0.0,0.0,0.0,0.0,0.0,0.0,0.0,0.0,0.0,0.0,0.0,0.0,0.0,0.0,0.0,0.0,0.0
,,130957.744026,2.320552110671997,0.0,0.0,0.0,0.0,0.0,0.0,0.0,0.0,0.0,0.0,0.0,0,1,2,3,4,5,6,7,8,9,10483.0,-0.87,-0.08,0.48,-0.98,-1.59,-0.49,-8.25,220.56,71.27,0.0,0.0,0.0,0.0,0.0,0.0,0.0,0.0,0.0,0.0,0.0,0.0,0.0,0.0,0.0,0.0,0.0,0.0,0.0,0.0,0.0,0.0
,,130957.764014,2.3405404090881348,0.0,0.0,0.0,0.0,0.0,0.0,0.0,0.0,0.0,0.0,0.0,0,1,2,3,4,5,6,7,8,9,10483.0,-0.87,-0.08,0.48,-0.98,-1.59,-0.49,-8.25,220.56,71.27,0.0,0.0,0.0,0.0,0.0,0.0,0.0,0.0,0.0,0.0,0.0,0.0,0.0,0.0,0.0,0.0,0.0,0.0,0.0,0.0,0.0,0.0
,,130957.784053,2.3605799674987793,0.0,0.0,0.0,0.0,0.0,0.0,0.0,0.0,0.0,0.0,0.0,0,1,2,3,4,5,6,7,8,9,10483.0,-0.87,-0.08,0.48,-0.98,-1.59,-0.49,-8.25,220.56,71.27,0.0,0.0,0.0,0.0,0.0,0.0,0.0,0.0,0.0,0.0,0.0,0.0,0.0,0.0,0.0,0.0,0.0,0.0,0.0,0.0,0.0,0.0
,,130957.804055,2.380581855773926,0.0,0.0,0.0,0.0,0.0,0.0,0.0,0.0,0.0,0.0,0.0,0,1,2,3,4,5,6,7,8,9,10483.0,-0.87,-0.08,0.48,-0.98,-1.59,-0.49,-8.25,220.56,71.27,0.0,0.0,0.0,0.0,0.0,0.0,0.0,0.0,0.0,0.0,0.0,0.0,0.0,0.0,0.0,0.0,0.0,0.0,0.0,0.0,0.0,0.0
,,130957.824044,2.4005720615386963,0.0,0.0,0.0,0.0,0.0,0.0,0.0,0.0,0.0,0.0,0.0,0,1,2,3,4,5,6,7,8,9,10561.0,-0.87,-0.07,0.47,-1.04,-1.52,-0.55,-7.2,221.31,72.32,0.0,0.0,0.0,0.0,0.0,0.0,0.0,0.0,0.0,0.0,0.0,0.0,0.0,0.0,0.0,0.0,0.0,0.0,0.0,0.0,0.0,0.0
,,130957.843986,2.4205126762390137,0.0,0.0,0.0,0.0,0.0,0.0,0.0,0.0,0.0,0.0,0.0,0,1,2,3,4,5,6,7,8,9,10587.0,-0.88,-0.07,0.46,-1.04,-1.71,-0.55,-8.85,221.46,71.42,0.0,0.0,0.0,0.0,0.0,0.0,0.0,0.0,0.0,0.0,0.0,0.0,0.0,0.0,0.0,0.0,0.0,0.0,0.0,0.0,0.0,0.0
,,130957.864029,2.4405574798583984,0.0,0.0,0.0,0.0,0.0,0.0,0.0,0.0,0.0,0.0,0.0,0,1,2,3,4,5,6,7,8,9,10603.0,-0.87,-0.08,0.48,-1.16,-1.52,-0.55,-8.25,220.26,72.62,0.0,0.0,0.0,0.0,0.0,0.0,0.0,0.0,0.0,0.0,0.0,0.0,0.0,0.0,0.0,0.0,0.0,0.0,0.0,0.0,0.0,0.0
,,130957.884023,2.4605488777160645,0.0,0.0,0.0,0.0,0.0,0.0,0.0,0.0,0.0,0.0,0.0,0,1,2,3,4,5,6,7,8,9,10623.0,-0.88,-0.08,0.47,-1.04,-1.65,-0.55,-8.7,221.61,72.92,0.0,0.0,0.0,0.0,0.0,0.0,0.0,0.0,0.0,0.0,0.0,0.0,0.0,0.0,0.0,0.0,0.0,0.0,0.0,0.0,0.0,0.0
,,130957.904012,2.4805548191070557,0.0,0.0,0.0,0.0,0.0,0.0,0.0,0.0,0.0,0.0,0.0,0,1,2,3,4,5,6,7,8,9,10643.0,-0.87,-0.08,0.48,-1.22,-1.65,-0.49,-6.45,222.51,71.42,0.0,0.0,0.0,0.0,0.0,0.0,0.0,0.0,0.0,0.0,0.0,0.0,0.0,0.0,0.0,0.0,0.0,0.0,0.0,0.0,0.0,0.0
,,130957.924045,2.5005693435668945,0.0,0.0,0.0,0.0,0.0,0.0,0.0,0.0,0.0,0.0,0.0,0,1,2,3,4,5,6,7,8,9,10664.0,-0.88,-0.08,0.48,-1.1,-1.59,-0.61,-8.85,221.76,72.77,0.0,0.0,0.0,0.0,0.0,0.0,0.0,0.0,0.0,0.0,0.0,0.0,0.0,0.0,0.0,0.0,0.0,0.0,0.0,0.0,0.0,0.0
,,130957.943984,2.5205094814300537,0.0,0.0,0.0,0.0,0.0,0.0,0.0,0.0,0.0,0.0,0.0,0,1,2,3,4,5,6,7,8,9,10684.0,-0.88,-0.08,0.47,-1.04,-1.59,-0.67,-8.25,222.06,70.97,0.0,0.0,0.0,0.0,0.0,0.0,0.0,0.0,0.0,0.0,0.0,0.0,0.0,0.0,0.0,0.0,0.0,0.0,0.0,0.0,0.0,0.0
,,130957.963956,2.540478229522705,0.0,0.0,0.0,0.0,0.0,0.0,0.0,0.0,0.0,0.0,0.0,0,1,2,3,4,5,6,7,8,9,10704.0,-0.88,-0.08,0.46,-1.16,-1.52,-0.61,-8.25,222.06,71.57,0.0,0.0,0.0,0.0,0.0,0.0,0.0,0.0,0.0,0.0,0.0,0.0,0.0,0.0,0.0,0.0,0.0,0.0,0.0,0.0,0.0,0.0
,,130957.984037,2.560563802719116,0.0,0.0,0.0,0.0,0.0,0.0,0.0,0.0,0.0,0.0,0.0,0,1,2,3,4,5,6,7,8,9,10724.0,-0.88,-0.08,0.47,-0.98,-1.52,-0.61,-7.8,221.16,72.77,0.0,0.0,0.0,0.0,0.0,0.0,0.0,0.0,0.0,0.0,0.0,0.0,0.0,0.0,0.0,0.0,0.0,0.0,0.0,0.0,0.0,0.0
,,130958.004006,2.5805282592773438,0.0,0.0,0.0,0.0,0.0,0.0,0.0,0.0,0.0,0.0,0.0,0,1,2,3,4,5,6,7,8,9,10744.0,-0.88,-0.07,0.47,-1.04,-1.65,-0.55,-7.8,221.16,70.67,0.0,0.0,0.0,0.0,0.0,0.0,0.0,0.0,0.0,0.0,0.0,0.0,0.0,0.0,0.0,0.0,0.0,0.0,0.0,0.0,0.0,0.0
,,130958.024111,2.600642204284668,0.0,0.0,0.0,0.0,0.0,0.0,0.0,0.0,0.0,0.0,0.0,0,1,2,3,4,5,6,7,8,9,10764.0,-0.87,-0.07,0.47,-1.04,-1.4,-0.43,-9.6,222.51,73.07,0.0,0.0,0.0,0.0,0.0,0.0,0.0,0.0,0.0,0.0,0.0,0.0,0.0,0.0,0.0,0.0,0.0,0.0,0.0,0.0,0.0,0.0
,,130958.043982,2.620504856109619,0.0,0.0,0.0,0.0,0.0,0.0,0.0,0.0,0.0,0.0,0.0,0,1,2,3,4,5,6,7,8,9,10764.0,-0.87,-0.07,0.47,-1.04,-1.4,-0.43,-9.6,222.51,73.07,0.0,0.0,0.0,0.0,0.0,0.0,0.0,0.0,0.0,0.0,0.0,0.0,0.0,0.0,0.0,0.0,0.0,0.0,0.0,0.0,0.0,0.0
,,130958.064055,2.6406171321868896,0.0,0.0,0.0,0.0,0.0,0.0,0.0,0.0,0.0,0.0,0.0,0,1,2,3,4,5,6,7,8,9,10764.0,-0.87,-0.07,0.47,-1.04,-1.4,-0.43,-9.6,222.51,73.07,0.0,0.0,0.0,0.0,0.0,0.0,0.0,0.0,0.0,0.0,0.0,0.0,0.0,0.0,0.0,0.0,0.0,0.0,0.0,0.0,0.0,0.0
,,130958.084045,2.6605758666992188,0.0,0.0,0.0,0.0,0.0,0.0,0.0,0.0,0.0,0.0,0.0,0,1,2,3,4,5,6,7,8,9,10764.0,-0.87,-0.07,0.47,-1.04,-1.4,-0.43,-9.6,222.51,73.07,0.0,0.0,0.0,0.0,0.0,0.0,0.0,0.0,0.0,0.0,0.0,0.0,0.0,0.0,0.0,0.0,0.0,0.0,0.0,0.0,0.0,0.0
,,130958.104023,2.6805527210235596,0.0,0.0,0.0,0.0,0.0,0.0,0.0,0.0,0.0,0.0,0.0,0,1,2,3,4,5,6,7,8,9,10843.0,-0.88,-0.08,0.46,-1.22,-1.65,-0.49,-7.05,221.76,73.07,0.0,0.0,0.0,0.0,0.0,0.0,0.0,0.0,0.0,0.0,0.0,0.0,0.0,0.0,0.0,0.0,0.0,0.0,0.0,0.0,0.0,0.0
,,130958.123998,2.700523853302002,0.0,0.0,0.0,0.0,0.0,0.0,0.0,0.0,0.0,0.0,0.0,0,1,2,3,4,5,6,7,8,9,10860.0,-0.88,-0.09,0.46,-1.16,-1.59,-0.49,-7.65,221.61,71.57,0.0,0.0,0.0,0.0,0.0,0.0,0.0,0.0,0.0,0.0,0.0,0.0,0.0,0.0,0.0,0.0,0.0,0.0,0.0,0.0,0.0,0.0
,,130958.144039,2.720564842224121,0.0,0.0,0.0,0.0,0.0,0.0,0.0,0.0,0.0,0.0,0.0,0,1,2,3,4,5,6,7,8,9,10884.0,-0.87,-0.07,0.48,-1.1,-1.59,-0.43,-7.2,221.01,70.97,0.0,0.0,0.0,0.0,0.0,0.0,0.0,0.0,0.0,0.0,0.0,0.0,0.0,0.0,0.0,0.0,0.0,0.0,0.0,0.0,0.0,0.0
,,130958.163978,2.740497589111328,0.0,0.0,0.0,0.0,0.0,0.0,0.0,0.0,0.0,0.0,0.0,0,1,2,3,4,5,6,7,8,9,10904.0,-0.87,-0.08,0.46,-1.22,-1.65,-0.49,-6.6,222.06,71.57,0.0,0.0,0.0,0.0,0.0,0.0,0.0,0.0,0.0,0.0,0.0,0.0,0.0,0.0,0.0,0.0,0.0,0.0,0.0,0.0,0.0,0.0
,,130958.183977,2.7604968547821045,0.0,0.0,0.0,0.0,0.0,0.0,0.0,0.0,0.0,0.0,0.0,0,1,2,3,4,5,6,7,8,9,10924.0,-0.87,-0.08,0.47,-1.1,-1.59,-0.43,-7.05,221.76,71.72,0.0,0.0,0.0,0.0,0.0,0.0,0.0,0.0,0.0,0.0,0.0,0.0,0.0,0.0,0.0,0.0,0.0,0.0,0.0,0.0,0.0,0.0
,,130958.20398,2.7805051803588867,0.0,0.0,0.0,0.0,0.0,0.0,0.0,0.0,0.0,0.0,0.0,0,1,2,3,4,5,6,7,8,9,10944.0,-0.87,-0.08,0.47,-1.1,-1.52,-0.49,-7.65,222.06,71.57,0.0,0.0,0.0,0.0,0.0,0.0,0.0,0.0,0.0,0.0,0.0,0.0,0.0,0.0,0.0,0.0,0.0,0.0,0.0,0.0,0.0,0.0
,,130958.224045,2.800574541091919,0.0,0.0,0.0,0.0,0.0,0.0,0.0,0.0,0.0,0.0,0.0,0,1,2,3,4,5,6,7,8,9,10964.0,-0.88,-0.07,0.47,-0.91,-1.52,-0.3,-9.3,221.61,70.97,0.0,0.0,0.0,0.0,0.0,0.0,0.0,0.0,0.0,0.0,0.0,0.0,0.0,0.0,0.0,0.0,0.0,0.0,0.0,0.0,0.0,0.0
,,130958.244037,2.820566177368164,0.0,0.0,0.0,0.0,0.0,0.0,0.0,0.0,0.0,0.0,0.0,0,1,2,3,4,5,6,7,8,9,10984.0,-0.87,-0.08,0.47,-1.1,-1.65,-0.37,-7.05,221.46,73.37,0.0,0.0,0.0,0.0,0.0,0.0,0.0,0.0,0.0,0.0,0.0,0.0,0.0,0.0,0.0,0.0,0.0,0.0,0.0,0.0,0.0,0.0
,,130958.264051,2.840576648712158,0.0,0.0,0.0,0.0,0.0,0.0,0.0,0.0,0.0,0.0,0.0,0,1,2,3,4,5,6,7,8,9,11004.0,-0.87,-0.08,0.46,-0.98,-1.59,-0.55,-7.5,221.16,72.47,0.0,0.0,0.0,0.0,0.0,0.0,0.0,0.0,0.0,0.0,0.0,0.0,0.0,0.0,0.0,0.0,0.0,0.0,0.0,0.0,0.0,0.0
,,130958.283995,2.860513925552368,0.0,0.0,0.0,0.0,0.0,0.0,0.0,0.0,0.0,0.0,0.0,0,1,2,3,4,5,6,7,8,9,11024.0,-0.87,-0.07,0.46,-1.04,-1.65,-0.55,-7.5,221.76,72.02,0.0,0.0,0.0,0.0,0.0,0.0,0.0,0.0,0.0,0.0,0.0,0.0,0.0,0.0,0.0,0.0,0.0,0.0,0.0,0.0,0.0,0.0
,,130958.30399,2.880509853363037,0.0,0.0,0.0,0.0,0.0,0.0,0.0,0.0,0.0,0.0,0.0,0,1,2,3,4,5,6,7,8,9,11043.0,-0.87,-0.08,0.46,-0.91,-1.65,-0.55,-8.55,221.16,72.77,0.0,0.0,0.0,0.0,0.0,0.0,0.0,0.0,0.0,0.0,0.0,0.0,0.0,0.0,0.0,0.0,0.0,0.0,0.0,0.0,0.0,0.0
,,130958.323987,2.9005136489868164,0.0,0.0,0.0,0.0,0.0,0.0,0.0,0.0,0.0,0.0,0.0,0,1,2,3,4,5,6,7,8,9,11043.0,-0.87,-0.08,0.46,-0.91,-1.65,-0.55,-8.55,221.16,72.77,0.0,0.0,0.0,0.0,0.0,0.0,0.0,0.0,0.0,0.0,0.0,0.0,0.0,0.0,0.0,0.0,0.0,0.0,0.0,0.0,0.0,0.0
,,130958.344037,2.920567274093628,0.0,0.0,0.0,0.0,0.0,0.0,0.0,0.0,0.0,0.0,0.0,0,1,2,3,4,5,6,7,8,9,11043.0,-0.87,-0.08,0.46,-0.91,-1.65,-0.55,-8.55,221.16,72.77,0.0,0.0,0.0,0.0,0.0,0.0,0.0,0.0,0.0,0.0,0.0,0.0,0.0,0.0,0.0,0.0,0.0,0.0,0.0,0.0,0.0,0.0
,,130958.364057,2.940603017807007,0.0,0.0,0.0,0.0,0.0,0.0,0.0,0.0,0.0,0.0,0.0,0,1,2,3,4,5,6,7,8,9,11043.0,-0.87,-0.08,0.46,-0.91,-1.65,-0.55,-8.55,221.16,72.77,0.0,0.0,0.0,0.0,0.0,0.0,0.0,0.0,0.0,0.0,0.0,0.0,0.0,0.0,0.0,0.0,0.0,0.0,0.0,0.0,0.0,0.0
,,130958.384003,2.96052622795105,0.0,0.0,0.0,0.0,0.0,0.0,0.0,0.0,0.0,0.0,0.0,0,1,2,3,4,5,6,7,8,9,11127.0,-0.88,-0.08,0.46,-1.1,-1.59,-0.55,-6.75,222.81,71.72,0.0,0.0,0.0,0.0,0.0,0.0,0.0,0.0,0.0,0.0,0.0,0.0,0.0,0.0,0.0,0.0,0.0,0.0,0.0,0.0,0.0,0.0
,,130958.403976,2.9804999828338623,0.0,0.0,0.0,0.0,0.0,0.0,0.0,0.0,0.0,0.0,0.0,0,1,2,3,4,5,6,7,8,9,11145.0,-0.88,-0.08,0.46,-1.1,-1.59,-0.55,-7.2,221.31,72.32,0.0,0.0,0.0,0.0,0.0,0.0,0.0,0.0,0.0,0.0,0.0,0.0,0.0,0.0,0.0,0.0,0.0,0.0,0.0,0.0,0.0,0.0
,,130958.423994,3.0005147457122803,0.0,0.0,0.0,0.0,0.0,0.0,0.0,0.0,0.0,0.0,0.0,0,1,2,3,4,5,6,7,8,9,11162.0,-0.87,-0.07,0.46,-0.91,-1.52,-0.49,-7.2,219.5,72.92,0.0,0.0,0.0,0.0,0.0,0.0,0.0,0.0,0.0,0.0,0.0,0.0,0.0,0.0,0.0,0.0,0.0,0.0,0.0,0.0,0.0,0.0
,,130958.444026,3.0205557346343994,0.0,0.0,0.0,0.0,0.0,0.0,0.0,0.0,0.0,0.0,0.0,0,1,2,3,4,5,6,7,8,9,11184.0,-0.88,-0.08,0.46,-0.98,-1.65,-0.49,-8.25,221.31,71.57,0.0,0.0,0.0,0.0,0.0,0.0,0.0,0.0,0.0,0.0,0.0,0.0,0.0,0.0,0.0,0.0,0.0,0.0,0.0,0.0,0.0,0.0
,,130958.464002,3.040525197982788,0.0,0.0,0.0,0.0,0.0,0.0,0.0,0.0,0.0,0.0,0.0,0,1,2,3,4,5,6,7,8,9,11204.0,-0.87,-0.09,0.48,-0.98,-1.59,-0.55,-8.1,222.51,71.72,0.0,0.0,0.0,0.0,0.0,0.0,0.0,0.0,0.0,0.0,0.0,0.0,0.0,0.0,0.0,0.0,0.0,0.0,0.0,0.0,0.0,0.0
,,130958.483937,3.060455083847046,0.0,0.0,0.0,0.0,0.0,0.0,0.0,0.0,0.0,0.0,0.0,0,1,2,3,4,5,6,7,8,9,11223.0,-0.88,-0.08,0.47,-1.04,-1.52,-0.55,-8.85,221.76,72.02,0.0,0.0,0.0,0.0,0.0,0.0,0.0,0.0,0.0,0.0,0.0,0.0,0.0,0.0,0.0,0.0,0.0,0.0,0.0,0.0,0.0,0.0
,,130958.504115,3.080643892288208,0.0,0.0,0.0,0.0,0.0,0.0,0.0,0.0,0.0,0.0,0.0,0,1,2,3,4,5,6,7,8,9,11243.0,-0.88,-0.08,0.48,-1.16,-1.59,-0.55,-7.5,221.16,71.72,0.0,0.0,0.0,0.0,0.0,0.0,0.0,0.0,0.0,0.0,0.0,0.0,0.0,0.0,0.0,0.0,0.0,0.0,0.0,0.0,0.0,0.0
,,130958.524029,3.1005544662475586,0.0,0.0,0.0,0.0,0.0,0.0,0.0,0.0,0.0,0.0,0.0,0,1,2,3,4,5,6,7,8,9,11264.0,-0.88,-0.08,0.46,-1.04,-1.59,-0.61,-8.85,222.21,72.02,0.0,0.0,0.0,0.0,0.0,0.0,0.0,0.0,0.0,0.0,0.0,0.0,0.0,0.0,0.0,0.0,0.0,0.0,0.0,0.0,0.0,0.0
,,130958.544025,3.1205532550811768,0.0,0.0,0.0,0.0,0.0,0.0,0.0,0.0,0.0,0.0,0.0,0,1,2,3,4,5,6,7,8,9,11284.0,-0.88,-0.08,0.46,-1.04,-1.46,-0.49,-7.5,220.41,72.77,0.0,0.0,0.0,0.0,0.0,0.0,0.0,0.0,0.0,0.0,0.0,0.0,0.0,0.0,0.0,0.0,0.0,0.0,0.0,0.0,0.0,0.0
,,130958.56398,3.1405045986175537,0.0,0.0,0.0,0.0,0.0,0.0,0.0,0.0,0.0,0.0,0.0,0,1,2,3,4,5,6,7,8,9,11304.0,-0.88,-0.07,0.46,-0.91,-1.65,-0.55,-7.2,222.66,71.87,0.0,0.0,0.0,0.0,0.0,0.0,0.0,0.0,0.0,0.0,0.0,0.0,0.0,0.0,0.0,0.0,0.0,0.0,0.0,0.0,0.0,0.0
,,130958.583955,3.160475969314575,0.0,0.0,0.0,0.0,0.0,0.0,0.0,0.0,0.0,0.0,0.0,0,1,2,3,4,5,6,7,8,9,11324.0,-0.87,-0.07,0.48,-1.16,-1.52,-0.61,-7.65,223.11,72.32,0.0,0.0,0.0,0.0,0.0,0.0,0.0,0.0,0.0,0.0,0.0,0.0,0.0,0.0,0.0,0.0,0.0,0.0,0.0,0.0,0.0,0.0
,,130958.603957,3.1804769039154053,0.0,0.0,0.0,0.0,0.0,0.0,0.0,0.0,0.0,0.0,0.0,0,1,2,3,4,5,6,7,8,9,11324.0,-0.87,-0.07,0.48,-1.16,-1.52,-0.61,-7.65,223.11,72.32,0.0,0.0,0.0,0.0,0.0,0.0,0.0,0.0,0.0,0.0,0.0,0.0,0.0,0.0,0.0,0.0,0.0,0.0,0.0,0.0,0.0,0.0
,,130958.624054,3.2005858421325684,0.0,0.0,0.0,0.0,0.0,0.0,0.0,0.0,0.0,0.0,0.0,0,1,2,3,4,5,6,7,8,9,11324.0,-0.87,-0.07,0.48,-1.16,-1.52,-0.61,-7.65,223.11,72.32,0.0,0.0,0.0,0.0,0.0,0.0,0.0,0.0,0.0,0.0,0.0,0.0,0.0,0.0,0.0,0.0,0.0,0.0,0.0,0.0,0.0,0.0
,,130958.644042,3.2205724716186523,0.0,0.0,0.0,0.0,0.0,0.0,0.0,0.0,0.0,0.0,0.0,0,1,2,3,4,5,6,7,8,9,11324.0,-0.87,-0.07,0.48,-1.16,-1.52,-0.61,-7.65,223.11,72.32,0.0,0.0,0.0,0.0,0.0,0.0,0.0,0.0,0.0,0.0,0.0,0.0,0.0,0.0,0.0,0.0,0.0,0.0,0.0,0.0,0.0,0.0
,,130958.664114,3.2406461238861084,0.0,0.0,0.0,0.0,0.0,0.0,0.0,0.0,0.0,0.0,0.0,0,1,2,3,4,5,6,7,8,9,11401.0,-0.87,-0.08,0.47,-1.1,-1.52,-0.61,-7.8,222.21,72.47,0.0,0.0,0.0,0.0,0.0,0.0,0.0,0.0,0.0,0.0,0.0,0.0,0.0,0.0,0.0,0.0,0.0,0.0,0.0,0.0,0.0,0.0
,,130958.684023,3.2605483531951904,0.0,0.0,0.0,0.0,0.0,0.0,0.0,0.0,0.0,0.0,0.0,0,1,2,3,4,5,6,7,8,9,11427.0,-0.88,-0.08,0.48,-0.98,-1.65,-0.49,-6.9,222.36,71.27,0.0,0.0,0.0,0.0,0.0,0.0,0.0,0.0,0.0,0.0,0.0,0.0,0.0,0.0,0.0,0.0,0.0,0.0,0.0,0.0,0.0,0.0
,,130958.704057,3.2805824279785156,0.0,0.0,0.0,0.0,0.0,0.0,0.0,0.0,0.0,0.0,0.0,0,1,2,3,4,5,6,7,8,9,11444.0,-0.89,-0.08,0.47,-1.16,-1.46,-0.49,-7.95,221.01,71.57,0.0,0.0,0.0,0.0,0.0,0.0,0.0,0.0,0.0,0.0,0.0,0.0,0.0,0.0,0.0,0.0,0.0,0.0,0.0,0.0,0.0,0.0
,,130958.724017,3.3005566596984863,0.0,0.0,0.0,0.0,0.0,0.0,0.0,0.0,0.0,0.0,0.0,0,1,2,3,4,5,6,7,8,9,11464.0,-0.87,-0.07,0.47,-1.16,-1.52,-0.55,-7.95,221.61,70.97,0.0,0.0,0.0,0.0,0.0,0.0,0.0,0.0,0.0,0.0,0.0,0.0,0.0,0.0,0.0,0.0,0.0,0.0,0.0,0.0,0.0,0.0
,,130958.744006,3.3205301761627197,0.0,0.0,0.0,0.0,0.0,0.0,0.0,0.0,0.0,0.0,0.0,0,1,2,3,4,5,6,7,8,9,11484.0,-0.88,-0.07,0.46,-1.04,-1.52,-0.49,-9.3,221.01,72.92,0.0,0.0,0.0,0.0,0.0,0.0,0.0,0.0,0.0,0.0,0.0,0.0,0.0,0.0,0.0,0.0,0.0,0.0,0.0,0.0,0.0,0.0
,,130958.763971,3.3404951095581055,0.0,0.0,0.0,0.0,0.0,0.0,0.0,0.0,0.0,0.0,0.0,0,1,2,3,4,5,6,7,8,9,11504.0,-0.88,-0.07,0.47,-1.04,-1.65,-0.55,-7.8,221.76,71.72,0.0,0.0,0.0,0.0,0.0,0.0,0.0,0.0,0.0,0.0,0.0,0.0,0.0,0.0,0.0,0.0,0.0,0.0,0.0,0.0,0.0,0.0
,,130958.783991,3.3605358600616455,0.0,0.0,0.0,0.0,0.0,0.0,0.0,0.0,0.0,0.0,0.0,0,1,2,3,4,5,6,7,8,9,11524.0,-0.88,-0.07,0.46,-0.98,-1.59,-0.49,-6.75,222.51,72.77,0.0,0.0,0.0,0.0,0.0,0.0,0.0,0.0,0.0,0.0,0.0,0.0,0.0,0.0,0.0,0.0,0.0,0.0,0.0,0.0,0.0,0.0
,,130958.804012,3.3805367946624756,0.0,0.0,0.0,0.0,0.0,0.0,0.0,0.0,0.0,0.0,0.0,0,1,2,3,4,5,6,7,8,9,11543.0,-0.87,-0.08,0.46,-1.04,-1.59,-0.37,-8.25,223.11,71.87,0.0,0.0,0.0,0.0,0.0,0.0,0.0,0.0,0.0,0.0,0.0,0.0,0.0,0.0,0.0,0.0,0.0,0.0,0.0,0.0,0.0,0.0
,,130958.823972,3.4004926681518555,0.0,0.0,0.0,0.0,0.0,0.0,0.0,0.0,0.0,0.0,0.0,0,1,2,3,4,5,6,7,8,9,11563.0,-0.87,-0.08,0.46,-1.1,-1.59,-0.55,-7.8,222.81,71.12,0.0,0.0,0.0,0.0,0.0,0.0,0.0,0.0,0.0,0.0,0.0,0.0,0.0,0.0,0.0,0.0,0.0,0.0,0.0,0.0,0.0,0.0
,,130958.844008,3.420531749725342,0.0,0.0,0.0,0.0,0.0,0.0,0.0,0.0,0.0,0.0,0.0,0,1,2,3,4,5,6,7,8,9,11583.0,-0.88,-0.08,0.47,-1.1,-1.52,-0.55,-6.6,221.61,71.87,0.0,0.0,0.0,0.0,0.0,0.0,0.0,0.0,0.0,0.0,0.0,0.0,0.0,0.0,0.0,0.0,0.0,0.0,0.0,0.0,0.0,0.0
,,130958.864005,3.4405300617218018,0.0,0.0,0.0,0.0,0.0,0.0,0.0,0.0,0.0,0.0,0.0,0,1,2,3,4,5,6,7,8,9,11604.0,-0.88,-0.07,0.47,-1.04,-1.59,-0.61,-8.25,223.71,70.97,0.0,0.0,0.0,0.0,0.0,0.0,0.0,0.0,0.0,0.0,0.0,0.0,0.0,0.0,0.0,0.0,0.0,0.0,0.0,0.0,0.0,0.0
,,130958.884015,3.460540294647217,0.0,0.0,0.0,0.0,0.0,0.0,0.0,0.0,0.0,0.0,0.0,0,1,2,3,4,5,6,7,8,9,11604.0,-0.88,-0.07,0.47,-1.04,-1.59,-0.61,-8.25,223.71,70.97,0.0,0.0,0.0,0.0,0.0,0.0,0.0,0.0,0.0,0.0,0.0,0.0,0.0,0.0,0.0,0.0,0.0,0.0,0.0,0.0,0.0,0.0
,,130958.904001,3.4805409908294678,0.0,0.0,0.0,0.0,0.0,0.0,0.0,0.0,0.0,0.0,0.0,0,1,2,3,4,5,6,7,8,9,11604.0,-0.88,-0.07,0.47,-1.04,-1.59,-0.61,-8.25,223.71,70.97,0.0,0.0,0.0,0.0,0.0,0.0,0.0,0.0,0.0,0.0,0.0,0.0,0.0,0.0,0.0,0.0,0.0,0.0,0.0,0.0,0.0,0.0
,,130958.923981,3.5005228519439697,0.0,0.0,0.0,0.0,0.0,0.0,0.0,0.0,0.0,0.0,0.0,0,1,2,3,4,5,6,7,8,9,11604.0,-0.88,-0.07,0.47,-1.04,-1.59,-0.61,-8.25,223.71,70.97,0.0,0.0,0.0,0.0,0.0,0.0,0.0,0.0,0.0,0.0,0.0,0.0,0.0,0.0,0.0,0.0,0.0,0.0,0.0,0.0,0.0,0.0
,,130958.944001,3.5205249786376953,0.0,0.0,0.0,0.0,0.0,0.0,0.0,0.0,0.0,0.0,0.0,0,1,2,3,4,5,6,7,8,9,11688.0,-0.88,-0.08,0.47,-1.1,-1.65,-0.49,-7.2,221.01,71.57,0.0,0.0,0.0,0.0,0.0,0.0,0.0,0.0,0.0,0.0,0.0,0.0,0.0,0.0,0.0,0.0,0.0,0.0,0.0,0.0,0.0,0.0
,,130958.96402,3.54054594039917,0.0,0.0,0.0,0.0,0.0,0.0,0.0,0.0,0.0,0.0,0.0,0,1,2,3,4,5,6,7,8,9,11706.0,-0.88,-0.09,0.46,-1.1,-1.65,-0.61,-8.25,221.61,72.32,0.0,0.0,0.0,0.0,0.0,0.0,0.0,0.0,0.0,0.0,0.0,0.0,0.0,0.0,0.0,0.0,0.0,0.0,0.0,0.0,0.0,0.0
,,130958.983998,3.560516834259033,0.0,0.0,0.0,0.0,0.0,0.0,0.0,0.0,0.0,0.0,0.0,0,1,2,3,4,5,6,7,8,9,11723.0,-0.87,-0.09,0.47,-1.1,-1.52,-0.49,-7.8,220.71,71.42,0.0,0.0,0.0,0.0,0.0,0.0,0.0,0.0,0.0,0.0,0.0,0.0,0.0,0.0,0.0,0.0,0.0,0.0,0.0,0.0,0.0,0.0
,,130959.003982,3.580502510070801,0.0,0.0,0.0,0.0,0.0,0.0,0.0,0.0,0.0,0.0,0.0,0,1,2,3,4,5,6,7,8,9,11744.0,-0.87,-0.07,0.47,-1.04,-1.59,-0.43,-7.65,221.31,71.27,0.0,0.0,0.0,0.0,0.0,0.0,0.0,0.0,0.0,0.0,0.0,0.0,0.0,0.0,0.0,0.0,0.0,0.0,0.0,0.0,0.0,0.0
,,130959.024012,3.600534200668335,0.0,0.0,0.0,0.0,0.0,0.0,0.0,0.0,0.0,0.0,0.0,0,1,2,3,4,5,6,7,8,9,11764.0,-0.88,-0.07,0.47,-1.04,-1.65,-0.43,-8.55,222.21,72.47,0.0,0.0,0.0,0.0,0.0,0.0,0.0,0.0,0.0,0.0,0.0,0.0,0.0,0.0,0.0,0.0,0.0,0.0,0.0,0.0,0.0,0.0
,,130959.044046,3.620573043823242,0.0,0.0,0.0,0.0,0.0,0.0,0.0,0.0,0.0,0.0,0.0,0,1,2,3,4,5,6,7,8,9,11784.0,-0.88,-0.08,0.46,-1.22,-1.65,-0.49,-7.05,221.46,72.02,0.0,0.0,0.0,0.0,0.0,0.0,0.0,0.0,0.0,0.0,0.0,0.0,0.0,0.0,0.0,0.0,0.0,0.0,0.0,0.0,0.0,0.0
,,130959.064083,3.6406137943267822,0.0,0.0,0.0,0.0,0.0,0.0,0.0,0.0,0.0,0.0,0.0,0,1,2,3,4,5,6,7,8,9,11804.0,-0.87,-0.08,0.48,-0.98,-1.46,-0.49,-9.15,221.16,71.42,0.0,0.0,0.0,0.0,0.0,0.0,0.0,0.0,0.0,0.0,0.0,0.0,0.0,0.0,0.0,0.0,0.0,0.0,0.0,0.0,0.0,0.0
,,130959.084027,3.660553216934204,0.0,0.0,0.0,0.0,0.0,0.0,0.0,0.0,0.0,0.0,0.0,0,1,2,3,4,5,6,7,8,9,11824.0,-0.88,-0.08,0.47,-1.04,-1.59,-0.49,-7.8,222.81,70.37,0.0,0.0,0.0,0.0,0.0,0.0,0.0,0.0,0.0,0.0,0.0,0.0,0.0,0.0,0.0,0.0,0.0,0.0,0.0,0.0,0.0,0.0
,,130959.104018,3.6805384159088135,0.0,0.0,0.0,0.0,0.0,0.0,0.0,0.0,0.0,0.0,0.0,0,1,2,3,4,5,6,7,8,9,11844.0,-0.88,-0.09,0.46,-1.1,-1.65,-0.61,-7.8,221.46,72.02,0.0,0.0,0.0,0.0,0.0,0.0,0.0,0.0,0.0,0.0,0.0,0.0,0.0,0.0,0.0,0.0,0.0,0.0,0.0,0.0,0.0,0.0
,,130959.123988,3.700507879257202,0.0,0.0,0.0,0.0,0.0,0.0,0.0,0.0,0.0,0.0,0.0,0,1,2,3,4,5,6,7,8,9,11864.0,-0.87,-0.08,0.47,-1.04,-1.59,-0.49,-8.85,221.46,72.47,0.0,0.0,0.0,0.0,0.0,0.0,0.0,0.0,0.0,0.0,0.0,0.0,0.0,0.0,0.0,0.0,0.0,0.0,0.0,0.0,0.0,0.0
,,130959.144019,3.7205469608306885,0.0,0.0,0.0,0.0,0.0,0.0,0.0,0.0,0.0,0.0,0.0,0,1,2,3,4,5,6,7,8,9,11884.0,-0.87,-0.08,0.48,-1.16,-1.52,-0.61,-6.75,222.21,71.72,0.0,0.0,0.0,0.0,0.0,0.0,0.0,0.0,0.0,0.0,0.0,0.0,0.0,0.0,0.0,0.0,0.0,0.0,0.0,0.0,0.0,0.0
,,130959.163965,3.7404887676239014,0.0,0.0,0.0,0.0,0.0,0.0,0.0,0.0,0.0,0.0,0.0,0,1,2,3,4,5,6,7,8,9,11884.0,-0.87,-0.08,0.48,-1.16,-1.52,-0.61,-6.75,222.21,71.72,0.0,0.0,0.0,0.0,0.0,0.0,0.0,0.0,0.0,0.0,0.0,0.0,0.0,0.0,0.0,0.0,0.0,0.0,0.0,0.0,0.0,0.0
,,130959.183975,3.7605135440826416,0.0,0.0,0.0,0.0,0.0,0.0,0.0,0.0,0.0,0.0,0.0,0,1,2,3,4,5,6,7,8,9,11884.0,-0.87,-0.08,0.48,-1.16,-1.52,-0.61,-6.75,222.21,71.72,0.0,0.0,0.0,0.0,0.0,0.0,0.0,0.0,0.0,0.0,0.0,0.0,0.0,0.0,0.0,0.0,0.0,0.0,0.0,0.0,0.0,0.0
,,130959.204014,3.780543088912964,0.0,0.0,0.0,0.0,0.0,0.0,0.0,0.0,0.0,0.0,0.0,0,1,2,3,4,5,6,7,8,9,11884.0,-0.87,-0.08,0.48,-1.16,-1.52,-0.61,-6.75,222.21,71.72,0.0,0.0,0.0,0.0,0.0,0.0,0.0,0.0,0.0,0.0,0.0,0.0,0.0,0.0,0.0,0.0,0.0,0.0,0.0,0.0,0.0,0.0
,,130959.22404,3.8005666732788086,0.0,0.0,0.0,0.0,0.0,0.0,0.0,0.0,0.0,0.0,0.0,0,1,2,3,4,5,6,7,8,9,11961.0,-0.87,-0.07,0.47,-1.04,-1.59,-0.55,-7.95,222.06,73.97,0.0,0.0,0.0,0.0,0.0,0.0,0.0,0.0,0.0,0.0,0.0,0.0,0.0,0.0,0.0,0.0,0.0,0.0,0.0,0.0,0.0,0.0
,,130959.243986,3.8205068111419678,0.0,0.0,0.0,0.0,0.0,0.0,0.0,0.0,0.0,0.0,0.0,0,1,2,3,4,5,6,7,8,9,11988.0,-0.87,-0.08,0.47,-0.98,-1.59,-0.49,-7.05,222.51,71.12,0.0,0.0,0.0,0.0,0.0,0.0,0.0,0.0,0.0,0.0,0.0,0.0,0.0,0.0,0.0,0.0,0.0,0.0,0.0,0.0,0.0,0.0
,,130959.263978,3.8404972553253174,0.0,0.0,0.0,0.0,0.0,0.0,0.0,0.0,0.0,0.0,0.0,0,1,2,3,4,5,6,7,8,9,12004.0,-0.88,-0.08,0.46,-1.16,-1.65,-0.43,-8.55,221.46,72.02,0.0,0.0,0.0,0.0,0.0,0.0,0.0,0.0,0.0,0.0,0.0,0.0,0.0,0.0,0.0,0.0,0.0,0.0,0.0,0.0,0.0,0.0
,,130959.283997,3.860520601272583,0.0,0.0,0.0,0.0,0.0,0.0,0.0,0.0,0.0,0.0,0.0,0,1,2,3,4,5,6,7,8,9,12024.0,-0.88,-0.08,0.47,-1.04,-1.59,-0.67,-7.65,222.36,71.27,0.0,0.0,0.0,0.0,0.0,0.0,0.0,0.0,0.0,0.0,0.0,0.0,0.0,0.0,0.0,0.0,0.0,0.0,0.0,0.0,0.0,0.0
,,130959.304011,3.8805344104766846,0.0,0.0,0.0,0.0,0.0,0.0,0.0,0.0,0.0,0.0,0.0,0,1,2,3,4,5,6,7,8,9,12044.0,-0.88,-0.08,0.47,-0.98,-1.59,-0.55,-7.8,222.81,71.72,0.0,0.0,0.0,0.0,0.0,0.0,0.0,0.0,0.0,0.0,0.0,0.0,0.0,0.0,0.0,0.0,0.0,0.0,0.0,0.0,0.0,0.0
,,130959.324014,3.9005398750305176,0.0,0.0,0.0,0.0,0.0,0.0,0.0,0.0,0.0,0.0,0.0,0,1,2,3,4,5,6,7,8,9,12064.0,-0.87,-0.08,0.47,-1.1,-1.59,-0.49,-9.0,221.31,72.32,0.0,0.0,0.0,0.0,0.0,0.0,0.0,0.0,0.0,0.0,0.0,0.0,0.0,0.0,0.0,0.0,0.0,0.0,0.0,0.0,0.0,0.0
,,130959.344001,3.920522451400757,0.0,0.0,0.0,0.0,0.0,0.0,0.0,0.0,0.0,0.0,0.0,0,1,2,3,4,5,6,7,8,9,12084.0,-0.87,-0.08,0.46,-1.04,-1.52,-0.43,-6.75,221.16,72.47,0.0,0.0,0.0,0.0,0.0,0.0,0.0,0.0,0.0,0.0,0.0,0.0,0.0,0.0,0.0,0.0,0.0,0.0,0.0,0.0,0.0,0.0
,,130959.363994,3.940516233444214,0.0,0.0,0.0,0.0,0.0,0.0,0.0,0.0,0.0,0.0,0.0,0,1,2,3,4,5,6,7,8,9,12104.0,-0.87,-0.08,0.45,-1.1,-1.52,-0.49,-7.8,221.76,72.02,0.0,0.0,0.0,0.0,0.0,0.0,0.0,0.0,0.0,0.0,0.0,0.0,0.0,0.0,0.0,0.0,0.0,0.0,0.0,0.0,0.0,0.0
,,130959.383991,3.9605133533477783,0.0,0.0,0.0,0.0,0.0,0.0,0.0,0.0,0.0,0.0,0.0,0,1,2,3,4,5,6,7,8,9,12124.0,-0.87,-0.08,0.48,-1.04,-1.59,-0.37,-8.1,222.21,71.72,0.0,0.0,0.0,0.0,0.0,0.0,0.0,0.0,0.0,0.0,0.0,0.0,0.0,0.0,0.0,0.0,0.0,0.0,0.0,0.0,0.0,0.0
,,130959.404024,3.980548620223999,0.0,0.0,0.0,0.0,0.0,0.0,0.0,0.0,0.0,0.0,0.0,0,1,2,3,4,5,6,7,8,9,12144.0,-0.87,-0.08,0.46,-0.98,-1.59,-0.43,-9.3,221.31,72.92,0.0,0.0,0.0,0.0,0.0,0.0,0.0,0.0,0.0,0.0,0.0,0.0,0.0,0.0,0.0,0.0,0.0,0.0,0.0,0.0,0.0,0.0
,,130959.423981,4.000499963760376,0.0,0.0,0.0,0.0,0.0,0.0,0.0,0.0,0.0,0.0,0.0,0,1,2,3,4,5,6,7,8,9,12163.0,-0.88,-0.07,0.47,-1.04,-1.52,-0.37,-7.2,221.31,72.62,0.0,0.0,0.0,0.0,0.0,0.0,0.0,0.0,0.0,0.0,0.0,0.0,0.0,0.0,0.0,0.0,0.0,0.0,0.0,0.0,0.0,0.0
,,130959.443948,4.020470380783081,0.0,0.0,0.0,0.0,0.0,0.0,0.0,0.0,0.0,0.0,0.0,0,1,2,3,4,5,6,7,8,9,12163.0,-0.88,-0.07,0.47,-1.04,-1.52,-0.37,-7.2,221.31,72.62,0.0,0.0,0.0,0.0,0.0,0.0,0.0,0.0,0.0,0.0,0.0,0.0,0.0,0.0,0.0,0.0,0.0,0.0,0.0,0.0,0.0,0.0
,,130959.464041,4.040582656860352,0.0,0.0,0.0,0.0,0.0,0.0,0.0,0.0,0.0,0.0,0.0,0,1,2,3,4,5,6,7,8,9,12163.0,-0.88,-0.07,0.47,-1.04,-1.52,-0.37,-7.2,221.31,72.62,0.0,0.0,0.0,0.0,0.0,0.0,0.0,0.0,0.0,0.0,0.0,0.0,0.0,0.0,0.0,0.0,0.0,0.0,0.0,0.0,0.0,0.0
,,130959.484053,4.0605788230896,0.0,0.0,0.0,0.0,0.0,0.0,0.0,0.0,0.0,0.0,0.0,0,1,2,3,4,5,6,7,8,9,12228.0,-0.88,-0.08,0.48,-1.1,-1.59,-0.49,-5.55,221.31,73.22,0.0,0.0,0.0,0.0,0.0,0.0,0.0,0.0,0.0,0.0,0.0,0.0,0.0,0.0,0.0,0.0,0.0,0.0,0.0,0.0,0.0,0.0
,,130959.504028,4.080554246902466,0.0,0.0,0.0,0.0,0.0,0.0,0.0,0.0,0.0,0.0,0.0,0,1,2,3,4,5,6,7,8,9,12246.0,-0.87,-0.08,0.46,-1.1,-1.65,-0.55,-7.2,222.36,71.57,0.0,0.0,0.0,0.0,0.0,0.0,0.0,0.0,0.0,0.0,0.0,0.0,0.0,0.0,0.0,0.0,0.0,0.0,0.0,0.0,0.0,0.0
,,130959.523991,4.100524663925171,0.0,0.0,0.0,0.0,0.0,0.0,0.0,0.0,0.0,0.0,0.0,0,1,2,3,4,5,6,7,8,9,12264.0,-0.88,-0.07,0.46,-1.1,-1.52,-0.49,-7.8,222.21,72.02,0.0,0.0,0.0,0.0,0.0,0.0,0.0,0.0,0.0,0.0,0.0,0.0,0.0,0.0,0.0,0.0,0.0,0.0,0.0,0.0,0.0,0.0
,,130959.544064,4.120587110519409,0.0,0.0,0.0,0.0,0.0,0.0,0.0,0.0,0.0,0.0,0.0,0,1,2,3,4,5,6,7,8,9,12284.0,-0.88,-0.08,0.47,-1.1,-1.59,-0.55,-6.45,221.76,71.42,0.0,0.0,0.0,0.0,0.0,0.0,0.0,0.0,0.0,0.0,0.0,0.0,0.0,0.0,0.0,0.0,0.0,0.0,0.0,0.0,0.0,0.0
,,130959.563958,4.140478849411011,0.0,0.0,0.0,0.0,0.0,0.0,0.0,0.0,0.0,0.0,0.0,0,1,2,3,4,5,6,7,8,9,12304.0,-0.87,-0.08,0.47,-0.98,-1.59,-0.61,-8.1,221.16,71.12,0.0,0.0,0.0,0.0,0.0,0.0,0.0,0.0,0.0,0.0,0.0,0.0,0.0,0.0,0.0,0.0,0.0,0.0,0.0,0.0,0.0,0.0
,,130959.583991,4.160516977310181,0.0,0.0,0.0,0.0,0.0,0.0,0.0,0.0,0.0,0.0,0.0,0,1,2,3,4,5,6,7,8,9,12323.0,-0.87,-0.08,0.47,-1.04,-1.52,-0.3,-8.85,222.51,72.47,0.0,0.0,0.0,0.0,0.0,0.0,0.0,0.0,0.0,0.0,0.0,0.0,0.0,0.0,0.0,0.0,0.0,0.0,0.0,0.0,0.0,0.0
,,130959.604025,4.1805455684661865,0.0,0.0,0.0,0.0,0.0,0.0,0.0,0.0,0.0,0.0,0.0,0,1,2,3,4,5,6,7,8,9,12343.0,-0.86,-0.09,0.46,-1.16,-1.52,-0.49,-7.95,222.06,72.62,0.0,0.0,0.0,0.0,0.0,0.0,0.0,0.0,0.0,0.0,0.0,0.0,0.0,0.0,0.0,0.0,0.0,0.0,0.0,0.0,0.0,0.0
,,130959.624023,4.200546026229858,0.0,0.0,0.0,0.0,0.0,0.0,0.0,0.0,0.0,0.0,0.0,0,1,2,3,4,5,6,7,8,9,12363.0,-0.88,-0.08,0.46,-1.1,-1.65,-0.49,-8.25,221.01,72.62,0.0,0.0,0.0,0.0,0.0,0.0,0.0,0.0,0.0,0.0,0.0,0.0,0.0,0.0,0.0,0.0,0.0,0.0,0.0,0.0,0.0,0.0
,,130959.644072,4.220602989196777,0.0,0.0,0.0,0.0,0.0,0.0,0.0,0.0,0.0,0.0,0.0,0,1,2,3,4,5,6,7,8,9,12383.0,-0.87,-0.09,0.47,-1.04,-1.65,-0.49,-7.65,222.36,72.62,0.0,0.0,0.0,0.0,0.0,0.0,0.0,0.0,0.0,0.0,0.0,0.0,0.0,0.0,0.0,0.0,0.0,0.0,0.0,0.0,0.0,0.0
,,130959.664055,4.2405853271484375,0.0,0.0,0.0,0.0,0.0,0.0,0.0,0.0,0.0,0.0,0.0,0,1,2,3,4,5,6,7,8,9,12404.0,-0.88,-0.08,0.47,-0.98,-1.52,-0.55,-7.65,219.95,71.57,0.0,0.0,0.0,0.0,0.0,0.0,0.0,0.0,0.0,0.0,0.0,0.0,0.0,0.0,0.0,0.0,0.0,0.0,0.0,0.0,0.0,0.0
,,130959.684043,4.260573625564575,0.0,0.0,0.0,0.0,0.0,0.0,0.0,0.0,0.0,0.0,0.0,0,1,2,3,4,5,6,7,8,9,12424.0,-0.87,-0.07,0.46,-1.04,-1.52,-0.49,-8.55,221.46,72.02,0.0,0.0,0.0,0.0,0.0,0.0,0.0,0.0,0.0,0.0,0.0,0.0,0.0,0.0,0.0,0.0,0.0,0.0,0.0,0.0,0.0,0.0
,,130959.70404,4.280565500259399,0.0,0.0,0.0,0.0,0.0,0.0,0.0,0.0,0.0,0.0,0.0,0,1,2,3,4,5,6,7,8,9,12444.0,-0.87,-0.07,0.46,-1.1,-1.46,-0.55,-8.55,220.41,71.72,0.0,0.0,0.0,0.0,0.0,0.0,0.0,0.0,0.0,0.0,0.0,0.0,0.0,0.0,0.0,0.0,0.0,0.0,0.0,0.0,0.0,0.0
,,130959.724008,4.3005359172821045,0.0,0.0,0.0,0.0,0.0,0.0,0.0,0.0,0.0,0.0,0.0,0,1,2,3,4,5,6,7,8,9,12444.0,-0.87,-0.07,0.46,-1.1,-1.46,-0.55,-8.55,220.41,71.72,0.0,0.0,0.0,0.0,0.0,0.0,0.0,0.0,0.0,0.0,0.0,0.0,0.0,0.0,0.0,0.0,0.0,0.0,0.0,0.0,0.0,0.0
,,130959.744006,4.320526838302612,0.0,0.0,0.0,0.0,0.0,0.0,0.0,0.0,0.0,0.0,0.0,0,1,2,3,4,5,6,7,8,9,12444.0,-0.87,-0.07,0.46,-1.1,-1.46,-0.55,-8.55,220.41,71.72,0.0,0.0,0.0,0.0,0.0,0.0,0.0,0.0,0.0,0.0,0.0,0.0,0.0,0.0,0.0,0.0,0.0,0.0,0.0,0.0,0.0,0.0
,,130959.764034,4.340562582015991,0.0,0.0,0.0,0.0,0.0,0.0,0.0,0.0,0.0,0.0,0.0,0,1,2,3,4,5,6,7,8,9,12444.0,-0.87,-0.07,0.46,-1.1,-1.46,-0.55,-8.55,220.41,71.72,0.0,0.0,0.0,0.0,0.0,0.0,0.0,0.0,0.0,0.0,0.0,0.0,0.0,0.0,0.0,0.0,0.0,0.0,0.0,0.0,0.0,0.0
,,130959.784026,4.360552787780762,0.0,0.0,0.0,0.0,0.0,0.0,0.0,0.0,0.0,0.0,0.0,0,1,2,3,4,5,6,7,8,9,12523.0,-0.88,-0.07,0.47,-1.16,-1.52,-0.43,-7.2,223.11,74.27,0.0,0.0,0.0,0.0,0.0,0.0,0.0,0.0,0.0,0.0,0.0,0.0,0.0,0.0,0.0,0.0,0.0,0.0,0.0,0.0,0.0,0.0
,,130959.804007,4.380529403686523,0.0,0.0,0.0,0.0,0.0,0.0,0.0,0.0,0.0,0.0,0.0,0,1,2,3,4,5,6,7,8,9,12549.0,-0.87,-0.07,0.46,-0.98,-1.59,-0.43,-7.8,221.16,72.47,0.0,0.0,0.0,0.0,0.0,0.0,0.0,0.0,0.0,0.0,0.0,0.0,0.0,0.0,0.0,0.0,0.0,0.0,0.0,0.0,0.0,0.0
,,130959.823974,4.4004998207092285,0.0,0.0,0.0,0.0,0.0,0.0,0.0,0.0,0.0,0.0,0.0,0,1,2,3,4,5,6,7,8,9,12563.0,-0.87,-0.08,0.46,-1.04,-1.59,-0.55,-7.05,222.21,73.07,0.0,0.0,0.0,0.0,0.0,0.0,0.0,0.0,0.0,0.0,0.0,0.0,0.0,0.0,0.0,0.0,0.0,0.0,0.0,0.0,0.0,0.0
,,130959.843961,4.420483589172363,0.0,0.0,0.0,0.0,0.0,0.0,0.0,0.0,0.0,0.0,0.0,0,1,2,3,4,5,6,7,8,9,12584.0,-0.88,-0.08,0.46,-1.1,-1.52,-0.49,-8.25,221.01,73.22,0.0,0.0,0.0,0.0,0.0,0.0,0.0,0.0,0.0,0.0,0.0,0.0,0.0,0.0,0.0,0.0,0.0,0.0,0.0,0.0,0.0,0.0
,,130959.864016,4.440544366836548,0.0,0.0,0.0,0.0,0.0,0.0,0.0,0.0,0.0,0.0,0.0,0,1,2,3,4,5,6,7,8,9,12604.0,-0.88,-0.08,0.47,-1.22,-1.65,-0.61,-7.2,220.56,72.62,0.0,0.0,0.0,0.0,0.0,0.0,0.0,0.0,0.0,0.0,0.0,0.0,0.0,0.0,0.0,0.0,0.0,0.0,0.0,0.0,0.0,0.0
,,130959.883986,4.460507154464722,0.0,0.0,0.0,0.0,0.0,0.0,0.0,0.0,0.0,0.0,0.0,0,1,2,3,4,5,6,7,8,9,12624.0,-0.87,-0.08,0.47,-1.22,-1.65,-0.43,-6.9,221.31,71.57,0.0,0.0,0.0,0.0,0.0,0.0,0.0,0.0,0.0,0.0,0.0,0.0,0.0,0.0,0.0,0.0,0.0,0.0,0.0,0.0,0.0,0.0
,,130959.903991,4.480509519577026,0.0,0.0,0.0,0.0,0.0,0.0,0.0,0.0,0.0,0.0,0.0,0,1,2,3,4,5,6,7,8,9,12644.0,-0.88,-0.08,0.46,-1.1,-1.46,-0.43,-8.1,220.41,72.47,0.0,0.0,0.0,0.0,0.0,0.0,0.0,0.0,0.0,0.0,0.0,0.0,0.0,0.0,0.0,0.0,0.0,0.0,0.0,0.0,0.0,0.0
,,130959.924024,4.5005481243133545,0.0,0.0,0.0,0.0,0.0,0.0,0.0,0.0,0.0,0.0,0.0,0,1,2,3,4,5,6,7,8,9,12664.0,-0.86,-0.08,0.47,-1.16,-1.59,-0.67,-6.6,221.31,71.57,0.0,0.0,0.0,0.0,0.0,0.0,0.0,0.0,0.0,0.0,0.0,0.0,0.0,0.0,0.0,0.0,0.0,0.0,0.0,0.0,0.0,0.0
,,130959.944026,4.520551681518555,0.0,0.0,0.0,0.0,0.0,0.0,0.0,0.0,0.0,0.0,0.0,0,1,2,3,4,5,6,7,8,9,12684.0,-0.88,-0.08,0.47,-1.04,-1.65,-0.61,-7.5,221.16,73.37,0.0,0.0,0.0,0.0,0.0,0.0,0.0,0.0,0.0,0.0,0.0,0.0,0.0,0.0,0.0,0.0,0.0,0.0,0.0,0.0,0.0,0.0
,,130959.964041,4.540566682815552,0.0,0.0,0.0,0.0,0.0,0.0,0.0,0.0,0.0,0.0,0.0,0,1,2,3,4,5,6,7,8,9,12704.0,-0.88,-0.08,0.47,-1.1,-1.52,-0.49,-7.5,222.81,72.77,0.0,0.0,0.0,0.0,0.0,0.0,0.0,0.0,0.0,0.0,0.0,0.0,0.0,0.0,0.0,0.0,0.0,0.0,0.0,0.0,0.0,0.0
,,130959.983954,4.56048321723938,0.0,0.0,0.0,0.0,0.0,0.0,0.0,0.0,0.0,0.0,0.0,0,1,2,3,4,5,6,7,8,9,12724.0,-0.87,-0.08,0.46,-1.1,-1.59,-0.43,-7.5,222.21,71.12,0.0,0.0,0.0,0.0,0.0,0.0,0.0,0.0,0.0,0.0,0.0,0.0,0.0,0.0,0.0,0.0,0.0,0.0,0.0,0.0,0.0,0.0
,,131000.003944,4.580472946166992,0.0,0.0,0.0,0.0,0.0,0.0,0.0,0.0,0.0,0.0,0.0,0,1,2,3,4,5,6,7,8,9,12724.0,-0.87,-0.08,0.46,-1.1,-1.59,-0.43,-7.5,222.21,71.12,0.0,0.0,0.0,0.0,0.0,0.0,0.0,0.0,0.0,0.0,0.0,0.0,0.0,0.0,0.0,0.0,0.0,0.0,0.0,0.0,0.0,0.0
,,131000.023976,4.600515604019165,0.0,0.0,0.0,0.0,0.0,0.0,0.0,0.0,0.0,0.0,0.0,0,1,2,3,4,5,6,7,8,9,12724.0,-0.87,-0.08,0.46,-1.1,-1.59,-0.43,-7.5,222.21,71.12,0.0,0.0,0.0,0.0,0.0,0.0,0.0,0.0,0.0,0.0,0.0,0.0,0.0,0.0,0.0,0.0,0.0,0.0,0.0,0.0,0.0,0.0
,,131000.044034,4.620559930801392,0.0,0.0,0.0,0.0,0.0,0.0,0.0,0.0,0.0,0.0,0.0,0,1,2,3,4,5,6,7,8,9,12724.0,-0.87,-0.08,0.46,-1.1,-1.59,-0.43,-7.5,222.21,71.12,0.0,0.0,0.0,0.0,0.0,0.0,0.0,0.0,0.0,0.0,0.0,0.0,0.0,0.0,0.0,0.0,0.0,0.0,0.0,0.0,0.0,0.0
,,131000.06401,4.640533208847046,0.0,0.0,0.0,0.0,0.0,0.0,0.0,0.0,0.0,0.0,0.0,0,1,2,3,4,5,6,7,8,9,12801.0,-0.88,-0.08,0.46,-1.16,-1.59,-0.49,-6.45,222.21,73.07,0.0,0.0,0.0,0.0,0.0,0.0,0.0,0.0,0.0,0.0,0.0,0.0,0.0,0.0,0.0,0.0,0.0,0.0,0.0,0.0,0.0,0.0
,,131000.083972,4.6604931354522705,0.0,0.0,0.0,0.0,0.0,0.0,0.0,0.0,0.0,0.0,0.0,0,1,2,3,4,5,6,7,8,9,12828.0,-0.88,-0.08,0.47,-0.91,-1.59,-0.55,-7.5,220.41,72.02,0.0,0.0,0.0,0.0,0.0,0.0,0.0,0.0,0.0,0.0,0.0,0.0,0.0,0.0,0.0,0.0,0.0,0.0,0.0,0.0,0.0,0.0
,,131000.10397,4.68049430847168,0.0,0.0,0.0,0.0,0.0,0.0,0.0,0.0,0.0,0.0,0.0,0,1,2,3,4,5,6,7,8,9,12844.0,-0.88,-0.09,0.48,-1.04,-1.59,-0.43,-7.2,222.06,71.87,0.0,0.0,0.0,0.0,0.0,0.0,0.0,0.0,0.0,0.0,0.0,0.0,0.0,0.0,0.0,0.0,0.0,0.0,0.0,0.0,0.0,0.0
,,131000.124042,4.700566291809082,0.0,0.0,0.0,0.0,0.0,0.0,0.0,0.0,0.0,0.0,0.0,0,1,2,3,4,5,6,7,8,9,12864.0,-0.87,-0.07,0.46,-1.04,-1.59,-0.49,-7.65,222.36,72.32,0.0,0.0,0.0,0.0,0.0,0.0,0.0,0.0,0.0,0.0,0.0,0.0,0.0,0.0,0.0,0.0,0.0,0.0,0.0,0.0,0.0,0.0
