name,date,time,time_since_start,vicon_sequence,vicon_time_stamp,vicon_frame_id,vicon_child_frame_id,vicon_translation_x,vicon_translation_y,vicon_translation_z,vicon_rotation_x,vicon_rotation_y,vicon_rotation_z,vicon_rotation_w,int_imu_time_stamp,int_imu_acc_x,int_imu_acc_y,int_imu_acc_z,int_imu_gyro_x,int_imu_gyro_y,int_imu_gyro_z,int_imu_mag_x,int_imu_mag_y,int_imu_mag_z,ext_imu_time_stamp,ext_imu_acc_x,ext_imu_acc_y,ext_imu_acc_z,ext_imu_gyro_x,ext_imu_gyro_y,ext_imu_gyro_z,ext_imu_mag_x,ext_imu_mag_y,ext_imu_mag_z,dji_imu_sequence,dji_imu_time_stamp,dji_imu_frame_id,dji_imu_orientation_x,dji_imu_orientation_y,dji_imu_orientation_z,dji_imu_orientation_w,dji_imu_ang_vel_x,dji_imu_ang_vel_y,dji_imu_ang_vel_z,dji_imu_lin_acc_x,dji_imu_lin_acc_y,dji_imu_lin_acc_z,rc_sequence,rc_time_stamp,rc_frame_id,rc_roll,rc_pitch,rc_yaw,rc_throttle,rc_mode,rc_landing_gear
test.csv,20201030,114118.176823,4.863739013671875e-05,0.0,0.0,0.0,0.0,0.0,0.0,0.0,0.0,0.0,0.0,0.0,0,1,2,3,4,5,6,7,8,9,570901.0,-0.87,-0.07,0.46,0.0,0.0,0.12,-6.0,221.46,73.07,0.0,0.0,0.0,0.0,0.0,0.0,0.0,0.0,0.0,0.0,0.0,0.0,0.0,0.0,0.0,0.0,0.0,0.0,0.0,0.0,0.0,0.0
,,114118.1775,0.0007154941558837891,0.0,0.0,0.0,0.0,0.0,0.0,0.0,0.0,0.0,0.0,0.0,0,1,2,3,4,5,6,7,8,9,570992.0,-0.88,-0.08,0.47,0.0,-0.12,-0.06,-7.5,222.21,71.72,0.0,0.0,0.0,0.0,0.0,0.0,0.0,0.0,0.0,0.0,0.0,0.0,0.0,0.0,0.0,0.0,0.0,0.0,0.0,0.0,0.0,0.0
,,114118.1977,0.02094888687133789,0.0,0.0,0.0,0.0,0.0,0.0,0.0,0.0,0.0,0.0,0.0,0,1,2,3,4,5,6,7,8,9,572336.0,-0.87,-0.08,0.47,-0.06,-0.24,0.0,-6.9,222.66,72.62,0.0,0.0,0.0,0.0,0.0,0.0,0.0,0.0,0.0,0.0,0.0,0.0,0.0,0.0,0.0,0.0,0.0,0.0,0.0,0.0,0.0,0.0
,,114118.217681,0.04090762138366699,0.0,0.0,0.0,0.0,0.0,0.0,0.0,0.0,0.0,0.0,0.0,0,1,2,3,4,5,6,7,8,9,572351.0,-0.87,-0.09,0.47,0.06,0.12,-0.06,-7.65,222.06,72.32,0.0,0.0,0.0,0.0,0.0,0.0,0.0,0.0,0.0,0.0,0.0,0.0,0.0,0.0,0.0,0.0,0.0,0.0,0.0,0.0,0.0,0.0
,,114118.237651,0.06087779998779297,0.0,0.0,0.0,0.0,0.0,0.0,0.0,0.0,0.0,0.0,0.0,0,1,2,3,4,5,6,7,8,9,572372.0,-0.87,-0.09,0.47,-0.12,-0.06,-0.12,-7.65,222.36,72.92,0.0,0.0,0.0,0.0,0.0,0.0,0.0,0.0,0.0,0.0,0.0,0.0,0.0,0.0,0.0,0.0,0.0,0.0,0.0,0.0,0.0,0.0
,,114118.257502,0.08070611953735352,0.0,0.0,0.0,0.0,0.0,0.0,0.0,0.0,0.0,0.0,0.0,0,1,2,3,4,5,6,7,8,9,572392.0,-0.87,-0.08,0.46,-0.12,-0.12,0.12,-9.15,220.41,72.02,0.0,0.0,0.0,0.0,0.0,0.0,0.0,0.0,0.0,0.0,0.0,0.0,0.0,0.0,0.0,0.0,0.0,0.0,0.0,0.0,0.0,0.0
,,114118.277394,0.10059046745300293,0.0,0.0,0.0,0.0,0.0,0.0,0.0,0.0,0.0,0.0,0.0,0,1,2,3,4,5,6,7,8,9,572412.0,-0.87,-0.06,0.48,-0.12,-0.06,-0.06,-7.8,220.71,71.42,0.0,0.0,0.0,0.0,0.0,0.0,0.0,0.0,0.0,0.0,0.0,0.0,0.0,0.0,0.0,0.0,0.0,0.0,0.0,0.0,0.0,0.0
,,114118.297396,0.12059617042541504,0.0,0.0,0.0,0.0,0.0,0.0,0.0,0.0,0.0,0.0,0.0,0,1,2,3,4,5,6,7,8,9,572432.0,-0.88,-0.08,0.47,-0.06,-0.18,-0.06,-7.2,220.56,73.22,0.0,0.0,0.0,0.0,0.0,0.0,0.0,0.0,0.0,0.0,0.0,0.0,0.0,0.0,0.0,0.0,0.0,0.0,0.0,0.0,0.0,0.0
,,114118.317412,0.14061307907104492,0.0,0.0,0.0,0.0,0.0,0.0,0.0,0.0,0.0,0.0,0.0,0,1,2,3,4,5,6,7,8,9,572452.0,-0.88,-0.08,0.47,-0.06,-0.12,0.0,-8.7,221.61,71.57,0.0,0.0,0.0,0.0,0.0,0.0,0.0,0.0,0.0,0.0,0.0,0.0,0.0,0.0,0.0,0.0,0.0,0.0,0.0,0.0,0.0,0.0
,,114118.33743,0.16063475608825684,0.0,0.0,0.0,0.0,0.0,0.0,0.0,0.0,0.0,0.0,0.0,0,1,2,3,4,5,6,7,8,9,572472.0,-0.88,-0.07,0.46,-0.18,-0.12,0.0,-6.6,222.06,72.32,0.0,0.0,0.0,0.0,0.0,0.0,0.0,0.0,0.0,0.0,0.0,0.0,0.0,0.0,0.0,0.0,0.0,0.0,0.0,0.0,0.0,0.0
,,114118.357383,0.18058204650878906,0.0,0.0,0.0,0.0,0.0,0.0,0.0,0.0,0.0,0.0,0.0,0,1,2,3,4,5,6,7,8,9,572492.0,-0.87,-0.08,0.47,0.0,0.0,0.0,-7.05,221.16,71.42,0.0,0.0,0.0,0.0,0.0,0.0,0.0,0.0,0.0,0.0,0.0,0.0,0.0,0.0,0.0,0.0,0.0,0.0,0.0,0.0,0.0,0.0
,,114118.3774,0.20060086250305176,0.0,0.0,0.0,0.0,0.0,0.0,0.0,0.0,0.0,0.0,0.0,0,1,2,3,4,5,6,7,8,9,572511.0,-0.87,-0.08,0.46,-0.06,-0.12,0.06,-7.8,221.16,72.02,0.0,0.0,0.0,0.0,0.0,0.0,0.0,0.0,0.0,0.0,0.0,0.0,0.0,0.0,0.0,0.0,0.0,0.0,0.0,0.0,0.0,0.0
,,114118.397316,0.22050881385803223,0.0,0.0,0.0,0.0,0.0,0.0,0.0,0.0,0.0,0.0,0.0,0,1,2,3,4,5,6,7,8,9,572511.0,-0.87,-0.08,0.46,-0.06,-0.12,0.06,-7.8,221.16,72.02,0.0,0.0,0.0,0.0,0.0,0.0,0.0,0.0,0.0,0.0,0.0,0.0,0.0,0.0,0.0,0.0,0.0,0.0,0.0,0.0,0.0,0.0
,,114118.417298,0.2404935359954834,0.0,0.0,0.0,0.0,0.0,0.0,0.0,0.0,0.0,0.0,0.0,0,1,2,3,4,5,6,7,8,9,572511.0,-0.87,-0.08,0.46,-0.06,-0.12,0.06,-7.8,221.16,72.02,0.0,0.0,0.0,0.0,0.0,0.0,0.0,0.0,0.0,0.0,0.0,0.0,0.0,0.0,0.0,0.0,0.0,0.0,0.0,0.0,0.0,0.0
,,114118.437369,0.26056933403015137,0.0,0.0,0.0,0.0,0.0,0.0,0.0,0.0,0.0,0.0,0.0,0,1,2,3,4,5,6,7,8,9,572511.0,-0.87,-0.08,0.46,-0.06,-0.12,0.06,-7.8,221.16,72.02,0.0,0.0,0.0,0.0,0.0,0.0,0.0,0.0,0.0,0.0,0.0,0.0,0.0,0.0,0.0,0.0,0.0,0.0,0.0,0.0,0.0,0.0
,,114118.457381,0.28058886528015137,0.0,0.0,0.0,0.0,0.0,0.0,0.0,0.0,0.0,0.0,0.0,0,1,2,3,4,5,6,7,8,9,572511.0,-0.87,-0.08,0.46,-0.06,-0.12,0.06,-7.8,221.16,72.02,0.0,0.0,0.0,0.0,0.0,0.0,0.0,0.0,0.0,0.0,0.0,0.0,0.0,0.0,0.0,0.0,0.0,0.0,0.0,0.0,0.0,0.0
,,114118.477387,0.30058717727661133,0.0,0.0,0.0,0.0,0.0,0.0,0.0,0.0,0.0,0.0,0.0,0,1,2,3,4,5,6,7,8,9,572617.0,-0.88,-0.08,0.47,-0.06,-0.06,-0.06,-7.2,223.11,72.92,0.0,0.0,0.0,0.0,0.0,0.0,0.0,0.0,0.0,0.0,0.0,0.0,0.0,0.0,0.0,0.0,0.0,0.0,0.0,0.0,0.0,0.0
,,114118.497383,0.3205835819244385,0.0,0.0,0.0,0.0,0.0,0.0,0.0,0.0,0.0,0.0,0.0,0,1,2,3,4,5,6,7,8,9,572634.0,-0.88,-0.09,0.47,0.0,-0.06,0.0,-6.6,221.01,71.87,0.0,0.0,0.0,0.0,0.0,0.0,0.0,0.0,0.0,0.0,0.0,0.0,0.0,0.0,0.0,0.0,0.0,0.0,0.0,0.0,0.0,0.0
,,114118.517363,0.3405640125274658,0.0,0.0,0.0,0.0,0.0,0.0,0.0,0.0,0.0,0.0,0.0,0,1,2,3,4,5,6,7,8,9,572651.0,-0.86,-0.08,0.46,-0.06,-0.06,0.0,-8.1,222.21,71.72,0.0,0.0,0.0,0.0,0.0,0.0,0.0,0.0,0.0,0.0,0.0,0.0,0.0,0.0,0.0,0.0,0.0,0.0,0.0,0.0,0.0,0.0
,,114118.537376,0.3605782985687256,0.0,0.0,0.0,0.0,0.0,0.0,0.0,0.0,0.0,0.0,0.0,0,1,2,3,4,5,6,7,8,9,572672.0,-0.87,-0.08,0.47,0.0,0.0,0.0,-7.65,221.61,71.27,0.0,0.0,0.0,0.0,0.0,0.0,0.0,0.0,0.0,0.0,0.0,0.0,0.0,0.0,0.0,0.0,0.0,0.0,0.0,0.0,0.0,0.0
,,114118.557394,0.3806116580963135,0.0,0.0,0.0,0.0,0.0,0.0,0.0,0.0,0.0,0.0,0.0,0,1,2,3,4,5,6,7,8,9,572692.0,-0.86,-0.08,0.48,-0.06,-0.12,-0.12,-7.65,222.06,70.97,0.0,0.0,0.0,0.0,0.0,0.0,0.0,0.0,0.0,0.0,0.0,0.0,0.0,0.0,0.0,0.0,0.0,0.0,0.0,0.0,0.0,0.0
,,114118.577391,0.400590181350708,0.0,0.0,0.0,0.0,0.0,0.0,0.0,0.0,0.0,0.0,0.0,0,1,2,3,4,5,6,7,8,9,572712.0,-0.87,-0.08,0.48,-0.12,-0.06,0.12,-6.9,222.06,72.92,0.0,0.0,0.0,0.0,0.0,0.0,0.0,0.0,0.0,0.0,0.0,0.0,0.0,0.0,0.0,0.0,0.0,0.0,0.0,0.0,0.0,0.0
,,114118.597295,0.4204885959625244,0.0,0.0,0.0,0.0,0.0,0.0,0.0,0.0,0.0,0.0,0.0,0,1,2,3,4,5,6,7,8,9,572732.0,-0.88,-0.08,0.48,-0.12,-0.18,0.06,-8.55,221.46,72.47,0.0,0.0,0.0,0.0,0.0,0.0,0.0,0.0,0.0,0.0,0.0,0.0,0.0,0.0,0.0,0.0,0.0,0.0,0.0,0.0,0.0,0.0
,,114118.617394,0.4405941963195801,0.0,0.0,0.0,0.0,0.0,0.0,0.0,0.0,0.0,0.0,0.0,0,1,2,3,4,5,6,7,8,9,572752.0,-0.87,-0.08,0.47,-0.06,-0.12,-0.06,-8.1,221.16,71.72,0.0,0.0,0.0,0.0,0.0,0.0,0.0,0.0,0.0,0.0,0.0,0.0,0.0,0.0,0.0,0.0,0.0,0.0,0.0,0.0,0.0,0.0
,,114118.637376,0.46059465408325195,0.0,0.0,0.0,0.0,0.0,0.0,0.0,0.0,0.0,0.0,0.0,0,1,2,3,4,5,6,7,8,9,572772.0,-0.88,-0.08,0.47,-0.12,-0.18,0.06,-7.05,221.46,71.72,0.0,0.0,0.0,0.0,0.0,0.0,0.0,0.0,0.0,0.0,0.0,0.0,0.0,0.0,0.0,0.0,0.0,0.0,0.0,0.0,0.0,0.0
,,114118.657321,0.4805178642272949,0.0,0.0,0.0,0.0,0.0,0.0,0.0,0.0,0.0,0.0,0.0,0,1,2,3,4,5,6,7,8,9,572792.0,-0.87,-0.08,0.47,-0.06,-0.06,-0.06,-7.2,220.26,71.57,0.0,0.0,0.0,0.0,0.0,0.0,0.0,0.0,0.0,0.0,0.0,0.0,0.0,0.0,0.0,0.0,0.0,0.0,0.0,0.0,0.0,0.0
,,114118.677336,0.5005395412445068,0.0,0.0,0.0,0.0,0.0,0.0,0.0,0.0,0.0,0.0,0.0,0,1,2,3,4,5,6,7,8,9,572792.0,-0.87,-0.08,0.47,-0.06,-0.06,-0.06,-7.2,220.26,71.57,0.0,0.0,0.0,0.0,0.0,0.0,0.0,0.0,0.0,0.0,0.0,0.0,0.0,0.0,0.0,0.0,0.0,0.0,0.0,0.0,0.0,0.0
,,114118.697377,0.5205831527709961,0.0,0.0,0.0,0.0,0.0,0.0,0.0,0.0,0.0,0.0,0.0,0,1,2,3,4,5,6,7,8,9,572792.0,-0.87,-0.08,0.47,-0.06,-0.06,-0.06,-7.2,220.26,71.57,0.0,0.0,0.0,0.0,0.0,0.0,0.0,0.0,0.0,0.0,0.0,0.0,0.0,0.0,0.0,0.0,0.0,0.0,0.0,0.0,0.0,0.0
,,114118.717371,0.5405735969543457,0.0,0.0,0.0,0.0,0.0,0.0,0.0,0.0,0.0,0.0,0.0,0,1,2,3,4,5,6,7,8,9,572792.0,-0.87,-0.08,0.47,-0.06,-0.06,-0.06,-7.2,220.26,71.57,0.0,0.0,0.0,0.0,0.0,0.0,0.0,0.0,0.0,0.0,0.0,0.0,0.0,0.0,0.0,0.0,0.0,0.0,0.0,0.0,0.0,0.0
,,114118.73734,0.560539722442627,0.0,0.0,0.0,0.0,0.0,0.0,0.0,0.0,0.0,0.0,0.0,0,1,2,3,4,5,6,7,8,9,572879.0,-0.87,-0.08,0.46,-0.18,0.0,0.0,-8.55,222.21,70.67,0.0,0.0,0.0,0.0,0.0,0.0,0.0,0.0,0.0,0.0,0.0,0.0,0.0,0.0,0.0,0.0,0.0,0.0,0.0,0.0,0.0,0.0
,,114118.757379,0.5805768966674805,0.0,0.0,0.0,0.0,0.0,0.0,0.0,0.0,0.0,0.0,0.0,0,1,2,3,4,5,6,7,8,9,572896.0,-0.88,-0.07,0.47,0.0,0.06,0.0,-8.7,221.31,72.92,0.0,0.0,0.0,0.0,0.0,0.0,0.0,0.0,0.0,0.0,0.0,0.0,0.0,0.0,0.0,0.0,0.0,0.0,0.0,0.0,0.0,0.0
,,114118.777391,0.6005897521972656,0.0,0.0,0.0,0.0,0.0,0.0,0.0,0.0,0.0,0.0,0.0,0,1,2,3,4,5,6,7,8,9,572912.0,-0.88,-0.08,0.47,-0.06,-0.06,-0.06,-7.95,222.66,71.27,0.0,0.0,0.0,0.0,0.0,0.0,0.0,0.0,0.0,0.0,0.0,0.0,0.0,0.0,0.0,0.0,0.0,0.0,0.0,0.0,0.0,0.0
,,114118.79741,0.6206104755401611,0.0,0.0,0.0,0.0,0.0,0.0,0.0,0.0,0.0,0.0,0.0,0,1,2,3,4,5,6,7,8,9,572932.0,-0.87,-0.08,0.46,-0.06,-0.06,-0.12,-8.25,222.36,71.57,0.0,0.0,0.0,0.0,0.0,0.0,0.0,0.0,0.0,0.0,0.0,0.0,0.0,0.0,0.0,0.0,0.0,0.0,0.0,0.0,0.0,0.0
,,114118.81733,0.6405243873596191,0.0,0.0,0.0,0.0,0.0,0.0,0.0,0.0,0.0,0.0,0.0,0,1,2,3,4,5,6,7,8,9,572951.0,-0.87,-0.07,0.47,-0.12,-0.06,0.0,-8.1,221.16,72.77,0.0,0.0,0.0,0.0,0.0,0.0,0.0,0.0,0.0,0.0,0.0,0.0,0.0,0.0,0.0,0.0,0.0,0.0,0.0,0.0,0.0,0.0
,,114118.837323,0.6605184078216553,0.0,0.0,0.0,0.0,0.0,0.0,0.0,0.0,0.0,0.0,0.0,0,1,2,3,4,5,6,7,8,9,572971.0,-0.88,-0.08,0.48,-0.12,-0.12,0.12,-7.95,222.06,71.57,0.0,0.0,0.0,0.0,0.0,0.0,0.0,0.0,0.0,0.0,0.0,0.0,0.0,0.0,0.0,0.0,0.0,0.0,0.0,0.0,0.0,0.0
,,114118.857363,0.6805634498596191,0.0,0.0,0.0,0.0,0.0,0.0,0.0,0.0,0.0,0.0,0.0,0,1,2,3,4,5,6,7,8,9,572991.0,-0.88,-0.08,0.48,-0.12,-0.18,0.0,-7.95,222.06,72.92,0.0,0.0,0.0,0.0,0.0,0.0,0.0,0.0,0.0,0.0,0.0,0.0,0.0,0.0,0.0,0.0,0.0,0.0,0.0,0.0,0.0,0.0
,,114118.877359,0.7005572319030762,0.0,0.0,0.0,0.0,0.0,0.0,0.0,0.0,0.0,0.0,0.0,0,1,2,3,4,5,6,7,8,9,573011.0,-0.88,-0.08,0.47,0.0,0.0,0.06,-6.6,222.66,71.27,0.0,0.0,0.0,0.0,0.0,0.0,0.0,0.0,0.0,0.0,0.0,0.0,0.0,0.0,0.0,0.0,0.0,0.0,0.0,0.0,0.0,0.0
,,114118.897379,0.7205801010131836,0.0,0.0,0.0,0.0,0.0,0.0,0.0,0.0,0.0,0.0,0.0,0,1,2,3,4,5,6,7,8,9,573032.0,-0.88,-0.08,0.47,-0.06,-0.12,0.0,-7.2,222.06,71.87,0.0,0.0,0.0,0.0,0.0,0.0,0.0,0.0,0.0,0.0,0.0,0.0,0.0,0.0,0.0,0.0,0.0,0.0,0.0,0.0,0.0,0.0
,,114118.917394,0.7405929565429688,0.0,0.0,0.0,0.0,0.0,0.0,0.0,0.0,0.0,0.0,0.0,0,1,2,3,4,5,6,7,8,9,573052.0,-0.88,-0.09,0.48,-0.06,-0.24,0.0,-7.8,221.76,71.12,0.0,0.0,0.0,0.0,0.0,0.0,0.0,0.0,0.0,0.0,0.0,0.0,0.0,0.0,0.0,0.0,0.0,0.0,0.0,0.0,0.0,0.0
,,114118.937408,0.7606120109558105,0.0,0.0,0.0,0.0,0.0,0.0,0.0,0.0,0.0,0.0,0.0,0,1,2,3,4,5,6,7,8,9,573072.0,-0.87,-0.08,0.46,-0.18,-0.06,0.0,-7.65,222.06,71.87,0.0,0.0,0.0,0.0,0.0,0.0,0.0,0.0,0.0,0.0,0.0,0.0,0.0,0.0,0.0,0.0,0.0,0.0,0.0,0.0,0.0,0.0
,,114118.957339,0.7805380821228027,0.0,0.0,0.0,0.0,0.0,0.0,0.0,0.0,0.0,0.0,0.0,0,1,2,3,4,5,6,7,8,9,573072.0,-0.87,-0.08,0.46,-0.18,-0.06,0.0,-7.65,222.06,71.87,0.0,0.0,0.0,0.0,0.0,0.0,0.0,0.0,0.0,0.0,0.0,0.0,0.0,0.0,0.0,0.0,0.0,0.0,0.0,0.0,0.0,0.0
,,114118.977414,0.8006129264831543,0.0,0.0,0.0,0.0,0.0,0.0,0.0,0.0,0.0,0.0,0.0,0,1,2,3,4,5,6,7,8,9,573072.0,-0.87,-0.08,0.46,-0.18,-0.06,0.0,-7.65,222.06,71.87,0.0,0.0,0.0,0.0,0.0,0.0,0.0,0.0,0.0,0.0,0.0,0.0,0.0,0.0,0.0,0.0,0.0,0.0,0.0,0.0,0.0,0.0
,,114118.997412,0.8206136226654053,0.0,0.0,0.0,0.0,0.0,0.0,0.0,0.0,0.0,0.0,0.0,0,1,2,3,4,5,6,7,8,9,573072.0,-0.87,-0.08,0.46,-0.18,-0.06,0.0,-7.65,222.06,71.87,0.0,0.0,0.0,0.0,0.0,0.0,0.0,0.0,0.0,0.0,0.0,0.0,0.0,0.0,0.0,0.0,0.0,0.0,0.0,0.0,0.0,0.0
,,114119.017396,0.8405952453613281,0.0,0.0,0.0,0.0,0.0,0.0,0.0,0.0,0.0,0.0,0.0,0,1,2,3,4,5,6,7,8,9,573160.0,-0.88,-0.07,0.47,-0.06,-0.12,-0.12,-6.6,221.31,71.87,0.0,0.0,0.0,0.0,0.0,0.0,0.0,0.0,0.0,0.0,0.0,0.0,0.0,0.0,0.0,0.0,0.0,0.0,0.0,0.0,0.0,0.0
,,114119.037337,0.8605308532714844,0.0,0.0,0.0,0.0,0.0,0.0,0.0,0.0,0.0,0.0,0.0,0,1,2,3,4,5,6,7,8,9,573177.0,-0.88,-0.07,0.48,-0.06,-0.06,0.0,-8.1,223.56,70.37,0.0,0.0,0.0,0.0,0.0,0.0,0.0,0.0,0.0,0.0,0.0,0.0,0.0,0.0,0.0,0.0,0.0,0.0,0.0,0.0,0.0,0.0
,,114119.057377,0.8805718421936035,0.0,0.0,0.0,0.0,0.0,0.0,0.0,0.0,0.0,0.0,0.0,0,1,2,3,4,5,6,7,8,9,573192.0,-0.87,-0.08,0.46,0.06,-0.06,-0.06,-9.3,221.31,72.32,0.0,0.0,0.0,0.0,0.0,0.0,0.0,0.0,0.0,0.0,0.0,0.0,0.0,0.0,0.0,0.0,0.0,0.0,0.0,0.0,0.0,0.0
,,114119.077388,0.9005839824676514,0.0,0.0,0.0,0.0,0.0,0.0,0.0,0.0,0.0,0.0,0.0,0,1,2,3,4,5,6,7,8,9,573212.0,-0.87,-0.07,0.48,-0.06,-0.24,-0.06,-6.75,221.46,72.02,0.0,0.0,0.0,0.0,0.0,0.0,0.0,0.0,0.0,0.0,0.0,0.0,0.0,0.0,0.0,0.0,0.0,0.0,0.0,0.0,0.0,0.0
,,114119.097365,0.9205639362335205,0.0,0.0,0.0,0.0,0.0,0.0,0.0,0.0,0.0,0.0,0.0,0,1,2,3,4,5,6,7,8,9,573231.0,-0.87,-0.07,0.47,-0.06,-0.12,-0.06,-6.75,223.86,72.77,0.0,0.0,0.0,0.0,0.0,0.0,0.0,0.0,0.0,0.0,0.0,0.0,0.0,0.0,0.0,0.0,0.0,0.0,0.0,0.0,0.0,0.0
,,114119.117349,0.9405491352081299,0.0,0.0,0.0,0.0,0.0,0.0,0.0,0.0,0.0,0.0,0.0,0,1,2,3,4,5,6,7,8,9,573251.0,-0.87,-0.08,0.47,0.0,0.0,-0.12,-7.2,222.66,71.57,0.0,0.0,0.0,0.0,0.0,0.0,0.0,0.0,0.0,0.0,0.0,0.0,0.0,0.0,0.0,0.0,0.0,0.0,0.0,0.0,0.0,0.0
,,114119.137352,0.9605460166931152,0.0,0.0,0.0,0.0,0.0,0.0,0.0,0.0,0.0,0.0,0.0,0,1,2,3,4,5,6,7,8,9,573272.0,-0.87,-0.07,0.46,-0.06,-0.06,-0.06,-8.7,221.31,72.62,0.0,0.0,0.0,0.0,0.0,0.0,0.0,0.0,0.0,0.0,0.0,0.0,0.0,0.0,0.0,0.0,0.0,0.0,0.0,0.0,0.0,0.0
,,114119.157341,0.9805335998535156,0.0,0.0,0.0,0.0,0.0,0.0,0.0,0.0,0.0,0.0,0.0,0,1,2,3,4,5,6,7,8,9,573292.0,-0.88,-0.08,0.47,-0.12,-0.12,-0.12,-8.85,222.81,71.72,0.0,0.0,0.0,0.0,0.0,0.0,0.0,0.0,0.0,0.0,0.0,0.0,0.0,0.0,0.0,0.0,0.0,0.0,0.0,0.0,0.0,0.0
,,114119.177331,1.0005276203155518,0.0,0.0,0.0,0.0,0.0,0.0,0.0,0.0,0.0,0.0,0.0,0,1,2,3,4,5,6,7,8,9,573311.0,-0.88,-0.08,0.46,-0.06,-0.06,0.06,-7.2,221.61,70.97,0.0,0.0,0.0,0.0,0.0,0.0,0.0,0.0,0.0,0.0,0.0,0.0,0.0,0.0,0.0,0.0,0.0,0.0,0.0,0.0,0.0,0.0
,,114119.197374,1.0205762386322021,0.0,0.0,0.0,0.0,0.0,0.0,0.0,0.0,0.0,0.0,0.0,0,1,2,3,4,5,6,7,8,9,573331.0,-0.87,-0.08,0.48,-0.06,-0.06,0.0,-8.25,222.06,71.87,0.0,0.0,0.0,0.0,0.0,0.0,0.0,0.0,0.0,0.0,0.0,0.0,0.0,0.0,0.0,0.0,0.0,0.0,0.0,0.0,0.0,0.0
,,114119.217361,1.0405564308166504,0.0,0.0,0.0,0.0,0.0,0.0,0.0,0.0,0.0,0.0,0.0,0,1,2,3,4,5,6,7,8,9,573351.0,-0.87,-0.08,0.47,-0.12,-0.12,0.06,-7.95,222.36,73.97,0.0,0.0,0.0,0.0,0.0,0.0,0.0,0.0,0.0,0.0,0.0,0.0,0.0,0.0,0.0,0.0,0.0,0.0,0.0,0.0,0.0,0.0
,,114119.23734,1.0605378150939941,0.0,0.0,0.0,0.0,0.0,0.0,0.0,0.0,0.0,0.0,0.0,0,1,2,3,4,5,6,7,8,9,573351.0,-0.87,-0.08,0.47,-0.12,-0.12,0.06,-7.95,222.36,73.97,0.0,0.0,0.0,0.0,0.0,0.0,0.0,0.0,0.0,0.0,0.0,0.0,0.0,0.0,0.0,0.0,0.0,0.0,0.0,0.0,0.0,0.0
,,114119.257497,1.080705165863037,0.0,0.0,0.0,0.0,0.0,0.0,0.0,0.0,0.0,0.0,0.0,0,1,2,3,4,5,6,7,8,9,573351.0,-0.87,-0.08,0.47,-0.12,-0.12,0.06,-7.95,222.36,73.97,0.0,0.0,0.0,0.0,0.0,0.0,0.0,0.0,0.0,0.0,0.0,0.0,0.0,0.0,0.0,0.0,0.0,0.0,0.0,0.0,0.0,0.0
,,114119.277429,1.1006474494934082,0.0,0.0,0.0,0.0,0.0,0.0,0.0,0.0,0.0,0.0,0.0,0,1,2,3,4,5,6,7,8,9,573351.0,-0.87,-0.08,0.47,-0.12,-0.12,0.06,-7.95,222.36,73.97,0.0,0.0,0.0,0.0,0.0,0.0,0.0,0.0,0.0,0.0,0.0,0.0,0.0,0.0,0.0,0.0,0.0,0.0,0.0,0.0,0.0,0.0
,,114119.297405,1.1206042766571045,0.0,0.0,0.0,0.0,0.0,0.0,0.0,0.0,0.0,0.0,0.0,0,1,2,3,4,5,6,7,8,9,573439.0,-0.87,-0.08,0.48,-0.06,-0.06,-0.06,-7.5,221.76,71.12,0.0,0.0,0.0,0.0,0.0,0.0,0.0,0.0,0.0,0.0,0.0,0.0,0.0,0.0,0.0,0.0,0.0,0.0,0.0,0.0,0.0,0.0
,,114119.317352,1.140549659729004,0.0,0.0,0.0,0.0,0.0,0.0,0.0,0.0,0.0,0.0,0.0,0,1,2,3,4,5,6,7,8,9,573456.0,-0.88,-0.09,0.47,-0.12,-0.12,0.0,-7.8,222.81,72.32,0.0,0.0,0.0,0.0,0.0,0.0,0.0,0.0,0.0,0.0,0.0,0.0,0.0,0.0,0.0,0.0,0.0,0.0,0.0,0.0,0.0,0.0
,,114119.337327,1.1605236530303955,0.0,0.0,0.0,0.0,0.0,0.0,0.0,0.0,0.0,0.0,0.0,0,1,2,3,4,5,6,7,8,9,573472.0,-0.87,-0.07,0.48,-0.06,-0.06,0.0,-7.65,221.61,73.67,0.0,0.0,0.0,0.0,0.0,0.0,0.0,0.0,0.0,0.0,0.0,0.0,0.0,0.0,0.0,0.0,0.0,0.0,0.0,0.0,0.0,0.0
,,114119.357351,1.180549144744873,0.0,0.0,0.0,0.0,0.0,0.0,0.0,0.0,0.0,0.0,0.0,0,1,2,3,4,5,6,7,8,9,573492.0,-0.87,-0.08,0.47,-0.06,-0.12,-0.06,-7.5,221.46,72.47,0.0,0.0,0.0,0.0,0.0,0.0,0.0,0.0,0.0,0.0,0.0,0.0,0.0,0.0,0.0,0.0,0.0,0.0,0.0,0.0,0.0,0.0
,,114119.377361,1.2005629539489746,0.0,0.0,0.0,0.0,0.0,0.0,0.0,0.0,0.0,0.0,0.0,0,1,2,3,4,5,6,7,8,9,573512.0,-0.87,-0.07,0.46,0.06,0.0,0.0,-8.55,221.76,72.77,0.0,0.0,0.0,0.0,0.0,0.0,0.0,0.0,0.0,0.0,0.0,0.0,0.0,0.0,0.0,0.0,0.0,0.0,0.0,0.0,0.0,0.0
,,114119.397431,1.220644235610962,0.0,0.0,0.0,0.0,0.0,0.0,0.0,0.0,0.0,0.0,0.0,0,1,2,3,4,5,6,7,8,9,573532.0,-0.87,-0.08,0.48,-0.06,-0.06,0.0,-7.95,221.61,71.87,0.0,0.0,0.0,0.0,0.0,0.0,0.0,0.0,0.0,0.0,0.0,0.0,0.0,0.0,0.0,0.0,0.0,0.0,0.0,0.0,0.0,0.0
,,114119.417345,1.2405431270599365,0.0,0.0,0.0,0.0,0.0,0.0,0.0,0.0,0.0,0.0,0.0,0,1,2,3,4,5,6,7,8,9,573552.0,-0.88,-0.07,0.47,-0.06,-0.06,0.0,-8.7,220.56,71.87,0.0,0.0,0.0,0.0,0.0,0.0,0.0,0.0,0.0,0.0,0.0,0.0,0.0,0.0,0.0,0.0,0.0,0.0,0.0,0.0,0.0,0.0
,,114119.437324,1.26051926612854,0.0,0.0,0.0,0.0,0.0,0.0,0.0,0.0,0.0,0.0,0.0,0,1,2,3,4,5,6,7,8,9,573571.0,-0.87,-0.08,0.47,-0.06,-0.06,0.0,-7.05,221.16,73.37,0.0,0.0,0.0,0.0,0.0,0.0,0.0,0.0,0.0,0.0,0.0,0.0,0.0,0.0,0.0,0.0,0.0,0.0,0.0,0.0,0.0,0.0
,,114119.457402,1.280602216720581,0.0,0.0,0.0,0.0,0.0,0.0,0.0,0.0,0.0,0.0,0.0,0,1,2,3,4,5,6,7,8,9,573591.0,-0.88,-0.07,0.46,-0.06,-0.06,0.0,-9.0,219.2,72.32,0.0,0.0,0.0,0.0,0.0,0.0,0.0,0.0,0.0,0.0,0.0,0.0,0.0,0.0,0.0,0.0,0.0,0.0,0.0,0.0,0.0,0.0
,,114119.477345,1.300539255142212,0.0,0.0,0.0,0.0,0.0,0.0,0.0,0.0,0.0,0.0,0.0,0,1,2,3,4,5,6,7,8,9,573612.0,-0.87,-0.08,0.47,-0.06,-0.06,0.0,-7.8,221.46,72.02,0.0,0.0,0.0,0.0,0.0,0.0,0.0,0.0,0.0,0.0,0.0,0.0,0.0,0.0,0.0,0.0,0.0,0.0,0.0,0.0,0.0,0.0
,,114119.497351,1.3205487728118896,0.0,0.0,0.0,0.0,0.0,0.0,0.0,0.0,0.0,0.0,0.0,0,1,2,3,4,5,6,7,8,9,573632.0,-0.87,-0.08,0.48,0.06,-0.12,0.0,-8.1,221.76,72.77,0.0,0.0,0.0,0.0,0.0,0.0,0.0,0.0,0.0,0.0,0.0,0.0,0.0,0.0,0.0,0.0,0.0,0.0,0.0,0.0,0.0,0.0
,,114119.5174,1.340597152709961,0.0,0.0,0.0,0.0,0.0,0.0,0.0,0.0,0.0,0.0,0.0,0,1,2,3,4,5,6,7,8,9,573632.0,-0.87,-0.08,0.48,0.06,-0.12,0.0,-8.1,221.76,72.77,0.0,0.0,0.0,0.0,0.0,0.0,0.0,0.0,0.0,0.0,0.0,0.0,0.0,0.0,0.0,0.0,0.0,0.0,0.0,0.0,0.0,0.0
,,114119.537365,1.360572338104248,0.0,0.0,0.0,0.0,0.0,0.0,0.0,0.0,0.0,0.0,0.0,0,1,2,3,4,5,6,7,8,9,573632.0,-0.87,-0.08,0.48,0.06,-0.12,0.0,-8.1,221.76,72.77,0.0,0.0,0.0,0.0,0.0,0.0,0.0,0.0,0.0,0.0,0.0,0.0,0.0,0.0,0.0,0.0,0.0,0.0,0.0,0.0,0.0,0.0
,,114119.55736,1.3805665969848633,0.0,0.0,0.0,0.0,0.0,0.0,0.0,0.0,0.0,0.0,0.0,0,1,2,3,4,5,6,7,8,9,573699.0,-0.87,-0.08,0.47,-0.12,-0.06,0.0,-6.45,221.76,73.07,0.0,0.0,0.0,0.0,0.0,0.0,0.0,0.0,0.0,0.0,0.0,0.0,0.0,0.0,0.0,0.0,0.0,0.0,0.0,0.0,0.0,0.0
,,114119.577387,1.4005839824676514,0.0,0.0,0.0,0.0,0.0,0.0,0.0,0.0,0.0,0.0,0.0,0,1,2,3,4,5,6,7,8,9,573716.0,-0.87,-0.07,0.48,0.0,0.12,0.06,-8.1,221.46,71.42,0.0,0.0,0.0,0.0,0.0,0.0,0.0,0.0,0.0,0.0,0.0,0.0,0.0,0.0,0.0,0.0,0.0,0.0,0.0,0.0,0.0,0.0
,,114119.597366,1.4205620288848877,0.0,0.0,0.0,0.0,0.0,0.0,0.0,0.0,0.0,0.0,0.0,0,1,2,3,4,5,6,7,8,9,573733.0,-0.87,-0.07,0.47,-0.06,-0.12,0.06,-7.05,221.16,71.42,0.0,0.0,0.0,0.0,0.0,0.0,0.0,0.0,0.0,0.0,0.0,0.0,0.0,0.0,0.0,0.0,0.0,0.0,0.0,0.0,0.0,0.0
,,114119.617399,1.4405982494354248,0.0,0.0,0.0,0.0,0.0,0.0,0.0,0.0,0.0,0.0,0.0,0,1,2,3,4,5,6,7,8,9,573752.0,-0.87,-0.08,0.47,-0.12,-0.06,-0.12,-7.65,221.61,72.62,0.0,0.0,0.0,0.0,0.0,0.0,0.0,0.0,0.0,0.0,0.0,0.0,0.0,0.0,0.0,0.0,0.0,0.0,0.0,0.0,0.0,0.0
,,114119.63741,1.4606082439422607,0.0,0.0,0.0,0.0,0.0,0.0,0.0,0.0,0.0,0.0,0.0,0,1,2,3,4,5,6,7,8,9,573772.0,-0.87,-0.08,0.46,-0.06,-0.06,-0.12,-7.65,222.06,71.87,0.0,0.0,0.0,0.0,0.0,0.0,0.0,0.0,0.0,0.0,0.0,0.0,0.0,0.0,0.0,0.0,0.0,0.0,0.0,0.0,0.0,0.0
,,114119.657337,1.4805312156677246,0.0,0.0,0.0,0.0,0.0,0.0,0.0,0.0,0.0,0.0,0.0,0,1,2,3,4,5,6,7,8,9,573792.0,-0.88,-0.07,0.47,-0.24,-0.12,0.0,-7.2,222.06,71.27,0.0,0.0,0.0,0.0,0.0,0.0,0.0,0.0,0.0,0.0,0.0,0.0,0.0,0.0,0.0,0.0,0.0,0.0,0.0,0.0,0.0,0.0
,,114119.677335,1.5005333423614502,0.0,0.0,0.0,0.0,0.0,0.0,0.0,0.0,0.0,0.0,0.0,0,1,2,3,4,5,6,7,8,9,573812.0,-0.87,-0.07,0.46,-0.06,-0.06,0.12,-8.25,222.66,72.32,0.0,0.0,0.0,0.0,0.0,0.0,0.0,0.0,0.0,0.0,0.0,0.0,0.0,0.0,0.0,0.0,0.0,0.0,0.0,0.0,0.0,0.0
,,114119.697311,1.5205059051513672,0.0,0.0,0.0,0.0,0.0,0.0,0.0,0.0,0.0,0.0,0.0,0,1,2,3,4,5,6,7,8,9,573832.0,-0.87,-0.07,0.46,-0.06,-0.06,-0.06,-6.45,221.46,72.47,0.0,0.0,0.0,0.0,0.0,0.0,0.0,0.0,0.0,0.0,0.0,0.0,0.0,0.0,0.0,0.0,0.0,0.0,0.0,0.0,0.0,0.0
,,114119.717337,1.5405356884002686,0.0,0.0,0.0,0.0,0.0,0.0,0.0,0.0,0.0,0.0,0.0,0,1,2,3,4,5,6,7,8,9,573852.0,-0.88,-0.08,0.47,-0.12,-0.24,0.12,-7.65,222.36,71.27,0.0,0.0,0.0,0.0,0.0,0.0,0.0,0.0,0.0,0.0,0.0,0.0,0.0,0.0,0.0,0.0,0.0,0.0,0.0,0.0,0.0,0.0
,,114119.737309,1.5605030059814453,0.0,0.0,0.0,0.0,0.0,0.0,0.0,0.0,0.0,0.0,0.0,0,1,2,3,4,5,6,7,8,9,573871.0,-0.88,-0.08,0.47,0.0,-0.06,0.0,-7.5,221.46,72.77,0.0,0.0,0.0,0.0,0.0,0.0,0.0,0.0,0.0,0.0,0.0,0.0,0.0,0.0,0.0,0.0,0.0,0.0,0.0,0.0,0.0,0.0
,,114119.757338,1.5805304050445557,0.0,0.0,0.0,0.0,0.0,0.0,0.0,0.0,0.0,0.0,0.0,0,1,2,3,4,5,6,7,8,9,573892.0,-0.86,-0.07,0.48,-0.12,-0.18,-0.06,-8.85,222.51,70.67,0.0,0.0,0.0,0.0,0.0,0.0,0.0,0.0,0.0,0.0,0.0,0.0,0.0,0.0,0.0,0.0,0.0,0.0,0.0,0.0,0.0,0.0
,,114119.777372,1.6005687713623047,0.0,0.0,0.0,0.0,0.0,0.0,0.0,0.0,0.0,0.0,0.0,0,1,2,3,4,5,6,7,8,9,573912.0,-0.87,-0.08,0.48,-0.18,-0.06,-0.06,-8.7,222.66,71.27,0.0,0.0,0.0,0.0,0.0,0.0,0.0,0.0,0.0,0.0,0.0,0.0,0.0,0.0,0.0,0.0,0.0,0.0,0.0,0.0,0.0,0.0
,,114119.797376,1.620575189590454,0.0,0.0,0.0,0.0,0.0,0.0,0.0,0.0,0.0,0.0,0.0,0,1,2,3,4,5,6,7,8,9,573912.0,-0.87,-0.08,0.48,-0.18,-0.06,-0.06,-8.7,222.66,71.27,0.0,0.0,0.0,0.0,0.0,0.0,0.0,0.0,0.0,0.0,0.0,0.0,0.0,0.0,0.0,0.0,0.0,0.0,0.0,0.0,0.0,0.0
,,114119.817377,1.6405792236328125,0.0,0.0,0.0,0.0,0.0,0.0,0.0,0.0,0.0,0.0,0.0,0,1,2,3,4,5,6,7,8,9,573912.0,-0.87,-0.08,0.48,-0.18,-0.06,-0.06,-8.7,222.66,71.27,0.0,0.0,0.0,0.0,0.0,0.0,0.0,0.0,0.0,0.0,0.0,0.0,0.0,0.0,0.0,0.0,0.0,0.0,0.0,0.0,0.0,0.0
,,114119.837384,1.66058349609375,0.0,0.0,0.0,0.0,0.0,0.0,0.0,0.0,0.0,0.0,0.0,0,1,2,3,4,5,6,7,8,9,573912.0,-0.87,-0.08,0.48,-0.18,-0.06,-0.06,-8.7,222.66,71.27,0.0,0.0,0.0,0.0,0.0,0.0,0.0,0.0,0.0,0.0,0.0,0.0,0.0,0.0,0.0,0.0,0.0,0.0,0.0,0.0,0.0,0.0
,,114119.857412,1.6806087493896484,0.0,0.0,0.0,0.0,0.0,0.0,0.0,0.0,0.0,0.0,0.0,0,1,2,3,4,5,6,7,8,9,574000.0,-0.87,-0.08,0.46,-0.12,-0.12,0.0,-8.85,222.81,72.47,0.0,0.0,0.0,0.0,0.0,0.0,0.0,0.0,0.0,0.0,0.0,0.0,0.0,0.0,0.0,0.0,0.0,0.0,0.0,0.0,0.0,0.0
,,114119.877331,1.7005245685577393,0.0,0.0,0.0,0.0,0.0,0.0,0.0,0.0,0.0,0.0,0.0,0,1,2,3,4,5,6,7,8,9,574017.0,-0.87,-0.08,0.46,0.0,0.0,0.0,-6.9,222.66,71.57,0.0,0.0,0.0,0.0,0.0,0.0,0.0,0.0,0.0,0.0,0.0,0.0,0.0,0.0,0.0,0.0,0.0,0.0,0.0,0.0,0.0,0.0
,,114119.897392,1.7205913066864014,0.0,0.0,0.0,0.0,0.0,0.0,0.0,0.0,0.0,0.0,0.0,0,1,2,3,4,5,6,7,8,9,574031.0,-0.88,-0.08,0.46,-0.12,-0.12,-0.12,-7.65,220.56,72.92,0.0,0.0,0.0,0.0,0.0,0.0,0.0,0.0,0.0,0.0,0.0,0.0,0.0,0.0,0.0,0.0,0.0,0.0,0.0,0.0,0.0,0.0
,,114119.917325,1.7405180931091309,0.0,0.0,0.0,0.0,0.0,0.0,0.0,0.0,0.0,0.0,0.0,0,1,2,3,4,5,6,7,8,9,574051.0,-0.88,-0.08,0.46,-0.06,-0.12,0.0,-7.2,221.31,71.87,0.0,0.0,0.0,0.0,0.0,0.0,0.0,0.0,0.0,0.0,0.0,0.0,0.0,0.0,0.0,0.0,0.0,0.0,0.0,0.0,0.0,0.0
,,114119.937348,1.7605421543121338,0.0,0.0,0.0,0.0,0.0,0.0,0.0,0.0,0.0,0.0,0.0,0,1,2,3,4,5,6,7,8,9,574071.0,-0.87,-0.08,0.47,0.06,0.0,0.0,-7.8,223.26,73.82,0.0,0.0,0.0,0.0,0.0,0.0,0.0,0.0,0.0,0.0,0.0,0.0,0.0,0.0,0.0,0.0,0.0,0.0,0.0,0.0,0.0,0.0
,,114119.957372,1.7805681228637695,0.0,0.0,0.0,0.0,0.0,0.0,0.0,0.0,0.0,0.0,0.0,0,1,2,3,4,5,6,7,8,9,574092.0,-0.87,-0.09,0.47,0.06,0.0,-0.06,-7.8,222.21,72.77,0.0,0.0,0.0,0.0,0.0,0.0,0.0,0.0,0.0,0.0,0.0,0.0,0.0,0.0,0.0,0.0,0.0,0.0,0.0,0.0,0.0,0.0
,,114119.977366,1.8005633354187012,0.0,0.0,0.0,0.0,0.0,0.0,0.0,0.0,0.0,0.0,0.0,0,1,2,3,4,5,6,7,8,9,574112.0,-0.88,-0.08,0.48,0.0,0.0,-0.06,-7.05,222.21,72.47,0.0,0.0,0.0,0.0,0.0,0.0,0.0,0.0,0.0,0.0,0.0,0.0,0.0,0.0,0.0,0.0,0.0,0.0,0.0,0.0,0.0,0.0
,,114119.997515,1.820718765258789,0.0,0.0,0.0,0.0,0.0,0.0,0.0,0.0,0.0,0.0,0.0,0,1,2,3,4,5,6,7,8,9,574132.0,-0.88,-0.08,0.47,-0.06,-0.18,-0.06,-8.55,219.65,71.72,0.0,0.0,0.0,0.0,0.0,0.0,0.0,0.0,0.0,0.0,0.0,0.0,0.0,0.0,0.0,0.0,0.0,0.0,0.0,0.0,0.0,0.0
,,114120.017378,1.840576171875,0.0,0.0,0.0,0.0,0.0,0.0,0.0,0.0,0.0,0.0,0.0,0,1,2,3,4,5,6,7,8,9,574152.0,-0.88,-0.08,0.47,-0.06,-0.18,0.0,-8.7,222.06,70.52,0.0,0.0,0.0,0.0,0.0,0.0,0.0,0.0,0.0,0.0,0.0,0.0,0.0,0.0,0.0,0.0,0.0,0.0,0.0,0.0,0.0,0.0
,,114120.037331,1.8605241775512695,0.0,0.0,0.0,0.0,0.0,0.0,0.0,0.0,0.0,0.0,0.0,0,1,2,3,4,5,6,7,8,9,574172.0,-0.87,-0.08,0.48,-0.06,-0.18,-0.06,-7.65,221.31,72.32,0.0,0.0,0.0,0.0,0.0,0.0,0.0,0.0,0.0,0.0,0.0,0.0,0.0,0.0,0.0,0.0,0.0,0.0,0.0,0.0,0.0,0.0
,,114120.057318,1.8805150985717773,0.0,0.0,0.0,0.0,0.0,0.0,0.0,0.0,0.0,0.0,0.0,0,1,2,3,4,5,6,7,8,9,574192.0,-0.87,-0.08,0.47,-0.06,-0.06,0.0,-7.65,222.06,72.92,0.0,0.0,0.0,0.0,0.0,0.0,0.0,0.0,0.0,0.0,0.0,0.0,0.0,0.0,0.0,0.0,0.0,0.0,0.0,0.0,0.0,0.0
,,114120.077358,1.9005637168884277,0.0,0.0,0.0,0.0,0.0,0.0,0.0,0.0,0.0,0.0,0.0,0,1,2,3,4,5,6,7,8,9,574192.0,-0.87,-0.08,0.47,-0.06,-0.06,0.0,-7.65,222.06,72.92,0.0,0.0,0.0,0.0,0.0,0.0,0.0,0.0,0.0,0.0,0.0,0.0,0.0,0.0,0.0,0.0,0.0,0.0,0.0,0.0,0.0,0.0
,,114120.09736,1.9205682277679443,0.0,0.0,0.0,0.0,0.0,0.0,0.0,0.0,0.0,0.0,0.0,0,1,2,3,4,5,6,7,8,9,574192.0,-0.87,-0.08,0.47,-0.06,-0.06,0.0,-7.65,222.06,72.92,0.0,0.0,0.0,0.0,0.0,0.0,0.0,0.0,0.0,0.0,0.0,0.0,0.0,0.0,0.0,0.0,0.0,0.0,0.0,0.0,0.0,0.0
,,114120.117559,1.9407763481140137,0.0,0.0,0.0,0.0,0.0,0.0,0.0,0.0,0.0,0.0,0.0,0,1,2,3,4,5,6,7,8,9,574192.0,-0.87,-0.08,0.47,-0.06,-0.06,0.0,-7.65,222.06,72.92,0.0,0.0,0.0,0.0,0.0,0.0,0.0,0.0,0.0,0.0,0.0,0.0,0.0,0.0,0.0,0.0,0.0,0.0,0.0,0.0,0.0,0.0
,,114120.137418,1.9606328010559082,0.0,0.0,0.0,0.0,0.0,0.0,0.0,0.0,0.0,0.0,0.0,0,1,2,3,4,5,6,7,8,9,574272.0,-0.88,-0.09,0.47,-0.06,-0.06,-0.12,-5.55,222.06,74.27,0.0,0.0,0.0,0.0,0.0,0.0,0.0,0.0,0.0,0.0,0.0,0.0,0.0,0.0,0.0,0.0,0.0,0.0,0.0,0.0,0.0,0.0
,,114120.157366,1.9805617332458496,0.0,0.0,0.0,0.0,0.0,0.0,0.0,0.0,0.0,0.0,0.0,0,1,2,3,4,5,6,7,8,9,574298.0,-0.87,-0.07,0.48,0.0,0.0,0.0,-6.6,222.36,72.92,0.0,0.0,0.0,0.0,0.0,0.0,0.0,0.0,0.0,0.0,0.0,0.0,0.0,0.0,0.0,0.0,0.0,0.0,0.0,0.0,0.0,0.0
,,114120.177344,2.000537157058716,0.0,0.0,0.0,0.0,0.0,0.0,0.0,0.0,0.0,0.0,0.0,0,1,2,3,4,5,6,7,8,9,574311.0,-0.87,-0.08,0.47,-0.06,-0.12,-0.06,-7.65,222.06,71.57,0.0,0.0,0.0,0.0,0.0,0.0,0.0,0.0,0.0,0.0,0.0,0.0,0.0,0.0,0.0,0.0,0.0,0.0,0.0,0.0,0.0,0.0
,,114120.1974,2.020597457885742,0.0,0.0,0.0,0.0,0.0,0.0,0.0,0.0,0.0,0.0,0.0,0,1,2,3,4,5,6,7,8,9,574331.0,-0.88,-0.08,0.48,-0.06,-0.12,0.0,-8.1,221.46,72.47,0.0,0.0,0.0,0.0,0.0,0.0,0.0,0.0,0.0,0.0,0.0,0.0,0.0,0.0,0.0,0.0,0.0,0.0,0.0,0.0,0.0,0.0
,,114120.217375,2.04057240486145,0.0,0.0,0.0,0.0,0.0,0.0,0.0,0.0,0.0,0.0,0.0,0,1,2,3,4,5,6,7,8,9,574351.0,-0.87,-0.07,0.47,0.06,0.0,-0.06,-8.25,223.11,71.87,0.0,0.0,0.0,0.0,0.0,0.0,0.0,0.0,0.0,0.0,0.0,0.0,0.0,0.0,0.0,0.0,0.0,0.0,0.0,0.0,0.0,0.0
,,114120.237415,2.0606141090393066,0.0,0.0,0.0,0.0,0.0,0.0,0.0,0.0,0.0,0.0,0.0,0,1,2,3,4,5,6,7,8,9,574372.0,-0.87,-0.08,0.48,0.0,-0.06,-0.12,-6.45,221.76,72.02,0.0,0.0,0.0,0.0,0.0,0.0,0.0,0.0,0.0,0.0,0.0,0.0,0.0,0.0,0.0,0.0,0.0,0.0,0.0,0.0,0.0,0.0
,,114120.257314,2.080508232116699,0.0,0.0,0.0,0.0,0.0,0.0,0.0,0.0,0.0,0.0,0.0,0,1,2,3,4,5,6,7,8,9,574392.0,-0.87,-0.07,0.47,-0.06,-0.12,-0.06,-7.5,221.76,71.72,0.0,0.0,0.0,0.0,0.0,0.0,0.0,0.0,0.0,0.0,0.0,0.0,0.0,0.0,0.0,0.0,0.0,0.0,0.0,0.0,0.0,0.0
,,114120.277357,2.1005501747131348,0.0,0.0,0.0,0.0,0.0,0.0,0.0,0.0,0.0,0.0,0.0,0,1,2,3,4,5,6,7,8,9,574411.0,-0.88,-0.08,0.47,-0.06,-0.18,0.0,-7.65,222.36,71.27,0.0,0.0,0.0,0.0,0.0,0.0,0.0,0.0,0.0,0.0,0.0,0.0,0.0,0.0,0.0,0.0,0.0,0.0,0.0,0.0,0.0,0.0
,,114120.29736,2.1205549240112305,0.0,0.0,0.0,0.0,0.0,0.0,0.0,0.0,0.0,0.0,0.0,0,1,2,3,4,5,6,7,8,9,574432.0,-0.88,-0.09,0.48,0.0,0.0,-0.06,-7.8,221.46,72.47,0.0,0.0,0.0,0.0,0.0,0.0,0.0,0.0,0.0,0.0,0.0,0.0,0.0,0.0,0.0,0.0,0.0,0.0,0.0,0.0,0.0,0.0
,,114120.317388,2.1405868530273438,0.0,0.0,0.0,0.0,0.0,0.0,0.0,0.0,0.0,0.0,0.0,0,1,2,3,4,5,6,7,8,9,574452.0,-0.88,-0.08,0.47,0.0,-0.06,-0.06,-8.1,221.16,72.47,0.0,0.0,0.0,0.0,0.0,0.0,0.0,0.0,0.0,0.0,0.0,0.0,0.0,0.0,0.0,0.0,0.0,0.0,0.0,0.0,0.0,0.0
,,114120.337393,2.1605947017669678,0.0,0.0,0.0,0.0,0.0,0.0,0.0,0.0,0.0,0.0,0.0,0,1,2,3,4,5,6,7,8,9,574472.0,-0.87,-0.09,0.47,-0.12,-0.12,-0.06,-8.1,221.76,72.77,0.0,0.0,0.0,0.0,0.0,0.0,0.0,0.0,0.0,0.0,0.0,0.0,0.0,0.0,0.0,0.0,0.0,0.0,0.0,0.0,0.0,0.0
,,114120.357323,2.1805179119110107,0.0,0.0,0.0,0.0,0.0,0.0,0.0,0.0,0.0,0.0,0.0,0,1,2,3,4,5,6,7,8,9,574472.0,-0.87,-0.09,0.47,-0.12,-0.12,-0.06,-8.1,221.76,72.77,0.0,0.0,0.0,0.0,0.0,0.0,0.0,0.0,0.0,0.0,0.0,0.0,0.0,0.0,0.0,0.0,0.0,0.0,0.0,0.0,0.0,0.0
,,114120.377371,2.200589179992676,0.0,0.0,0.0,0.0,0.0,0.0,0.0,0.0,0.0,0.0,0.0,0,1,2,3,4,5,6,7,8,9,574472.0,-0.87,-0.09,0.47,-0.12,-0.12,-0.06,-8.1,221.76,72.77,0.0,0.0,0.0,0.0,0.0,0.0,0.0,0.0,0.0,0.0,0.0,0.0,0.0,0.0,0.0,0.0,0.0,0.0,0.0,0.0,0.0,0.0
,,114120.39738,2.220580816268921,0.0,0.0,0.0,0.0,0.0,0.0,0.0,0.0,0.0,0.0,0.0,0,1,2,3,4,5,6,7,8,9,574472.0,-0.87,-0.09,0.47,-0.12,-0.12,-0.06,-8.1,221.76,72.77,0.0,0.0,0.0,0.0,0.0,0.0,0.0,0.0,0.0,0.0,0.0,0.0,0.0,0.0,0.0,0.0,0.0,0.0,0.0,0.0,0.0,0.0
,,114120.417378,2.2405803203582764,0.0,0.0,0.0,0.0,0.0,0.0,0.0,0.0,0.0,0.0,0.0,0,1,2,3,4,5,6,7,8,9,574558.0,-0.87,-0.08,0.45,0.0,0.06,0.0,-7.65,222.06,72.32,0.0,0.0,0.0,0.0,0.0,0.0,0.0,0.0,0.0,0.0,0.0,0.0,0.0,0.0,0.0,0.0,0.0,0.0,0.0,0.0,0.0,0.0
,,114120.437329,2.2605338096618652,0.0,0.0,0.0,0.0,0.0,0.0,0.0,0.0,0.0,0.0,0.0,0,1,2,3,4,5,6,7,8,9,574575.0,-0.87,-0.08,0.46,-0.06,0.0,0.06,-7.5,221.76,71.42,0.0,0.0,0.0,0.0,0.0,0.0,0.0,0.0,0.0,0.0,0.0,0.0,0.0,0.0,0.0,0.0,0.0,0.0,0.0,0.0,0.0,0.0
,,114120.457365,2.2805652618408203,0.0,0.0,0.0,0.0,0.0,0.0,0.0,0.0,0.0,0.0,0.0,0,1,2,3,4,5,6,7,8,9,574592.0,-0.88,-0.08,0.46,-0.06,0.0,-0.06,-7.05,222.21,72.02,0.0,0.0,0.0,0.0,0.0,0.0,0.0,0.0,0.0,0.0,0.0,0.0,0.0,0.0,0.0,0.0,0.0,0.0,0.0,0.0,0.0,0.0
,,114120.477416,2.3006157875061035,0.0,0.0,0.0,0.0,0.0,0.0,0.0,0.0,0.0,0.0,0.0,0,1,2,3,4,5,6,7,8,9,574612.0,-0.88,-0.07,0.47,-0.06,-0.12,0.0,-7.2,222.36,71.57,0.0,0.0,0.0,0.0,0.0,0.0,0.0,0.0,0.0,0.0,0.0,0.0,0.0,0.0,0.0,0.0,0.0,0.0,0.0,0.0,0.0,0.0
,,114120.497366,2.320566177368164,0.0,0.0,0.0,0.0,0.0,0.0,0.0,0.0,0.0,0.0,0.0,0,1,2,3,4,5,6,7,8,9,574632.0,-0.87,-0.08,0.47,0.12,0.0,0.0,-6.75,221.76,73.07,0.0,0.0,0.0,0.0,0.0,0.0,0.0,0.0,0.0,0.0,0.0,0.0,0.0,0.0,0.0,0.0,0.0,0.0,0.0,0.0,0.0,0.0
,,114120.517359,2.3405582904815674,0.0,0.0,0.0,0.0,0.0,0.0,0.0,0.0,0.0,0.0,0.0,0,1,2,3,4,5,6,7,8,9,574652.0,-0.89,-0.07,0.46,0.06,0.0,-0.12,-7.95,221.31,71.57,0.0,0.0,0.0,0.0,0.0,0.0,0.0,0.0,0.0,0.0,0.0,0.0,0.0,0.0,0.0,0.0,0.0,0.0,0.0,0.0,0.0,0.0
,,114120.53734,2.3605403900146484,0.0,0.0,0.0,0.0,0.0,0.0,0.0,0.0,0.0,0.0,0.0,0,1,2,3,4,5,6,7,8,9,574672.0,-0.87,-0.07,0.46,-0.06,-0.06,0.06,-9.15,221.76,71.42,0.0,0.0,0.0,0.0,0.0,0.0,0.0,0.0,0.0,0.0,0.0,0.0,0.0,0.0,0.0,0.0,0.0,0.0,0.0,0.0,0.0,0.0
,,114120.557317,2.380512237548828,0.0,0.0,0.0,0.0,0.0,0.0,0.0,0.0,0.0,0.0,0.0,0,1,2,3,4,5,6,7,8,9,574692.0,-0.88,-0.08,0.48,0.0,0.0,0.0,-7.8,221.46,71.72,0.0,0.0,0.0,0.0,0.0,0.0,0.0,0.0,0.0,0.0,0.0,0.0,0.0,0.0,0.0,0.0,0.0,0.0,0.0,0.0,0.0,0.0
,,114120.5773,2.4004948139190674,0.0,0.0,0.0,0.0,0.0,0.0,0.0,0.0,0.0,0.0,0.0,0,1,2,3,4,5,6,7,8,9,574712.0,-0.87,-0.08,0.47,-0.06,-0.06,0.0,-7.2,221.31,71.57,0.0,0.0,0.0,0.0,0.0,0.0,0.0,0.0,0.0,0.0,0.0,0.0,0.0,0.0,0.0,0.0,0.0,0.0,0.0,0.0,0.0,0.0
,,114120.597383,2.4205873012542725,0.0,0.0,0.0,0.0,0.0,0.0,0.0,0.0,0.0,0.0,0.0,0,1,2,3,4,5,6,7,8,9,574732.0,-0.87,-0.07,0.48,-0.12,-0.12,0.06,-8.55,221.76,71.72,0.0,0.0,0.0,0.0,0.0,0.0,0.0,0.0,0.0,0.0,0.0,0.0,0.0,0.0,0.0,0.0,0.0,0.0,0.0,0.0,0.0,0.0
,,114120.617386,2.440589427947998,0.0,0.0,0.0,0.0,0.0,0.0,0.0,0.0,0.0,0.0,0.0,0,1,2,3,4,5,6,7,8,9,574752.0,-0.87,-0.08,0.48,-0.12,-0.12,-0.06,-7.8,222.21,71.72,0.0,0.0,0.0,0.0,0.0,0.0,0.0,0.0,0.0,0.0,0.0,0.0,0.0,0.0,0.0,0.0,0.0,0.0,0.0,0.0,0.0,0.0
,,114120.637347,2.460548162460327,0.0,0.0,0.0,0.0,0.0,0.0,0.0,0.0,0.0,0.0,0.0,0,1,2,3,4,5,6,7,8,9,574752.0,-0.87,-0.08,0.48,-0.12,-0.12,-0.06,-7.8,222.21,71.72,0.0,0.0,0.0,0.0,0.0,0.0,0.0,0.0,0.0,0.0,0.0,0.0,0.0,0.0,0.0,0.0,0.0,0.0,0.0,0.0,0.0,0.0
,,114120.657363,2.4805796146392822,0.0,0.0,0.0,0.0,0.0,0.0,0.0,0.0,0.0,0.0,0.0,0,1,2,3,4,5,6,7,8,9,574752.0,-0.87,-0.08,0.48,-0.12,-0.12,-0.06,-7.8,222.21,71.72,0.0,0.0,0.0,0.0,0.0,0.0,0.0,0.0,0.0,0.0,0.0,0.0,0.0,0.0,0.0,0.0,0.0,0.0,0.0,0.0,0.0,0.0
,,114120.677345,2.500545024871826,0.0,0.0,0.0,0.0,0.0,0.0,0.0,0.0,0.0,0.0,0.0,0,1,2,3,4,5,6,7,8,9,574752.0,-0.87,-0.08,0.48,-0.12,-0.12,-0.06,-7.8,222.21,71.72,0.0,0.0,0.0,0.0,0.0,0.0,0.0,0.0,0.0,0.0,0.0,0.0,0.0,0.0,0.0,0.0,0.0,0.0,0.0,0.0,0.0,0.0
,,114120.697381,2.520580768585205,0.0,0.0,0.0,0.0,0.0,0.0,0.0,0.0,0.0,0.0,0.0,0,1,2,3,4,5,6,7,8,9,574839.0,-0.87,-0.08,0.47,0.0,-0.06,0.06,-7.2,222.36,72.32,0.0,0.0,0.0,0.0,0.0,0.0,0.0,0.0,0.0,0.0,0.0,0.0,0.0,0.0,0.0,0.0,0.0,0.0,0.0,0.0,0.0,0.0
,,114120.717374,2.54057240486145,0.0,0.0,0.0,0.0,0.0,0.0,0.0,0.0,0.0,0.0,0.0,0,1,2,3,4,5,6,7,8,9,574856.0,-0.87,-0.08,0.46,0.0,0.0,-0.12,-8.1,221.76,71.72,0.0,0.0,0.0,0.0,0.0,0.0,0.0,0.0,0.0,0.0,0.0,0.0,0.0,0.0,0.0,0.0,0.0,0.0,0.0,0.0,0.0,0.0
,,114120.737332,2.5605273246765137,0.0,0.0,0.0,0.0,0.0,0.0,0.0,0.0,0.0,0.0,0.0,0,1,2,3,4,5,6,7,8,9,574872.0,-0.87,-0.08,0.47,-0.06,-0.12,-0.06,-8.25,222.06,71.57,0.0,0.0,0.0,0.0,0.0,0.0,0.0,0.0,0.0,0.0,0.0,0.0,0.0,0.0,0.0,0.0,0.0,0.0,0.0,0.0,0.0,0.0
,,114120.75734,2.5805346965789795,0.0,0.0,0.0,0.0,0.0,0.0,0.0,0.0,0.0,0.0,0.0,0,1,2,3,4,5,6,7,8,9,574892.0,-0.87,-0.08,0.47,0.0,-0.06,-0.06,-7.8,222.51,71.12,0.0,0.0,0.0,0.0,0.0,0.0,0.0,0.0,0.0,0.0,0.0,0.0,0.0,0.0,0.0,0.0,0.0,0.0,0.0,0.0,0.0,0.0
,,114120.77734,2.6005330085754395,0.0,0.0,0.0,0.0,0.0,0.0,0.0,0.0,0.0,0.0,0.0,0,1,2,3,4,5,6,7,8,9,574912.0,-0.87,-0.08,0.48,0.0,0.06,-0.06,-6.45,221.76,71.12,0.0,0.0,0.0,0.0,0.0,0.0,0.0,0.0,0.0,0.0,0.0,0.0,0.0,0.0,0.0,0.0,0.0,0.0,0.0,0.0,0.0,0.0
,,114120.797376,2.620574474334717,0.0,0.0,0.0,0.0,0.0,0.0,0.0,0.0,0.0,0.0,0.0,0,1,2,3,4,5,6,7,8,9,574932.0,-0.88,-0.08,0.48,-0.12,0.06,-0.18,-7.2,222.66,71.57,0.0,0.0,0.0,0.0,0.0,0.0,0.0,0.0,0.0,0.0,0.0,0.0,0.0,0.0,0.0,0.0,0.0,0.0,0.0,0.0,0.0,0.0
,,114120.817321,2.6405184268951416,0.0,0.0,0.0,0.0,0.0,0.0,0.0,0.0,0.0,0.0,0.0,0,1,2,3,4,5,6,7,8,9,574952.0,-0.88,-0.07,0.46,0.12,0.06,0.0,-6.9,221.31,71.87,0.0,0.0,0.0,0.0,0.0,0.0,0.0,0.0,0.0,0.0,0.0,0.0,0.0,0.0,0.0,0.0,0.0,0.0,0.0,0.0,0.0,0.0
,,114120.837318,2.660513401031494,0.0,0.0,0.0,0.0,0.0,0.0,0.0,0.0,0.0,0.0,0.0,0,1,2,3,4,5,6,7,8,9,574972.0,-0.88,-0.08,0.46,0.0,0.0,0.0,-5.85,220.56,71.57,0.0,0.0,0.0,0.0,0.0,0.0,0.0,0.0,0.0,0.0,0.0,0.0,0.0,0.0,0.0,0.0,0.0,0.0,0.0,0.0,0.0,0.0
,,114120.857337,2.680535316467285,0.0,0.0,0.0,0.0,0.0,0.0,0.0,0.0,0.0,0.0,0.0,0,1,2,3,4,5,6,7,8,9,574992.0,-0.88,-0.08,0.48,-0.12,-0.12,-0.06,-9.3,222.36,71.87,0.0,0.0,0.0,0.0,0.0,0.0,0.0,0.0,0.0,0.0,0.0,0.0,0.0,0.0,0.0,0.0,0.0,0.0,0.0,0.0,0.0,0.0
,,114120.877398,2.7005960941314697,0.0,0.0,0.0,0.0,0.0,0.0,0.0,0.0,0.0,0.0,0.0,0,1,2,3,4,5,6,7,8,9,575012.0,-0.87,-0.07,0.48,0.0,0.0,0.0,-7.95,221.61,71.27,0.0,0.0,0.0,0.0,0.0,0.0,0.0,0.0,0.0,0.0,0.0,0.0,0.0,0.0,0.0,0.0,0.0,0.0,0.0,0.0,0.0,0.0
,,114120.897355,2.7205557823181152,0.0,0.0,0.0,0.0,0.0,0.0,0.0,0.0,0.0,0.0,0.0,0,1,2,3,4,5,6,7,8,9,575032.0,-0.87,-0.07,0.47,-0.12,-0.18,-0.06,-8.1,222.51,72.47,0.0,0.0,0.0,0.0,0.0,0.0,0.0,0.0,0.0,0.0,0.0,0.0,0.0,0.0,0.0,0.0,0.0,0.0,0.0,0.0,0.0,0.0
,,114120.917342,2.7405381202697754,0.0,0.0,0.0,0.0,0.0,0.0,0.0,0.0,0.0,0.0,0.0,0,1,2,3,4,5,6,7,8,9,575032.0,-0.87,-0.07,0.47,-0.12,-0.18,-0.06,-8.1,222.51,72.47,0.0,0.0,0.0,0.0,0.0,0.0,0.0,0.0,0.0,0.0,0.0,0.0,0.0,0.0,0.0,0.0,0.0,0.0,0.0,0.0,0.0,0.0
,,114120.937386,2.7605817317962646,0.0,0.0,0.0,0.0,0.0,0.0,0.0,0.0,0.0,0.0,0.0,0,1,2,3,4,5,6,7,8,9,575032.0,-0.87,-0.07,0.47,-0.12,-0.18,-0.06,-8.1,222.51,72.47,0.0,0.0,0.0,0.0,0.0,0.0,0.0,0.0,0.0,0.0,0.0,0.0,0.0,0.0,0.0,0.0,0.0,0.0,0.0,0.0,0.0,0.0
,,114120.957409,2.7806098461151123,0.0,0.0,0.0,0.0,0.0,0.0,0.0,0.0,0.0,0.0,0.0,0,1,2,3,4,5,6,7,8,9,575032.0,-0.87,-0.07,0.47,-0.12,-0.18,-0.06,-8.1,222.51,72.47,0.0,0.0,0.0,0.0,0.0,0.0,0.0,0.0,0.0,0.0,0.0,0.0,0.0,0.0,0.0,0.0,0.0,0.0,0.0,0.0,0.0,0.0
,,114120.977426,2.8006250858306885,0.0,0.0,0.0,0.0,0.0,0.0,0.0,0.0,0.0,0.0,0.0,0,1,2,3,4,5,6,7,8,9,575118.0,-0.88,-0.07,0.48,-0.12,-0.18,-0.06,-7.5,222.51,71.42,0.0,0.0,0.0,0.0,0.0,0.0,0.0,0.0,0.0,0.0,0.0,0.0,0.0,0.0,0.0,0.0,0.0,0.0,0.0,0.0,0.0,0.0
,,114120.997367,2.8205695152282715,0.0,0.0,0.0,0.0,0.0,0.0,0.0,0.0,0.0,0.0,0.0,0,1,2,3,4,5,6,7,8,9,575135.0,-0.87,-0.08,0.46,-0.06,-0.06,0.06,-7.8,221.46,71.42,0.0,0.0,0.0,0.0,0.0,0.0,0.0,0.0,0.0,0.0,0.0,0.0,0.0,0.0,0.0,0.0,0.0,0.0,0.0,0.0,0.0,0.0
,,114121.017329,2.840524911880493,0.0,0.0,0.0,0.0,0.0,0.0,0.0,0.0,0.0,0.0,0.0,0,1,2,3,4,5,6,7,8,9,575151.0,-0.88,-0.08,0.48,0.0,0.0,0.0,-7.8,221.46,72.02,0.0,0.0,0.0,0.0,0.0,0.0,0.0,0.0,0.0,0.0,0.0,0.0,0.0,0.0,0.0,0.0,0.0,0.0,0.0,0.0,0.0,0.0
,,114121.037349,2.860546827316284,0.0,0.0,0.0,0.0,0.0,0.0,0.0,0.0,0.0,0.0,0.0,0,1,2,3,4,5,6,7,8,9,575172.0,-0.87,-0.08,0.47,-0.18,-0.12,0.0,-7.2,221.31,70.97,0.0,0.0,0.0,0.0,0.0,0.0,0.0,0.0,0.0,0.0,0.0,0.0,0.0,0.0,0.0,0.0,0.0,0.0,0.0,0.0,0.0,0.0
,,114121.057308,2.8805031776428223,0.0,0.0,0.0,0.0,0.0,0.0,0.0,0.0,0.0,0.0,0.0,0,1,2,3,4,5,6,7,8,9,575192.0,-0.86,-0.07,0.46,-0.06,-0.18,-0.12,-10.2,221.76,73.07,0.0,0.0,0.0,0.0,0.0,0.0,0.0,0.0,0.0,0.0,0.0,0.0,0.0,0.0,0.0,0.0,0.0,0.0,0.0,0.0,0.0,0.0
,,114121.077364,2.9005651473999023,0.0,0.0,0.0,0.0,0.0,0.0,0.0,0.0,0.0,0.0,0.0,0,1,2,3,4,5,6,7,8,9,575212.0,-0.87,-0.08,0.48,-0.12,-0.12,-0.06,-9.3,221.61,71.87,0.0,0.0,0.0,0.0,0.0,0.0,0.0,0.0,0.0,0.0,0.0,0.0,0.0,0.0,0.0,0.0,0.0,0.0,0.0,0.0,0.0,0.0
,,114121.097325,2.920518398284912,0.0,0.0,0.0,0.0,0.0,0.0,0.0,0.0,0.0,0.0,0.0,0,1,2,3,4,5,6,7,8,9,575232.0,-0.88,-0.08,0.47,0.0,0.0,0.0,-7.5,221.76,71.72,0.0,0.0,0.0,0.0,0.0,0.0,0.0,0.0,0.0,0.0,0.0,0.0,0.0,0.0,0.0,0.0,0.0,0.0,0.0,0.0,0.0,0.0
,,114121.117316,2.940509080886841,0.0,0.0,0.0,0.0,0.0,0.0,0.0,0.0,0.0,0.0,0.0,0,1,2,3,4,5,6,7,8,9,575252.0,-0.87,-0.08,0.46,0.0,0.0,-0.06,-7.2,222.36,71.87,0.0,0.0,0.0,0.0,0.0,0.0,0.0,0.0,0.0,0.0,0.0,0.0,0.0,0.0,0.0,0.0,0.0,0.0,0.0,0.0,0.0,0.0
,,114121.137358,2.9605562686920166,0.0,0.0,0.0,0.0,0.0,0.0,0.0,0.0,0.0,0.0,0.0,0,1,2,3,4,5,6,7,8,9,575272.0,-0.88,-0.08,0.45,0.0,0.0,-0.06,-9.0,223.11,71.87,0.0,0.0,0.0,0.0,0.0,0.0,0.0,0.0,0.0,0.0,0.0,0.0,0.0,0.0,0.0,0.0,0.0,0.0,0.0,0.0,0.0,0.0
,,114121.157381,2.9805784225463867,0.0,0.0,0.0,0.0,0.0,0.0,0.0,0.0,0.0,0.0,0.0,0,1,2,3,4,5,6,7,8,9,575292.0,-0.87,-0.08,0.47,0.06,0.06,-0.06,-7.5,221.46,72.02,0.0,0.0,0.0,0.0,0.0,0.0,0.0,0.0,0.0,0.0,0.0,0.0,0.0,0.0,0.0,0.0,0.0,0.0,0.0,0.0,0.0,0.0
,,114121.177385,3.0005972385406494,0.0,0.0,0.0,0.0,0.0,0.0,0.0,0.0,0.0,0.0,0.0,0,1,2,3,4,5,6,7,8,9,575312.0,-0.88,-0.08,0.47,-0.06,-0.12,-0.18,-7.05,221.76,72.47,0.0,0.0,0.0,0.0,0.0,0.0,0.0,0.0,0.0,0.0,0.0,0.0,0.0,0.0,0.0,0.0,0.0,0.0,0.0,0.0,0.0,0.0
,,114121.197406,3.0206055641174316,0.0,0.0,0.0,0.0,0.0,0.0,0.0,0.0,0.0,0.0,0.0,0,1,2,3,4,5,6,7,8,9,575312.0,-0.88,-0.08,0.47,-0.06,-0.12,-0.18,-7.05,221.76,72.47,0.0,0.0,0.0,0.0,0.0,0.0,0.0,0.0,0.0,0.0,0.0,0.0,0.0,0.0,0.0,0.0,0.0,0.0,0.0,0.0,0.0,0.0
,,114121.217334,3.04054856300354,0.0,0.0,0.0,0.0,0.0,0.0,0.0,0.0,0.0,0.0,0.0,0,1,2,3,4,5,6,7,8,9,575312.0,-0.88,-0.08,0.47,-0.06,-0.12,-0.18,-7.05,221.76,72.47,0.0,0.0,0.0,0.0,0.0,0.0,0.0,0.0,0.0,0.0,0.0,0.0,0.0,0.0,0.0,0.0,0.0,0.0,0.0,0.0,0.0,0.0
,,114121.23745,3.0606579780578613,0.0,0.0,0.0,0.0,0.0,0.0,0.0,0.0,0.0,0.0,0.0,0,1,2,3,4,5,6,7,8,9,575312.0,-0.88,-0.08,0.47,-0.06,-0.12,-0.18,-7.05,221.76,72.47,0.0,0.0,0.0,0.0,0.0,0.0,0.0,0.0,0.0,0.0,0.0,0.0,0.0,0.0,0.0,0.0,0.0,0.0,0.0,0.0,0.0,0.0
,,114121.257405,3.0806045532226562,0.0,0.0,0.0,0.0,0.0,0.0,0.0,0.0,0.0,0.0,0.0,0,1,2,3,4,5,6,7,8,9,575398.0,-0.87,-0.08,0.46,0.0,0.0,-0.06,-7.5,221.46,72.47,0.0,0.0,0.0,0.0,0.0,0.0,0.0,0.0,0.0,0.0,0.0,0.0,0.0,0.0,0.0,0.0,0.0,0.0,0.0,0.0,0.0,0.0
,,114121.277353,3.100552797317505,0.0,0.0,0.0,0.0,0.0,0.0,0.0,0.0,0.0,0.0,0.0,0,1,2,3,4,5,6,7,8,9,575416.0,-0.87,-0.08,0.48,-0.18,-0.12,-0.12,-7.8,221.46,72.02,0.0,0.0,0.0,0.0,0.0,0.0,0.0,0.0,0.0,0.0,0.0,0.0,0.0,0.0,0.0,0.0,0.0,0.0,0.0,0.0,0.0,0.0
,,114121.297349,3.120544910430908,0.0,0.0,0.0,0.0,0.0,0.0,0.0,0.0,0.0,0.0,0.0,0,1,2,3,4,5,6,7,8,9,575432.0,-0.87,-0.08,0.47,-0.06,-0.12,0.0,-7.5,222.21,73.37,0.0,0.0,0.0,0.0,0.0,0.0,0.0,0.0,0.0,0.0,0.0,0.0,0.0,0.0,0.0,0.0,0.0,0.0,0.0,0.0,0.0,0.0
,,114121.317352,3.140552043914795,0.0,0.0,0.0,0.0,0.0,0.0,0.0,0.0,0.0,0.0,0.0,0,1,2,3,4,5,6,7,8,9,575451.0,-0.88,-0.08,0.48,-0.06,-0.12,0.0,-7.5,220.41,72.02,0.0,0.0,0.0,0.0,0.0,0.0,0.0,0.0,0.0,0.0,0.0,0.0,0.0,0.0,0.0,0.0,0.0,0.0,0.0,0.0,0.0,0.0
,,114121.337355,3.1605563163757324,0.0,0.0,0.0,0.0,0.0,0.0,0.0,0.0,0.0,0.0,0.0,0,1,2,3,4,5,6,7,8,9,575471.0,-0.87,-0.07,0.45,-0.12,-0.18,-0.06,-8.55,222.21,72.02,0.0,0.0,0.0,0.0,0.0,0.0,0.0,0.0,0.0,0.0,0.0,0.0,0.0,0.0,0.0,0.0,0.0,0.0,0.0,0.0,0.0,0.0
,,114121.357354,3.1805500984191895,0.0,0.0,0.0,0.0,0.0,0.0,0.0,0.0,0.0,0.0,0.0,0,1,2,3,4,5,6,7,8,9,575492.0,-0.88,-0.08,0.48,-0.06,-0.24,-0.06,-7.95,222.06,72.32,0.0,0.0,0.0,0.0,0.0,0.0,0.0,0.0,0.0,0.0,0.0,0.0,0.0,0.0,0.0,0.0,0.0,0.0,0.0,0.0,0.0,0.0
,,114121.377326,3.200519323348999,0.0,0.0,0.0,0.0,0.0,0.0,0.0,0.0,0.0,0.0,0.0,0,1,2,3,4,5,6,7,8,9,575512.0,-0.87,-0.08,0.47,0.0,-0.06,-0.12,-7.95,221.61,72.32,0.0,0.0,0.0,0.0,0.0,0.0,0.0,0.0,0.0,0.0,0.0,0.0,0.0,0.0,0.0,0.0,0.0,0.0,0.0,0.0,0.0,0.0
,,114121.397339,3.2205355167388916,0.0,0.0,0.0,0.0,0.0,0.0,0.0,0.0,0.0,0.0,0.0,0,1,2,3,4,5,6,7,8,9,575532.0,-0.88,-0.07,0.46,-0.12,-0.12,0.0,-7.8,222.21,71.72,0.0,0.0,0.0,0.0,0.0,0.0,0.0,0.0,0.0,0.0,0.0,0.0,0.0,0.0,0.0,0.0,0.0,0.0,0.0,0.0,0.0,0.0
,,114121.417381,3.2405805587768555,0.0,0.0,0.0,0.0,0.0,0.0,0.0,0.0,0.0,0.0,0.0,0,1,2,3,4,5,6,7,8,9,575551.0,-0.88,-0.08,0.48,-0.06,-0.06,0.0,-7.65,222.66,72.62,0.0,0.0,0.0,0.0,0.0,0.0,0.0,0.0,0.0,0.0,0.0,0.0,0.0,0.0,0.0,0.0,0.0,0.0,0.0,0.0,0.0,0.0
,,114121.437375,3.2605745792388916,0.0,0.0,0.0,0.0,0.0,0.0,0.0,0.0,0.0,0.0,0.0,0,1,2,3,4,5,6,7,8,9,575571.0,-0.87,-0.09,0.47,-0.06,-0.12,-0.06,-9.3,220.56,71.27,0.0,0.0,0.0,0.0,0.0,0.0,0.0,0.0,0.0,0.0,0.0,0.0,0.0,0.0,0.0,0.0,0.0,0.0,0.0,0.0,0.0,0.0
,,114121.457522,3.280726671218872,0.0,0.0,0.0,0.0,0.0,0.0,0.0,0.0,0.0,0.0,0.0,0,1,2,3,4,5,6,7,8,9,575592.0,-0.88,-0.07,0.46,-0.06,-0.06,-0.06,-7.8,221.16,71.12,0.0,0.0,0.0,0.0,0.0,0.0,0.0,0.0,0.0,0.0,0.0,0.0,0.0,0.0,0.0,0.0,0.0,0.0,0.0,0.0,0.0,0.0
,,114121.477322,3.3005175590515137,0.0,0.0,0.0,0.0,0.0,0.0,0.0,0.0,0.0,0.0,0.0,0,1,2,3,4,5,6,7,8,9,575592.0,-0.88,-0.07,0.46,-0.06,-0.06,-0.06,-7.8,221.16,71.12,0.0,0.0,0.0,0.0,0.0,0.0,0.0,0.0,0.0,0.0,0.0,0.0,0.0,0.0,0.0,0.0,0.0,0.0,0.0,0.0,0.0,0.0
,,114121.497396,3.3205978870391846,0.0,0.0,0.0,0.0,0.0,0.0,0.0,0.0,0.0,0.0,0.0,0,1,2,3,4,5,6,7,8,9,575592.0,-0.88,-0.07,0.46,-0.06,-0.06,-0.06,-7.8,221.16,71.12,0.0,0.0,0.0,0.0,0.0,0.0,0.0,0.0,0.0,0.0,0.0,0.0,0.0,0.0,0.0,0.0,0.0,0.0,0.0,0.0,0.0,0.0
,,114121.517391,3.340616464614868,0.0,0.0,0.0,0.0,0.0,0.0,0.0,0.0,0.0,0.0,0.0,0,1,2,3,4,5,6,7,8,9,575592.0,-0.88,-0.07,0.46,-0.06,-0.06,-0.06,-7.8,221.16,71.12,0.0,0.0,0.0,0.0,0.0,0.0,0.0,0.0,0.0,0.0,0.0,0.0,0.0,0.0,0.0,0.0,0.0,0.0,0.0,0.0,0.0,0.0
,,114121.537386,3.360591411590576,0.0,0.0,0.0,0.0,0.0,0.0,0.0,0.0,0.0,0.0,0.0,0,1,2,3,4,5,6,7,8,9,575678.0,-0.87,-0.08,0.46,-0.06,-0.24,-0.06,-7.2,222.06,71.27,0.0,0.0,0.0,0.0,0.0,0.0,0.0,0.0,0.0,0.0,0.0,0.0,0.0,0.0,0.0,0.0,0.0,0.0,0.0,0.0,0.0,0.0
,,114121.55738,3.380580425262451,0.0,0.0,0.0,0.0,0.0,0.0,0.0,0.0,0.0,0.0,0.0,0,1,2,3,4,5,6,7,8,9,575695.0,-0.87,-0.08,0.47,-0.06,-0.12,0.0,-8.25,221.61,72.62,0.0,0.0,0.0,0.0,0.0,0.0,0.0,0.0,0.0,0.0,0.0,0.0,0.0,0.0,0.0,0.0,0.0,0.0,0.0,0.0,0.0,0.0
,,114121.577343,3.4005422592163086,0.0,0.0,0.0,0.0,0.0,0.0,0.0,0.0,0.0,0.0,0.0,0,1,2,3,4,5,6,7,8,9,575712.0,-0.86,-0.08,0.46,-0.12,-0.12,0.06,-6.9,221.31,71.27,0.0,0.0,0.0,0.0,0.0,0.0,0.0,0.0,0.0,0.0,0.0,0.0,0.0,0.0,0.0,0.0,0.0,0.0,0.0,0.0,0.0,0.0
,,114121.597341,3.420536994934082,0.0,0.0,0.0,0.0,0.0,0.0,0.0,0.0,0.0,0.0,0.0,0,1,2,3,4,5,6,7,8,9,575732.0,-0.88,-0.08,0.47,-0.06,-0.18,-0.12,-8.1,221.46,71.42,0.0,0.0,0.0,0.0,0.0,0.0,0.0,0.0,0.0,0.0,0.0,0.0,0.0,0.0,0.0,0.0,0.0,0.0,0.0,0.0,0.0,0.0
,,114121.617346,3.440542459487915,0.0,0.0,0.0,0.0,0.0,0.0,0.0,0.0,0.0,0.0,0.0,0,1,2,3,4,5,6,7,8,9,575752.0,-0.87,-0.08,0.46,-0.06,-0.06,0.0,-7.5,221.16,72.02,0.0,0.0,0.0,0.0,0.0,0.0,0.0,0.0,0.0,0.0,0.0,0.0,0.0,0.0,0.0,0.0,0.0,0.0,0.0,0.0,0.0,0.0
,,114121.637383,3.460587501525879,0.0,0.0,0.0,0.0,0.0,0.0,0.0,0.0,0.0,0.0,0.0,0,1,2,3,4,5,6,7,8,9,575772.0,-0.88,-0.08,0.46,-0.12,-0.12,0.0,-8.55,221.76,72.77,0.0,0.0,0.0,0.0,0.0,0.0,0.0,0.0,0.0,0.0,0.0,0.0,0.0,0.0,0.0,0.0,0.0,0.0,0.0,0.0,0.0,0.0
,,114121.657383,3.4805872440338135,0.0,0.0,0.0,0.0,0.0,0.0,0.0,0.0,0.0,0.0,0.0,0,1,2,3,4,5,6,7,8,9,575792.0,-0.87,-0.07,0.47,-0.18,-0.12,-0.06,-8.85,222.51,72.02,0.0,0.0,0.0,0.0,0.0,0.0,0.0,0.0,0.0,0.0,0.0,0.0,0.0,0.0,0.0,0.0,0.0,0.0,0.0,0.0,0.0,0.0
,,114121.677379,3.5005834102630615,0.0,0.0,0.0,0.0,0.0,0.0,0.0,0.0,0.0,0.0,0.0,0,1,2,3,4,5,6,7,8,9,575812.0,-0.87,-0.08,0.47,0.06,-0.18,-0.06,-5.7,221.46,72.77,0.0,0.0,0.0,0.0,0.0,0.0,0.0,0.0,0.0,0.0,0.0,0.0,0.0,0.0,0.0,0.0,0.0,0.0,0.0,0.0,0.0,0.0
,,114121.697384,3.5205836296081543,0.0,0.0,0.0,0.0,0.0,0.0,0.0,0.0,0.0,0.0,0.0,0,1,2,3,4,5,6,7,8,9,575832.0,-0.88,-0.08,0.47,-0.12,-0.12,0.0,-6.9,221.61,71.27,0.0,0.0,0.0,0.0,0.0,0.0,0.0,0.0,0.0,0.0,0.0,0.0,0.0,0.0,0.0,0.0,0.0,0.0,0.0,0.0,0.0,0.0
,,114121.717336,3.540531635284424,0.0,0.0,0.0,0.0,0.0,0.0,0.0,0.0,0.0,0.0,0.0,0,1,2,3,4,5,6,7,8,9,575852.0,-0.88,-0.07,0.47,-0.06,-0.18,0.06,-6.9,221.61,71.27,0.0,0.0,0.0,0.0,0.0,0.0,0.0,0.0,0.0,0.0,0.0,0.0,0.0,0.0,0.0,0.0,0.0,0.0,0.0,0.0,0.0,0.0
,,114121.737339,3.5605404376983643,0.0,0.0,0.0,0.0,0.0,0.0,0.0,0.0,0.0,0.0,0.0,0,1,2,3,4,5,6,7,8,9,575872.0,-0.87,-0.08,0.47,-0.12,-0.12,-0.12,-7.65,221.01,71.87,0.0,0.0,0.0,0.0,0.0,0.0,0.0,0.0,0.0,0.0,0.0,0.0,0.0,0.0,0.0,0.0,0.0,0.0,0.0,0.0,0.0,0.0
,,114121.757335,3.5805296897888184,0.0,0.0,0.0,0.0,0.0,0.0,0.0,0.0,0.0,0.0,0.0,0,1,2,3,4,5,6,7,8,9,575872.0,-0.87,-0.08,0.47,-0.12,-0.12,-0.12,-7.65,221.01,71.87,0.0,0.0,0.0,0.0,0.0,0.0,0.0,0.0,0.0,0.0,0.0,0.0,0.0,0.0,0.0,0.0,0.0,0.0,0.0,0.0,0.0,0.0
,,114121.777376,3.6005818843841553,0.0,0.0,0.0,0.0,0.0,0.0,0.0,0.0,0.0,0.0,0.0,0,1,2,3,4,5,6,7,8,9,575872.0,-0.87,-0.08,0.47,-0.12,-0.12,-0.12,-7.65,221.01,71.87,0.0,0.0,0.0,0.0,0.0,0.0,0.0,0.0,0.0,0.0,0.0,0.0,0.0,0.0,0.0,0.0,0.0,0.0,0.0,0.0,0.0,0.0
,,114121.797392,3.6205930709838867,0.0,0.0,0.0,0.0,0.0,0.0,0.0,0.0,0.0,0.0,0.0,0,1,2,3,4,5,6,7,8,9,575872.0,-0.87,-0.08,0.47,-0.12,-0.12,-0.12,-7.65,221.01,71.87,0.0,0.0,0.0,0.0,0.0,0.0,0.0,0.0,0.0,0.0,0.0,0.0,0.0,0.0,0.0,0.0,0.0,0.0,0.0,0.0,0.0,0.0
,,114121.817393,3.6405956745147705,0.0,0.0,0.0,0.0,0.0,0.0,0.0,0.0,0.0,0.0,0.0,0,1,2,3,4,5,6,7,8,9,575959.0,-0.88,-0.08,0.47,-0.06,-0.06,-0.18,-7.65,222.06,70.22,0.0,0.0,0.0,0.0,0.0,0.0,0.0,0.0,0.0,0.0,0.0,0.0,0.0,0.0,0.0,0.0,0.0,0.0,0.0,0.0,0.0,0.0
,,114121.837383,3.660615921020508,0.0,0.0,0.0,0.0,0.0,0.0,0.0,0.0,0.0,0.0,0.0,0,1,2,3,4,5,6,7,8,9,575976.0,-0.87,-0.08,0.47,0.0,0.0,0.0,-7.5,221.76,72.47,0.0,0.0,0.0,0.0,0.0,0.0,0.0,0.0,0.0,0.0,0.0,0.0,0.0,0.0,0.0,0.0,0.0,0.0,0.0,0.0,0.0,0.0
,,114121.85739,3.6805946826934814,0.0,0.0,0.0,0.0,0.0,0.0,0.0,0.0,0.0,0.0,0.0,0,1,2,3,4,5,6,7,8,9,575992.0,-0.87,-0.08,0.46,-0.06,-0.18,0.12,-7.8,221.76,72.47,0.0,0.0,0.0,0.0,0.0,0.0,0.0,0.0,0.0,0.0,0.0,0.0,0.0,0.0,0.0,0.0,0.0,0.0,0.0,0.0,0.0,0.0
,,114121.877368,3.700584650039673,0.0,0.0,0.0,0.0,0.0,0.0,0.0,0.0,0.0,0.0,0.0,0,1,2,3,4,5,6,7,8,9,576012.0,-0.87,-0.07,0.47,-0.06,-0.12,0.0,-8.7,220.56,72.62,0.0,0.0,0.0,0.0,0.0,0.0,0.0,0.0,0.0,0.0,0.0,0.0,0.0,0.0,0.0,0.0,0.0,0.0,0.0,0.0,0.0,0.0
,,114121.897368,3.7205677032470703,0.0,0.0,0.0,0.0,0.0,0.0,0.0,0.0,0.0,0.0,0.0,0,1,2,3,4,5,6,7,8,9,576032.0,-0.87,-0.08,0.48,0.06,-0.06,0.0,-8.25,219.95,71.57,0.0,0.0,0.0,0.0,0.0,0.0,0.0,0.0,0.0,0.0,0.0,0.0,0.0,0.0,0.0,0.0,0.0,0.0,0.0,0.0,0.0,0.0
,,114121.91735,3.7405457496643066,0.0,0.0,0.0,0.0,0.0,0.0,0.0,0.0,0.0,0.0,0.0,0,1,2,3,4,5,6,7,8,9,576052.0,-0.87,-0.07,0.46,0.0,0.0,-0.06,-8.7,221.31,71.57,0.0,0.0,0.0,0.0,0.0,0.0,0.0,0.0,0.0,0.0,0.0,0.0,0.0,0.0,0.0,0.0,0.0,0.0,0.0,0.0,0.0,0.0
,,114121.937329,3.760524272918701,0.0,0.0,0.0,0.0,0.0,0.0,0.0,0.0,0.0,0.0,0.0,0,1,2,3,4,5,6,7,8,9,576072.0,-0.88,-0.08,0.47,-0.06,-0.12,0.06,-8.25,221.31,72.62,0.0,0.0,0.0,0.0,0.0,0.0,0.0,0.0,0.0,0.0,0.0,0.0,0.0,0.0,0.0,0.0,0.0,0.0,0.0,0.0,0.0,0.0
,,114121.957388,3.780590295791626,0.0,0.0,0.0,0.0,0.0,0.0,0.0,0.0,0.0,0.0,0.0,0,1,2,3,4,5,6,7,8,9,576092.0,-0.86,-0.08,0.47,-0.12,-0.12,0.0,-7.8,222.51,71.72,0.0,0.0,0.0,0.0,0.0,0.0,0.0,0.0,0.0,0.0,0.0,0.0,0.0,0.0,0.0,0.0,0.0,0.0,0.0,0.0,0.0,0.0
,,114121.977336,3.800532102584839,0.0,0.0,0.0,0.0,0.0,0.0,0.0,0.0,0.0,0.0,0.0,0,1,2,3,4,5,6,7,8,9,576112.0,-0.87,-0.07,0.47,-0.06,-0.12,-0.12,-7.8,220.71,73.07,0.0,0.0,0.0,0.0,0.0,0.0,0.0,0.0,0.0,0.0,0.0,0.0,0.0,0.0,0.0,0.0,0.0,0.0,0.0,0.0,0.0,0.0
,,114121.997325,3.8205199241638184,0.0,0.0,0.0,0.0,0.0,0.0,0.0,0.0,0.0,0.0,0.0,0,1,2,3,4,5,6,7,8,9,576132.0,-0.88,-0.07,0.47,-0.06,-0.06,-0.12,-7.5,221.76,71.42,0.0,0.0,0.0,0.0,0.0,0.0,0.0,0.0,0.0,0.0,0.0,0.0,0.0,0.0,0.0,0.0,0.0,0.0,0.0,0.0,0.0,0.0
,,114122.01739,3.840588092803955,0.0,0.0,0.0,0.0,0.0,0.0,0.0,0.0,0.0,0.0,0.0,0,1,2,3,4,5,6,7,8,9,576152.0,-0.88,-0.08,0.48,-0.06,-0.06,-0.06,-7.5,222.51,72.02,0.0,0.0,0.0,0.0,0.0,0.0,0.0,0.0,0.0,0.0,0.0,0.0,0.0,0.0,0.0,0.0,0.0,0.0,0.0,0.0,0.0,0.0
,,114122.037344,3.860541582107544,0.0,0.0,0.0,0.0,0.0,0.0,0.0,0.0,0.0,0.0,0.0,0,1,2,3,4,5,6,7,8,9,576152.0,-0.88,-0.08,0.48,-0.06,-0.06,-0.06,-7.5,222.51,72.02,0.0,0.0,0.0,0.0,0.0,0.0,0.0,0.0,0.0,0.0,0.0,0.0,0.0,0.0,0.0,0.0,0.0,0.0,0.0,0.0,0.0,0.0
,,114122.05737,3.880587577819824,0.0,0.0,0.0,0.0,0.0,0.0,0.0,0.0,0.0,0.0,0.0,0,1,2,3,4,5,6,7,8,9,576152.0,-0.88,-0.08,0.48,-0.06,-0.06,-0.06,-7.5,222.51,72.02,0.0,0.0,0.0,0.0,0.0,0.0,0.0,0.0,0.0,0.0,0.0,0.0,0.0,0.0,0.0,0.0,0.0,0.0,0.0,0.0,0.0,0.0
,,114122.077382,3.9005959033966064,0.0,0.0,0.0,0.0,0.0,0.0,0.0,0.0,0.0,0.0,0.0,0,1,2,3,4,5,6,7,8,9,576152.0,-0.88,-0.08,0.48,-0.06,-0.06,-0.06,-7.5,222.51,72.02,0.0,0.0,0.0,0.0,0.0,0.0,0.0,0.0,0.0,0.0,0.0,0.0,0.0,0.0,0.0,0.0,0.0,0.0,0.0,0.0,0.0,0.0
,,114122.097355,3.9205527305603027,0.0,0.0,0.0,0.0,0.0,0.0,0.0,0.0,0.0,0.0,0.0,0,1,2,3,4,5,6,7,8,9,576238.0,-0.87,-0.08,0.47,-0.06,0.0,0.0,-7.95,223.41,72.32,0.0,0.0,0.0,0.0,0.0,0.0,0.0,0.0,0.0,0.0,0.0,0.0,0.0,0.0,0.0,0.0,0.0,0.0,0.0,0.0,0.0,0.0
,,114122.11735,3.9405457973480225,0.0,0.0,0.0,0.0,0.0,0.0,0.0,0.0,0.0,0.0,0.0,0,1,2,3,4,5,6,7,8,9,576255.0,-0.87,-0.08,0.47,-0.06,-0.12,0.0,-8.85,220.71,72.02,0.0,0.0,0.0,0.0,0.0,0.0,0.0,0.0,0.0,0.0,0.0,0.0,0.0,0.0,0.0,0.0,0.0,0.0,0.0,0.0,0.0,0.0
,,114122.137378,3.9605894088745117,0.0,0.0,0.0,0.0,0.0,0.0,0.0,0.0,0.0,0.0,0.0,0,1,2,3,4,5,6,7,8,9,576272.0,-0.87,-0.08,0.47,-0.06,-0.06,0.0,-8.7,221.31,71.57,0.0,0.0,0.0,0.0,0.0,0.0,0.0,0.0,0.0,0.0,0.0,0.0,0.0,0.0,0.0,0.0,0.0,0.0,0.0,0.0,0.0,0.0
,,114122.157344,3.9805383682250977,0.0,0.0,0.0,0.0,0.0,0.0,0.0,0.0,0.0,0.0,0.0,0,1,2,3,4,5,6,7,8,9,576292.0,-0.88,-0.08,0.47,-0.12,-0.12,-0.06,-8.1,221.76,71.72,0.0,0.0,0.0,0.0,0.0,0.0,0.0,0.0,0.0,0.0,0.0,0.0,0.0,0.0,0.0,0.0,0.0,0.0,0.0,0.0,0.0,0.0
,,114122.177345,4.0005388259887695,0.0,0.0,0.0,0.0,0.0,0.0,0.0,0.0,0.0,0.0,0.0,0,1,2,3,4,5,6,7,8,9,576312.0,-0.88,-0.07,0.47,0.0,0.06,-0.06,-8.85,220.11,72.47,0.0,0.0,0.0,0.0,0.0,0.0,0.0,0.0,0.0,0.0,0.0,0.0,0.0,0.0,0.0,0.0,0.0,0.0,0.0,0.0,0.0,0.0
,,114122.197287,4.020479917526245,0.0,0.0,0.0,0.0,0.0,0.0,0.0,0.0,0.0,0.0,0.0,0,1,2,3,4,5,6,7,8,9,576332.0,-0.88,-0.08,0.47,-0.06,-0.06,0.0,-8.25,221.01,70.52,0.0,0.0,0.0,0.0,0.0,0.0,0.0,0.0,0.0,0.0,0.0,0.0,0.0,0.0,0.0,0.0,0.0,0.0,0.0,0.0,0.0,0.0
,,114122.217331,4.04052996635437,0.0,0.0,0.0,0.0,0.0,0.0,0.0,0.0,0.0,0.0,0.0,0,1,2,3,4,5,6,7,8,9,576352.0,-0.88,-0.08,0.46,-0.06,-0.12,0.06,-7.8,221.46,69.77,0.0,0.0,0.0,0.0,0.0,0.0,0.0,0.0,0.0,0.0,0.0,0.0,0.0,0.0,0.0,0.0,0.0,0.0,0.0,0.0,0.0,0.0
,,114122.237382,4.060586929321289,0.0,0.0,0.0,0.0,0.0,0.0,0.0,0.0,0.0,0.0,0.0,0,1,2,3,4,5,6,7,8,9,576372.0,-0.87,-0.08,0.48,-0.12,-0.12,0.0,-8.7,221.01,72.92,0.0,0.0,0.0,0.0,0.0,0.0,0.0,0.0,0.0,0.0,0.0,0.0,0.0,0.0,0.0,0.0,0.0,0.0,0.0,0.0,0.0,0.0
,,114122.257375,4.0805792808532715,0.0,0.0,0.0,0.0,0.0,0.0,0.0,0.0,0.0,0.0,0.0,0,1,2,3,4,5,6,7,8,9,576392.0,-0.87,-0.07,0.46,-0.12,-0.12,0.0,-8.1,222.81,71.42,0.0,0.0,0.0,0.0,0.0,0.0,0.0,0.0,0.0,0.0,0.0,0.0,0.0,0.0,0.0,0.0,0.0,0.0,0.0,0.0,0.0,0.0
,,114122.277375,4.100570917129517,0.0,0.0,0.0,0.0,0.0,0.0,0.0,0.0,0.0,0.0,0.0,0,1,2,3,4,5,6,7,8,9,576412.0,-0.87,-0.08,0.45,0.12,0.0,-0.06,-7.8,221.16,72.47,0.0,0.0,0.0,0.0,0.0,0.0,0.0,0.0,0.0,0.0,0.0,0.0,0.0,0.0,0.0,0.0,0.0,0.0,0.0,0.0,0.0,0.0
,,114122.297367,4.120570182800293,0.0,0.0,0.0,0.0,0.0,0.0,0.0,0.0,0.0,0.0,0.0,0,1,2,3,4,5,6,7,8,9,576432.0,-0.88,-0.08,0.48,-0.06,-0.06,0.0,-7.8,220.71,71.42,0.0,0.0,0.0,0.0,0.0,0.0,0.0,0.0,0.0,0.0,0.0,0.0,0.0,0.0,0.0,0.0,0.0,0.0,0.0,0.0,0.0,0.0
,,114122.317306,4.140502452850342,0.0,0.0,0.0,0.0,0.0,0.0,0.0,0.0,0.0,0.0,0.0,0,1,2,3,4,5,6,7,8,9,576432.0,-0.88,-0.08,0.48,-0.06,-0.06,0.0,-7.8,220.71,71.42,0.0,0.0,0.0,0.0,0.0,0.0,0.0,0.0,0.0,0.0,0.0,0.0,0.0,0.0,0.0,0.0,0.0,0.0,0.0,0.0,0.0,0.0
,,114122.337395,4.1605916023254395,0.0,0.0,0.0,0.0,0.0,0.0,0.0,0.0,0.0,0.0,0.0,0,1,2,3,4,5,6,7,8,9,576432.0,-0.88,-0.08,0.48,-0.06,-0.06,0.0,-7.8,220.71,71.42,0.0,0.0,0.0,0.0,0.0,0.0,0.0,0.0,0.0,0.0,0.0,0.0,0.0,0.0,0.0,0.0,0.0,0.0,0.0,0.0,0.0,0.0
,,114122.357373,4.180571794509888,0.0,0.0,0.0,0.0,0.0,0.0,0.0,0.0,0.0,0.0,0.0,0,1,2,3,4,5,6,7,8,9,576432.0,-0.88,-0.08,0.48,-0.06,-0.06,0.0,-7.8,220.71,71.42,0.0,0.0,0.0,0.0,0.0,0.0,0.0,0.0,0.0,0.0,0.0,0.0,0.0,0.0,0.0,0.0,0.0,0.0,0.0,0.0,0.0,0.0
,,114122.377413,4.200612306594849,0.0,0.0,0.0,0.0,0.0,0.0,0.0,0.0,0.0,0.0,0.0,0,1,2,3,4,5,6,7,8,9,576519.0,-0.87,-0.07,0.49,-0.12,-0.06,0.0,-7.5,221.46,71.42,0.0,0.0,0.0,0.0,0.0,0.0,0.0,0.0,0.0,0.0,0.0,0.0,0.0,0.0,0.0,0.0,0.0,0.0,0.0,0.0,0.0,0.0
,,114122.397361,4.2205564975738525,0.0,0.0,0.0,0.0,0.0,0.0,0.0,0.0,0.0,0.0,0.0,0,1,2,3,4,5,6,7,8,9,576536.0,-0.87,-0.07,0.47,-0.12,-0.06,-0.06,-7.65,222.06,71.87,0.0,0.0,0.0,0.0,0.0,0.0,0.0,0.0,0.0,0.0,0.0,0.0,0.0,0.0,0.0,0.0,0.0,0.0,0.0,0.0,0.0,0.0
,,114122.417376,4.240574836730957,0.0,0.0,0.0,0.0,0.0,0.0,0.0,0.0,0.0,0.0,0.0,0,1,2,3,4,5,6,7,8,9,576552.0,-0.87,-0.07,0.46,0.0,0.06,-0.06,-7.05,221.76,72.02,0.0,0.0,0.0,0.0,0.0,0.0,0.0,0.0,0.0,0.0,0.0,0.0,0.0,0.0,0.0,0.0,0.0,0.0,0.0,0.0,0.0,0.0
,,114122.437348,4.260545253753662,0.0,0.0,0.0,0.0,0.0,0.0,0.0,0.0,0.0,0.0,0.0,0,1,2,3,4,5,6,7,8,9,576572.0,-0.88,-0.08,0.47,0.06,-0.06,-0.06,-8.55,221.76,72.02,0.0,0.0,0.0,0.0,0.0,0.0,0.0,0.0,0.0,0.0,0.0,0.0,0.0,0.0,0.0,0.0,0.0,0.0,0.0,0.0,0.0,0.0
,,114122.457396,4.2805962562561035,0.0,0.0,0.0,0.0,0.0,0.0,0.0,0.0,0.0,0.0,0.0,0,1,2,3,4,5,6,7,8,9,576592.0,-0.87,-0.07,0.47,-0.12,-0.12,-0.06,-6.6,221.61,72.32,0.0,0.0,0.0,0.0,0.0,0.0,0.0,0.0,0.0,0.0,0.0,0.0,0.0,0.0,0.0,0.0,0.0,0.0,0.0,0.0,0.0,0.0
,,114122.477367,4.3005664348602295,0.0,0.0,0.0,0.0,0.0,0.0,0.0,0.0,0.0,0.0,0.0,0,1,2,3,4,5,6,7,8,9,576612.0,-0.88,-0.08,0.47,-0.18,-0.06,-0.06,-6.9,221.01,73.22,0.0,0.0,0.0,0.0,0.0,0.0,0.0,0.0,0.0,0.0,0.0,0.0,0.0,0.0,0.0,0.0,0.0,0.0,0.0,0.0,0.0,0.0
,,114122.497391,4.32059121131897,0.0,0.0,0.0,0.0,0.0,0.0,0.0,0.0,0.0,0.0,0.0,0,1,2,3,4,5,6,7,8,9,576632.0,-0.87,-0.08,0.46,-0.06,-0.12,-0.18,-7.8,221.76,72.02,0.0,0.0,0.0,0.0,0.0,0.0,0.0,0.0,0.0,0.0,0.0,0.0,0.0,0.0,0.0,0.0,0.0,0.0,0.0,0.0,0.0,0.0
,,114122.517406,4.340606212615967,0.0,0.0,0.0,0.0,0.0,0.0,0.0,0.0,0.0,0.0,0.0,0,1,2,3,4,5,6,7,8,9,576651.0,-0.89,-0.08,0.48,0.0,0.0,-0.06,-7.95,222.36,72.62,0.0,0.0,0.0,0.0,0.0,0.0,0.0,0.0,0.0,0.0,0.0,0.0,0.0,0.0,0.0,0.0,0.0,0.0,0.0,0.0,0.0,0.0
,,114122.537341,4.360540866851807,0.0,0.0,0.0,0.0,0.0,0.0,0.0,0.0,0.0,0.0,0.0,0,1,2,3,4,5,6,7,8,9,576672.0,-0.87,-0.08,0.47,0.0,0.06,0.06,-8.1,220.71,70.07,0.0,0.0,0.0,0.0,0.0,0.0,0.0,0.0,0.0,0.0,0.0,0.0,0.0,0.0,0.0,0.0,0.0,0.0,0.0,0.0,0.0,0.0
,,114122.557398,4.380600690841675,0.0,0.0,0.0,0.0,0.0,0.0,0.0,0.0,0.0,0.0,0.0,0,1,2,3,4,5,6,7,8,9,576692.0,-0.88,-0.08,0.47,-0.06,-0.18,0.06,-6.6,221.31,70.52,0.0,0.0,0.0,0.0,0.0,0.0,0.0,0.0,0.0,0.0,0.0,0.0,0.0,0.0,0.0,0.0,0.0,0.0,0.0,0.0,0.0,0.0
,,114122.57737,4.40057373046875,0.0,0.0,0.0,0.0,0.0,0.0,0.0,0.0,0.0,0.0,0.0,0,1,2,3,4,5,6,7,8,9,576712.0,-0.87,-0.08,0.46,-0.12,-0.12,-0.12,-6.6,221.31,71.87,0.0,0.0,0.0,0.0,0.0,0.0,0.0,0.0,0.0,0.0,0.0,0.0,0.0,0.0,0.0,0.0,0.0,0.0,0.0,0.0,0.0,0.0
,,114122.597351,4.420545339584351,0.0,0.0,0.0,0.0,0.0,0.0,0.0,0.0,0.0,0.0,0.0,0,1,2,3,4,5,6,7,8,9,576712.0,-0.87,-0.08,0.46,-0.12,-0.12,-0.12,-6.6,221.31,71.87,0.0,0.0,0.0,0.0,0.0,0.0,0.0,0.0,0.0,0.0,0.0,0.0,0.0,0.0,0.0,0.0,0.0,0.0,0.0,0.0,0.0,0.0
,,114122.617377,4.440578937530518,0.0,0.0,0.0,0.0,0.0,0.0,0.0,0.0,0.0,0.0,0.0,0,1,2,3,4,5,6,7,8,9,576712.0,-0.87,-0.08,0.46,-0.12,-0.12,-0.12,-6.6,221.31,71.87,0.0,0.0,0.0,0.0,0.0,0.0,0.0,0.0,0.0,0.0,0.0,0.0,0.0,0.0,0.0,0.0,0.0,0.0,0.0,0.0,0.0,0.0
,,114122.637355,4.4605512619018555,0.0,0.0,0.0,0.0,0.0,0.0,0.0,0.0,0.0,0.0,0.0,0,1,2,3,4,5,6,7,8,9,576779.0,-0.87,-0.08,0.47,-0.06,-0.12,-0.06,-5.85,222.66,73.97,0.0,0.0,0.0,0.0,0.0,0.0,0.0,0.0,0.0,0.0,0.0,0.0,0.0,0.0,0.0,0.0,0.0,0.0,0.0,0.0,0.0,0.0
,,114122.657384,4.480584144592285,0.0,0.0,0.0,0.0,0.0,0.0,0.0,0.0,0.0,0.0,0.0,0,1,2,3,4,5,6,7,8,9,576796.0,-0.87,-0.08,0.48,0.0,0.06,0.0,-6.0,223.26,72.02,0.0,0.0,0.0,0.0,0.0,0.0,0.0,0.0,0.0,0.0,0.0,0.0,0.0,0.0,0.0,0.0,0.0,0.0,0.0,0.0,0.0,0.0
,,114122.677405,4.500617742538452,0.0,0.0,0.0,0.0,0.0,0.0,0.0,0.0,0.0,0.0,0.0,0,1,2,3,4,5,6,7,8,9,576813.0,-0.87,-0.08,0.47,0.0,-0.12,0.06,-8.85,221.16,72.77,0.0,0.0,0.0,0.0,0.0,0.0,0.0,0.0,0.0,0.0,0.0,0.0,0.0,0.0,0.0,0.0,0.0,0.0,0.0,0.0,0.0,0.0
,,114122.697367,4.520565986633301,0.0,0.0,0.0,0.0,0.0,0.0,0.0,0.0,0.0,0.0,0.0,0,1,2,3,4,5,6,7,8,9,576832.0,-0.87,-0.07,0.47,0.06,0.0,0.0,-9.0,221.61,71.57,0.0,0.0,0.0,0.0,0.0,0.0,0.0,0.0,0.0,0.0,0.0,0.0,0.0,0.0,0.0,0.0,0.0,0.0,0.0,0.0,0.0,0.0
,,114122.717362,4.54055643081665,0.0,0.0,0.0,0.0,0.0,0.0,0.0,0.0,0.0,0.0,0.0,0,1,2,3,4,5,6,7,8,9,576852.0,-0.87,-0.07,0.46,-0.06,-0.06,0.0,-7.5,221.46,72.02,0.0,0.0,0.0,0.0,0.0,0.0,0.0,0.0,0.0,0.0,0.0,0.0,0.0,0.0,0.0,0.0,0.0,0.0,0.0,0.0,0.0,0.0
,,114122.737303,4.560496807098389,0.0,0.0,0.0,0.0,0.0,0.0,0.0,0.0,0.0,0.0,0.0,0,1,2,3,4,5,6,7,8,9,576872.0,-0.87,-0.09,0.47,-0.06,-0.18,-0.12,-7.05,222.21,73.07,0.0,0.0,0.0,0.0,0.0,0.0,0.0,0.0,0.0,0.0,0.0,0.0,0.0,0.0,0.0,0.0,0.0,0.0,0.0,0.0,0.0,0.0
,,114122.757339,4.580535650253296,0.0,0.0,0.0,0.0,0.0,0.0,0.0,0.0,0.0,0.0,0.0,0,1,2,3,4,5,6,7,8,9,576892.0,-0.87,-0.08,0.46,-0.06,-0.06,-0.12,-7.2,221.61,72.32,0.0,0.0,0.0,0.0,0.0,0.0,0.0,0.0,0.0,0.0,0.0,0.0,0.0,0.0,0.0,0.0,0.0,0.0,0.0,0.0,0.0,0.0
,,114122.777424,4.600623369216919,0.0,0.0,0.0,0.0,0.0,0.0,0.0,0.0,0.0,0.0,0.0,0,1,2,3,4,5,6,7,8,9,576912.0,-0.87,-0.07,0.47,-0.06,-0.18,-0.06,-7.5,222.21,73.37,0.0,0.0,0.0,0.0,0.0,0.0,0.0,0.0,0.0,0.0,0.0,0.0,0.0,0.0,0.0,0.0,0.0,0.0,0.0,0.0,0.0,0.0
,,114122.797362,4.620573282241821,0.0,0.0,0.0,0.0,0.0,0.0,0.0,0.0,0.0,0.0,0.0,0,1,2,3,4,5,6,7,8,9,576932.0,-0.88,-0.08,0.46,0.12,0.06,0.06,-8.55,222.81,71.72,0.0,0.0,0.0,0.0,0.0,0.0,0.0,0.0,0.0,0.0,0.0,0.0,0.0,0.0,0.0,0.0,0.0,0.0,0.0,0.0,0.0,0.0
,,114122.817356,4.640554428100586,0.0,0.0,0.0,0.0,0.0,0.0,0.0,0.0,0.0,0.0,0.0,0,1,2,3,4,5,6,7,8,9,576952.0,-0.87,-0.08,0.48,-0.12,-0.12,0.0,-6.6,222.06,72.32,0.0,0.0,0.0,0.0,0.0,0.0,0.0,0.0,0.0,0.0,0.0,0.0,0.0,0.0,0.0,0.0,0.0,0.0,0.0,0.0,0.0,0.0
,,114122.83739,4.660585165023804,0.0,0.0,0.0,0.0,0.0,0.0,0.0,0.0,0.0,0.0,0.0,0,1,2,3,4,5,6,7,8,9,576972.0,-0.87,-0.08,0.46,0.0,0.0,-0.12,-8.25,221.31,71.27,0.0,0.0,0.0,0.0,0.0,0.0,0.0,0.0,0.0,0.0,0.0,0.0,0.0,0.0,0.0,0.0,0.0,0.0,0.0,0.0,0.0,0.0
,,114122.857323,4.680523872375488,0.0,0.0,0.0,0.0,0.0,0.0,0.0,0.0,0.0,0.0,0.0,0,1,2,3,4,5,6,7,8,9,576992.0,-0.87,-0.08,0.46,0.0,0.0,-0.06,-8.55,222.21,71.72,0.0,0.0,0.0,0.0,0.0,0.0,0.0,0.0,0.0,0.0,0.0,0.0,0.0,0.0,0.0,0.0,0.0,0.0,0.0,0.0,0.0,0.0
,,114122.877353,4.700552701950073,0.0,0.0,0.0,0.0,0.0,0.0,0.0,0.0,0.0,0.0,0.0,0,1,2,3,4,5,6,7,8,9,576992.0,-0.87,-0.08,0.46,0.0,0.0,-0.06,-8.55,222.21,71.72,0.0,0.0,0.0,0.0,0.0,0.0,0.0,0.0,0.0,0.0,0.0,0.0,0.0,0.0,0.0,0.0,0.0,0.0,0.0,0.0,0.0,0.0
,,114122.897428,4.720633029937744,0.0,0.0,0.0,0.0,0.0,0.0,0.0,0.0,0.0,0.0,0.0,0,1,2,3,4,5,6,7,8,9,576992.0,-0.87,-0.08,0.46,0.0,0.0,-0.06,-8.55,222.21,71.72,0.0,0.0,0.0,0.0,0.0,0.0,0.0,0.0,0.0,0.0,0.0,0.0,0.0,0.0,0.0,0.0,0.0,0.0,0.0,0.0,0.0,0.0
